$GPGGA,172515,4933.0349,N,01043.0257,E,1,07,1.90,335.5,M,47.547,M,,*78
$GPRMC,172515,A,4933.0349,N,01043.0257,E,0.1128,161.314,300707,,*24
$GPGSA,A,3,05,06,14,12,04,02,07,,,,,,2.8,1.9,2.0*36
$GPGSV,3,1,12,05,78,069,12,30,78,306,00,06,42,218,14,14,32,256,17*7A
$GPGSV,3,2,12,01,27,302,00,12,58,080,31,09,21,149,00,04,19,045,13*73
$GPGSV,3,3,12,02,35,083,31,07,35,222,20,31,21,310,06,35,07,250,00*75
$GPGGA,172516,4933.0349,N,01043.0257,E,1,07,1.90,335.5,M,47.547,M,,*7B
$GPRMC,172516,A,4933.0349,N,01043.0257,E,0.0000,0.000,300707,,*2D
$GPGSA,A,3,05,06,14,12,04,02,07,,,,,,2.8,1.9,2.0*36
$PGRME,0.00,M,0.00,M,10.79,M*21
$GPGSV,3,1,12,05,78,069,12,30,78,306,00,06,42,218,14,14,32,256,18*75
$GPGSV,3,2,12,01,27,302,00,12,58,080,31,09,21,149,00,04,19,045,13*73
$GPGSV,3,3,12,02,35,083,30,07,35,222,18,31,21,310,06,35,07,250,00*7F
$GPGGA,172517,4933.0349,N,01043.0257,E,1,07,1.90,335.5,M,47.547,M,,*7A
$GPRMC,172517,A,4933.0349,N,01043.0257,E,0.0000,0.000,300707,,*2C
$GPGSA,A,3,05,06,14,12,04,02,07,,,,,,2.8,1.9,2.0*36
$PGRME,0.00,M,0.00,M,10.79,M*21
$GPGSV,3,1,12,05,78,069,12,30,78,306,00,06,42,218,14,14,32,256,18*75
$GPGSV,3,2,12,01,27,302,00,12,58,080,31,09,21,149,00,04,19,045,14*74
$GPGSV,3,3,12,02,35,083,30,07,35,222,19,31,21,310,07,35,07,250,00*7F
$GPGGA,172518,4933.0349,N,01043.0257,E,1,07,1.90,335.5,M,47.547,M,,*75
$GPRMC,172518,A,4933.0349,N,01043.0257,E,0.0000,0.000,300707,,*23
$GPGSA,A,3,05,06,14,12,04,02,07,,,,,,2.4,1.2,2.0*31
$GPGSV,3,1,12,05,78,069,13,30,78,306,00,06,42,218,14,14,32,256,18*74
$GPGSV,3,2,12,01,27,302,00,12,58,080,32,09,21,149,00,04,19,045,15*76
$GPGSV,3,3,12,02,35,083,31,07,35,222,20,31,21,310,08,35,07,250,00*7B
$GPGGA,172519,4933.0349,N,01043.0257,E,1,08,1.20,335.5,M,47.547,M,,*70
$GPRMC,172519,A,4933.0349,N,01043.0257,E,0.2451,128.810,300707,,*22
$GPGSA,A,3,05,06,14,12,04,02,07,31,,,,,2.4,1.2,2.0*33
$PGRME,0.00,M,0.00,M,9.25,M*10
$GPGSV,3,1,12,05,78,069,12,30,78,306,00,06,42,218,15,14,32,256,17*7B
$GPGSV,3,2,12,01,27,302,00,12,58,080,31,09,21,149,00,04,19,045,14*74
$GPGSV,3,3,12,02,35,083,30,07,35,222,21,31,21,310,08,35,07,250,00*7B
$GPGGA,172520,4933.0349,N,01043.0257,E,1,08,1.20,335.5,M,47.547,M,,*7A
$GPRMC,172520,A,4933.0349,N,01043.0257,E,0.0000,0.000,300707,,*28
$GPGSA,A,3,05,06,14,12,04,02,07,31,,,,,2.8,1.9,2.0*34
$GPGSV,3,1,12,05,78,069,14,30,78,306,00,06,42,218,15,14,32,256,18*72
$GPGSV,3,2,12,01,27,302,00,12,58,080,31,09,21,149,00,04,19,045,13*73
$GPGSV,3,3,12,02,35,083,29,07,35,222,22,31,22,310,06,35,07,250,00*7D
$GPGGA,172521,4933.0349,N,01043.0257,E,1,07,1.90,335.5,M,47.547,M,,*7F
$GPRMC,172521,A,4933.0349,N,01043.0257,E,0.0000,0.000,300707,,*29
$GPGSA,A,3,05,06,14,12,04,02,07,,,,,,2.8,1.9,2.0*36
$PGRME,0.00,M,0.00,M,10.79,M*21
$GPGSV,3,1,12,05,78,069,13,30,78,306,00,06,42,218,15,14,32,256,19*74
$GPGSV,3,2,12,01,27,302,00,12,58,080,30,09,21,149,00,04,19,045,14*75
$GPGSV,3,3,12,02,35,083,29,07,35,222,22,31,22,310,06,35,07,250,00*7D
$GPGGA,172522,4933.0345,N,01043.0265,E,1,07,1.90,334.9,M,47.547,M,,*7C
$GPRMC,172522,A,4933.0345,N,01043.0265,E,0.0000,0.000,300707,,*27
$GPGSA,A,3,05,06,14,12,04,02,07,,,,,,2.8,1.9,2.0*36
$GPGSV,3,1,12,05,78,069,13,30,78,306,00,06,42,218,15,14,32,256,19*74
$GPGSV,3,2,12,01,27,302,00,12,58,080,29,09,21,149,00,04,19,045,14*7D
$GPGSV,3,3,12,02,35,083,28,07,35,222,22,31,22,310,06,35,07,250,00*7C
$GPGGA,172523,4933.0341,N,01043.0264,E,1,07,1.90,335.5,M,47.547,M,,*75
$GPRMC,172523,A,4933.0341,N,01043.0264,E,0.0000,0.000,300707,,*23
$GPGSA,A,3,05,06,14,12,04,02,07,,,,,,2.8,1.9,2.0*36
$PGRME,0.00,M,0.00,M,10.79,M*21
$GPGSV,3,1,12,05,78,069,14,30,78,306,00,06,42,218,15,14,32,256,19*73
$GPGSV,3,2,12,01,27,302,00,12,58,080,28,09,21,149,00,04,19,045,14*7C
$GPGSV,3,3,12,02,35,083,28,07,35,222,23,31,22,310,06,35,07,250,00*7D
$GPGGA,172524,4933.0341,N,01043.0264,E,1,07,1.90,335.5,M,47.547,M,,*72
$GPRMC,172524,A,4933.0341,N,01043.0264,E,0.0000,0.000,300707,,*24
$GPGSA,A,3,05,06,14,12,04,02,07,,,,,,2.8,1.9,2.0*36
$GPGSV,3,1,12,05,78,069,15,30,78,306,00,06,42,218,15,14,32,256,20*78
$GPGSV,3,2,12,01,27,302,00,12,58,080,29,09,21,149,00,04,19,044,14*7C
$GPGSV,3,3,12,02,35,083,27,07,35,222,22,31,22,310,06,35,07,250,00*73
$GPGGA,172525,4933.0341,N,01043.0264,E,1,07,1.90,335.5,M,47.547,M,,*73
$GPRMC,172525,A,4933.0341,N,01043.0264,E,0.0000,0.000,300707,,*25
$GPGSA,A,3,05,06,14,12,04,02,07,,,,,,2.8,1.9,2.0*36
$GPGSV,3,1,12,05,78,070,15,30,78,306,00,06,42,218,15,14,32,256,20*70
$GPGSV,3,2,12,01,27,302,00,12,58,080,29,09,21,149,00,04,19,044,14*7C
$GPGSV,3,3,12,02,35,083,27,07,35,222,24,31,22,310,06,35,07,250,00*75
$GPGGA,172526,4933.0341,N,01043.0264,E,1,07,1.90,335.5,M,47.547,M,,*70
$GPRMC,172526,A,4933.0341,N,01043.0264,E,0.0000,0.000,300707,,*26
$GPGSA,A,3,05,06,14,12,04,02,07,,,,,,2.8,1.9,2.0*36
$GPGSV,3,1,12,05,78,070,15,30,78,306,00,06,42,218,15,14,32,256,19*7A
$GPGSV,3,2,12,01,27,302,00,12,58,080,29,09,21,149,00,04,19,044,15*7D
$GPGSV,3,3,12,02,35,083,27,07,35,222,23,31,22,310,05,35,07,250,00*71
$GPGGA,172527,4933.0341,N,01043.0264,E,1,07,1.90,335.5,M,47.547,M,,*71
$GPRMC,172527,A,4933.0341,N,01043.0264,E,0.0000,0.000,300707,,*27
$GPGSA,A,3,05,06,14,12,04,02,07,,,,,,2.8,1.9,2.0*36
$PGRME,0.00,M,0.00,M,10.79,M*21
$GPGSV,3,1,12,05,78,070,15,30,78,306,00,06,42,218,15,14,32,256,19*7A
$GPGSV,3,2,12,01,27,302,00,12,58,080,30,09,21,149,00,04,19,044,15*75
$GPGSV,3,3,12,02,35,083,27,07,35,222,22,31,22,310,05,35,07,250,00*70
$GPGGA,172528,4933.0337,N,01043.0264,E,1,07,1.90,334.7,M,47.547,M,,*7C
$GPRMC,172528,A,4933.0337,N,01043.0264,E,0.0000,0.000,300707,,*29
$GPGSA,A,3,05,06,14,12,04,02,07,,,,,,2.8,1.9,2.0*36
$GPGSV,3,1,12,05,78,070,16,30,78,306,00,06,42,218,15,14,32,256,19*79
$GPGSV,3,2,12,01,27,302,00,12,58,080,30,09,21,149,00,04,19,044,15*75
$GPGSV,3,3,12,02,35,083,26,07,35,222,23,31,22,310,00,35,07,250,00*75
$GPGGA,172529,4933.0337,N,01043.0264,E,1,07,1.90,334.7,M,47.547,M,,*7D
$GPRMC,172529,A,4933.0337,N,01043.0264,E,0.0000,0.000,300707,,*28
$GPGSA,A,3,05,06,14,12,04,02,07,,,,,,3.7,2.4,2.8*3E
$PGRME,0.00,M,0.00,M,10.79,M*21
$GPGSV,3,1,12,05,78,070,17,30,78,306,00,06,42,218,15,14,32,256,19*78
$GPGSV,3,2,12,01,27,302,00,12,58,080,29,09,21,149,00,04,19,044,13*7B
$GPGSV,3,3,12,02,35,083,26,07,35,222,24,31,22,310,00,35,07,250,00*72
$GPGGA,172530,4933.0337,N,01043.0264,E,1,06,2.40,334.7,M,47.547,M,,*7A
$GPRMC,172530,A,4933.0337,N,01043.0264,E,0.1498,13.967,300707,,*1E
$GPGSA,A,3,05,06,14,12,02,07,,,,,,,2.8,1.9,2.0*32
$PGRME,0.00,M,0.00,M,14.26,M*2F
$GPGSV,3,1,12,05,78,070,17,30,78,306,00,06,42,218,14,14,32,256,19*79
$GPGSV,3,2,12,01,27,302,00,12,58,080,29,09,21,149,00,04,19,044,14*7C
$GPGSV,3,3,12,02,35,083,26,07,35,222,23,31,22,310,00,35,07,250,00*75
$GPGGA,172531,4933.0337,N,01043.0264,E,1,07,1.90,334.7,M,47.547,M,,*74
$GPRMC,172531,A,4933.0337,N,01043.0264,E,0.0000,0.000,300707,,*21
$GPGSA,A,3,05,06,14,12,04,02,07,,,,,,2.8,1.9,2.0*36
$GPGSV,3,1,12,05,78,070,17,30,78,306,00,06,42,218,15,14,32,256,18*79
$GPGSV,3,2,12,01,27,302,00,12,58,080,28,09,21,149,00,04,19,044,15*7C
$GPGSV,3,3,12,02,35,083,26,07,35,222,23,31,22,310,00,35,07,250,00*75
$GPGGA,172532,4933.0337,N,01043.0264,E,1,07,1.90,334.7,M,47.547,M,,*77
$GPRMC,172532,A,4933.0337,N,01043.0264,E,0.0000,0.000,300707,,*22
$GPGSA,A,3,05,06,14,12,04,02,07,,,,,,2.8,1.9,2.0*36
$GPGSV,3,1,12,05,78,070,16,30,78,306,00,06,42,218,16,14,32,256,18*7B
$GPGSV,3,2,12,01,27,302,00,12,58,081,28,09,21,149,00,04,19,044,15*7D
$GPGSV,3,3,12,02,35,083,25,07,35,222,25,31,22,310,00,35,07,250,00*70
$GPGGA,172533,4933.0336,N,01043.0272,E,1,07,1.90,334.9,M,47.547,M,,*7E
$GPRMC,172533,A,4933.0336,N,01043.0272,E,0.0000,0.000,300707,,*25
$GPGSA,A,3,05,06,14,12,04,02,07,,,,,,2.8,1.9,2.0*36
$PGRME,0.00,M,0.00,M,10.79,M*21
$GPGSV,3,1,12,05,78,070,16,30,78,306,00,06,42,218,15,14,32,256,18*78
$GPGSV,3,2,12,01,27,302,00,12,58,081,29,09,21,149,00,04,19,044,14*7D
$GPGSV,3,3,12,02,35,083,25,07,35,222,24,31,22,310,00,35,07,250,00*71
$GPGGA,172534,4933.0336,N,01043.0272,E,1,07,1.90,334.9,M,47.547,M,,*79
$GPRMC,172534,A,4933.0336,N,01043.0272,E,0.0000,0.000,300707,,*22
$GPGSA,A,3,05,06,14,12,04,02,07,,,,,,2.8,1.9,2.0*36
$PGRME,0.00,M,0.00,M,10.79,M*21
$GPGSV,3,1,12,05,78,070,16,30,78,306,00,06,42,218,14,14,31,255,18*79
$GPGSV,3,2,12,01,27,302,00,12,58,081,28,09,21,149,00,04,19,044,14*7C
$GPGSV,3,3,12,02,35,083,26,07,35,222,24,31,22,310,00,35,07,250,00*72
$GPGGA,172535,4933.0336,N,01043.0272,E,1,07,1.90,334.9,M,47.547,M,,*78
$GPRMC,172535,A,4933.0336,N,01043.0272,E,0.0000,0.000,300707,,*23
$GPGSA,A,3,05,06,14,12,04,02,07,,,,,,2.8,1.9,2.0*36
$PGRME,0.00,M,0.00,M,10.79,M*21
$GPGSV,3,1,12,05,78,070,16,30,78,306,00,06,42,218,14,14,31,255,17*76
$GPGSV,3,2,12,01,27,302,00,12,58,081,29,09,21,149,00,04,19,044,12*7B
$GPGSV,3,3,12,02,35,083,26,07,35,222,23,31,22,310,00,35,07,250,00*75
$GPGGA,172536,4933.0336,N,01043.0272,E,1,07,1.90,334.9,M,47.547,M,,*7B
$GPRMC,172536,A,4933.0336,N,01043.0272,E,0.0000,0.000,300707,,*20
$GPGSA,A,3,05,06,14,12,04,02,07,,,,,,2.8,1.9,2.0*36
$PGRME,0.00,M,0.00,M,10.79,M*21
$GPGSV,3,1,12,05,78,070,17,30,78,306,00,06,42,218,15,14,31,255,16*77
$GPGSV,3,2,12,01,27,302,00,12,58,081,30,09,21,149,00,04,19,044,13*72
$GPGSV,3,3,12,02,35,083,25,07,35,222,23,31,22,310,00,33,07,250,00*70
$GPGGA,172537,4933.0336,N,01043.0272,E,1,07,1.90,334.9,M,47.547,M,,*7A
$GPRMC,172537,A,4933.0336,N,01043.0272,E,0.0000,0.000,300707,,*21
$GPGSA,A,3,05,06,14,12,04,02,07,,,,,,2.8,1.9,2.0*36
$GPGSV,3,1,12,05,78,070,17,30,78,306,00,06,42,218,14,14,31,255,15*75
$GPGSV,3,2,12,01,27,302,00,12,58,081,29,09,21,149,00,04,19,044,14*7D
$GPGSV,3,3,12,02,35,083,24,07,35,222,23,31,22,310,00,33,07,250,00*71
$GPGGA,172538,4933.0336,N,01043.0272,E,1,07,1.90,334.9,M,47.547,M,,*75
$GPRMC,172538,A,4933.0336,N,01043.0272,E,0.0000,0.000,300707,,*2E
$GPGSA,A,3,05,06,14,12,04,02,07,,,,,,2.8,1.9,2.0*36
$GPGSV,3,1,12,05,78,070,17,30,78,306,00,06,42,218,13,14,31,255,16*71
$GPGSV,3,2,12,01,27,302,00,12,58,081,29,09,21,149,00,04,19,044,13*7A
$GPGSV,3,3,12,02,35,083,25,07,35,222,24,31,22,310,00,33,07,250,00*77
$GPGGA,172539,4933.0336,N,01043.0272,E,1,07,1.90,334.9,M,47.547,M,,*74
$GPRMC,172539,A,4933.0336,N,01043.0272,E,0.0000,0.000,300707,,*2F
$GPGSA,A,3,05,06,14,12,04,02,07,,,,,,3.7,2.5,2.8*3F
$PGRME,0.00,M,0.00,M,10.79,M*21
$GPGSV,3,1,12,05,78,070,17,30,78,306,00,06,42,218,14,14,31,255,15*75
$GPGSV,3,2,12,01,27,302,00,12,58,081,28,09,21,149,00,04,19,044,12*7A
$GPGSV,3,3,12,02,35,083,25,07,35,222,24,31,22,310,00,33,07,250,00*77
$GPGGA,172540,4933.0333,N,01043.0272,E,1,06,2.50,334.1,M,47.547,M,,*79
$GPRMC,172540,A,4933.0333,N,01043.0272,E,0.0000,0.000,300707,,*24
$GPGSA,A,3,05,06,14,12,02,07,,,,,,,2.8,1.9,2.0*32
$GPGSV,3,1,12,05,78,070,17,30,78,306,00,06,42,218,14,14,31,255,15*75
$GPGSV,3,2,12,01,27,302,00,12,58,081,29,09,21,149,00,04,19,044,12*7B
$GPGSV,3,3,12,02,35,083,26,07,35,222,24,31,22,310,00,33,07,250,00*74
$GPGGA,172541,4933.0337,N,01043.0274,E,1,07,1.90,333.5,M,47.547,M,,*77
$GPRMC,172541,A,4933.0337,N,01043.0274,E,0.0000,0.000,300707,,*27
$GPGSA,A,3,05,06,14,12,04,02,07,,,,,,3.7,2.5,2.8*3F
$GPGSV,3,1,12,05,78,070,17,30,78,306,00,06,42,218,14,14,31,255,16*76
$GPGSV,3,2,12,01,27,302,00,12,58,081,30,09,21,149,00,04,19,044,11*70
$GPGSV,3,3,12,02,35,083,26,07,35,222,24,31,22,310,00,33,07,250,00*74
$GPGGA,172542,4933.0337,N,01043.0274,E,1,06,2.50,333.5,M,47.547,M,,*7A
$GPRMC,172542,A,4933.0337,N,01043.0274,E,0.0000,0.000,300707,,*24
$GPGSA,A,3,05,06,14,12,02,07,,,,,,,2.8,1.9,2.1*33
$GPGSV,3,1,12,05,78,070,17,30,78,306,00,06,42,218,14,14,31,255,17*77
$GPGSV,3,2,12,01,27,302,00,12,58,081,32,09,21,149,00,04,19,044,13*70
$GPGSV,3,3,12,02,35,083,28,07,35,222,24,31,22,310,00,33,07,250,00*7A
$GPGGA,172543,4933.0337,N,01043.0274,E,1,07,1.90,333.5,M,47.547,M,,*75
$GPRMC,172543,A,4933.0337,N,01043.0274,E,0.0000,0.000,300707,,*25
$GPGSA,A,3,05,06,14,12,04,02,07,,,,,,2.8,1.9,2.1*37
$GPGSV,3,1,12,05,78,070,18,30,78,306,00,06,42,218,14,14,31,255,18*77
$GPGSV,3,2,12,01,27,302,00,12,58,081,35,09,21,149,00,04,19,044,14*70
$GPGSV,3,3,12,02,35,083,30,07,35,222,25,31,22,310,00,33,07,250,00*72
$GPGGA,172544,4933.0337,N,01043.0274,E,1,07,1.90,333.5,M,47.547,M,,*72
$GPRMC,172544,A,4933.0337,N,01043.0274,E,0.0000,0.000,300707,,*22
$GPGSA,A,3,05,06,14,12,04,02,07,,,,,,2.8,1.9,2.1*37
$GPGSV,3,1,12,05,78,070,17,30,78,306,00,06,42,218,15,14,31,255,18*79
$GPGSV,3,2,12,01,27,302,00,12,58,081,35,09,21,149,00,04,19,044,14*70
$GPGSV,3,3,12,02,35,083,30,07,35,222,24,31,22,310,00,33,07,250,00*73
$GPGGA,172545,4933.0337,N,01043.0274,E,1,07,1.90,333.5,M,47.547,M,,*73
$GPRMC,172545,A,4933.0337,N,01043.0274,E,0.0000,0.000,300707,,*23
$GPGSA,A,3,05,06,14,12,04,02,07,,,,,,2.8,1.9,2.1*37
$GPGSV,3,1,12,05,78,070,16,30,78,306,00,06,42,218,13,14,31,255,17*71
$GPGSV,3,2,12,01,27,302,00,12,58,081,35,09,21,149,00,04,19,044,13*77
$GPGSV,3,3,12,02,35,083,29,07,35,222,23,31,22,310,00,33,07,250,00*7C
$GPGGA,172546,4933.0337,N,01043.0274,E,1,07,1.90,333.5,M,47.547,M,,*70
$GPRMC,172546,A,4933.0337,N,01043.0274,E,0.0000,0.000,300707,,*20
$GPGSA,A,3,05,06,14,12,04,02,07,,,,,,2.8,1.9,2.1*37
$GPGSV,3,1,12,05,78,070,15,30,78,306,00,06,42,218,14,14,31,255,15*77
$GPGSV,3,2,12,01,27,302,00,12,58,081,34,09,21,149,00,04,19,044,14*71
$GPGSV,3,3,12,02,35,083,29,07,35,222,22,31,22,310,00,33,07,250,00*7D
$GPGGA,172547,4933.0337,N,01043.0274,E,1,07,1.90,333.5,M,47.547,M,,*71
$GPRMC,172547,A,4933.0337,N,01043.0274,E,0.0000,0.000,300707,,*21
$GPGSA,A,3,05,06,14,12,04,02,07,,,,,,2.8,1.9,2.1*37
$GPGSV,3,1,12,05,78,070,16,30,78,306,00,06,42,218,17,14,31,255,16*74
$GPGSV,3,2,12,01,27,302,00,12,58,081,34,09,21,149,00,04,19,044,13*76
$GPGSV,3,3,12,02,35,083,30,07,35,222,20,31,22,310,00,33,07,250,00*77
$GPGGA,172548,4933.0337,N,01043.0274,E,1,07,1.90,333.5,M,47.547,M,,*7E
$GPRMC,172548,A,4933.0337,N,01043.0274,E,0.0000,0.000,300707,,*2E
$GPGSA,A,3,05,06,14,12,04,02,07,,,,,,2.8,1.9,2.1*37
$GPGSV,3,1,12,05,78,070,16,30,78,306,00,06,42,218,13,14,31,255,15*73
$GPGSV,3,2,12,01,27,302,00,12,58,081,34,09,21,149,00,04,19,044,14*71
$GPGSV,3,3,12,02,35,083,31,07,35,222,20,31,22,310,00,33,07,250,00*76
$GPGGA,172549,4933.0337,N,01043.0274,E,1,07,1.90,333.5,M,47.547,M,,*7F
$GPRMC,172549,A,4933.0337,N,01043.0274,E,0.2995,13.967,300707,,*12
$GPGSA,A,3,05,06,14,12,04,02,07,,,,,,2.8,1.9,2.1*37
$GPGSV,3,1,12,05,78,070,15,30,78,307,00,06,42,218,12,14,31,255,13*76
$GPGSV,3,2,12,01,27,302,00,12,58,081,33,09,21,149,00,04,19,044,13*71
$GPGSV,3,3,12,02,35,083,31,07,35,222,22,31,22,310,00,33,07,250,00*74
$GPGGA,172550,4933.0337,N,01043.0274,E,1,07,1.90,333.5,M,47.547,M,,*77
$GPRMC,172550,A,4933.0337,N,01043.0274,E,0.0000,0.000,300707,,*27
$GPGSA,A,3,05,06,14,12,04,02,07,,,,,,2.8,1.9,2.1*37
$GPGSV,3,1,12,05,78,070,14,30,78,307,00,06,42,218,12,14,31,255,13*77
$GPGSV,3,2,12,01,27,302,00,12,58,081,35,09,21,149,00,04,19,044,13*77
$GPGSV,3,3,12,02,35,083,31,07,35,222,22,31,22,310,00,33,07,250,00*74
$GPGGA,172551,4933.0337,N,01043.0274,E,1,07,1.90,333.5,M,47.547,M,,*76
$GPRMC,172551,A,4933.0337,N,01043.0274,E,0.1261,0.000,300707,,*22
$GPGSA,A,3,05,06,14,12,04,02,07,,,,,,2.8,1.9,2.1*37
$GPGSV,3,1,12,05,78,070,14,30,78,307,00,06,42,218,12,14,31,255,15*71
$GPGSV,3,2,12,01,28,302,00,12,58,081,36,09,21,149,00,04,19,044,15*7D
$GPGSV,3,3,12,02,35,083,32,07,35,222,20,31,22,310,00,33,07,250,00*75
$GPGGA,172552,4933.0337,N,01043.0274,E,1,07,1.90,333.5,M,47.547,M,,*75
$GPRMC,172552,A,4933.0337,N,01043.0274,E,0.0000,0.000,300707,,*25
$GPGSA,A,3,05,06,14,12,04,02,07,,,,,,2.8,1.9,2.1*37
$GPGSV,3,1,12,05,78,070,14,30,78,307,00,06,42,218,12,14,31,255,15*71
$GPGSV,3,2,12,01,28,302,00,12,58,081,37,09,21,149,00,04,19,044,16*7F
$GPGSV,3,3,12,02,35,083,32,07,35,222,20,31,22,310,00,33,07,250,00*75
$GPGGA,172553,4933.0337,N,01043.0274,E,1,07,1.90,333.5,M,47.547,M,,*74
$GPRMC,172553,A,4933.0337,N,01043.0274,E,0.0000,0.000,300707,,*24
$GPGSA,A,3,05,06,14,12,04,02,07,,,,,,2.8,1.9,2.1*37
$GPGSV,3,1,12,05,78,070,15,30,78,307,00,06,42,218,12,14,31,255,14*71
$GPGSV,3,2,12,01,28,302,00,12,58,081,37,09,21,149,00,04,19,044,16*7F
$GPGSV,3,3,12,02,35,082,32,07,35,222,21,31,22,310,00,33,07,250,00*75
$GPGGA,172554,4933.0337,N,01043.0274,E,1,07,1.90,333.5,M,47.547,M,,*73
$GPRMC,172554,A,4933.0337,N,01043.0274,E,0.0000,0.000,300707,,*23
$GPGSA,A,3,05,06,14,12,04,02,07,,,,,,2.8,1.9,2.1*37
$GPGSV,3,1,12,05,78,070,14,30,78,307,00,06,42,218,12,14,31,255,14*70
$GPGSV,3,2,12,01,28,302,00,12,58,081,38,09,21,149,00,04,19,044,14*72
$GPGSV,3,3,12,02,35,082,33,07,35,222,19,31,22,310,00,33,07,250,00*7F
$GPGGA,172555,4933.0337,N,01043.0274,E,1,07,1.90,333.5,M,47.547,M,,*72
$GPRMC,172555,A,4933.0337,N,01043.0274,E,0.0000,0.000,300707,,*22
$GPGSA,A,3,05,06,14,12,04,02,07,,,,,,2.8,1.9,2.1*37
$GPGSV,3,1,12,05,78,071,13,30,78,307,00,06,42,218,15,14,31,255,13*76
$GPGSV,3,2,12,01,28,302,00,12,58,081,38,09,21,149,00,04,19,044,14*72
$GPGSV,3,3,12,02,35,082,33,07,35,222,17,31,22,310,00,33,07,250,00*71
$GPGGA,172556,4933.0337,N,01043.0274,E,1,07,1.90,333.5,M,47.547,M,,*71
$GPRMC,172556,A,4933.0337,N,01043.0274,E,0.0000,0.000,300707,,*21
$GPGSA,A,3,05,06,14,12,04,02,07,,,,,,2.8,1.9,2.1*37
$GPGSV,3,1,12,05,78,071,13,30,78,307,00,06,42,218,14,14,31,255,12*76
$GPGSV,3,2,12,01,28,302,00,12,58,081,38,09,21,149,00,04,19,044,14*72
$GPGSV,3,3,12,02,35,082,33,07,35,222,16,31,22,310,00,33,07,250,00*70
$GPGGA,172557,4933.0333,N,01043.0274,E,1,07,1.90,332.7,M,47.547,M,,*77
$GPRMC,172557,A,4933.0333,N,01043.0274,E,0.0000,0.000,300707,,*24
$GPGSA,A,3,05,06,14,12,04,02,07,,,,,,2.8,1.9,2.1*37
$GPGSV,3,1,12,05,78,071,12,30,78,307,00,06,43,218,12,14,31,255,14*76
$GPGSV,3,2,12,01,28,302,00,12,58,081,37,09,21,149,00,04,19,044,13*7A
$GPGSV,3,3,12,02,35,082,33,07,35,222,17,31,22,310,00,33,07,250,00*71
$GPGGA,172558,4933.0333,N,01043.0274,E,1,07,1.90,332.7,M,47.547,M,,*78
$GPRMC,172558,A,4933.0333,N,01043.0274,E,0.0000,0.000,300707,,*2B
$GPGSA,A,3,05,06,14,12,04,02,07,,,,,,2.8,1.9,2.1*37
$GPGSV,3,1,12,05,78,071,12,30,78,307,00,06,43,218,12,14,31,255,15*77
$GPGSV,3,2,12,01,28,302,00,12,58,081,37,09,21,149,00,04,19,044,13*7A
$GPGSV,3,3,12,02,35,082,33,07,35,222,18,31,22,310,00,33,07,250,00*7E
$GPGGA,172559,4933.0333,N,01043.0274,E,1,07,1.90,332.7,M,47.547,M,,*79
$GPRMC,172559,A,4933.0333,N,01043.0274,E,0.0000,0.000,300707,,*2A
$GPGSA,A,3,05,06,14,12,04,02,07,,,,,,2.8,1.9,2.1*37
$GPGSV,3,1,12,05,78,071,12,30,78,307,00,06,43,218,11,14,31,255,14*75
$GPGSV,3,2,12,01,28,302,00,12,58,081,37,09,21,149,00,04,19,044,13*7A
$GPGSV,3,3,12,02,35,082,33,07,35,222,19,31,22,310,00,33,07,250,00*7F
$GPGGA,172600,4933.0333,N,01043.0274,E,1,07,1.90,332.7,M,47.547,M,,*76
$GPRMC,172600,A,4933.0333,N,01043.0274,E,0.0000,0.000,300707,,*25
$GPGSA,A,3,05,06,14,12,04,02,07,,,,,,4.2,2.3,3.5*37
$GPGSV,3,1,12,05,78,071,11,30,78,307,00,06,43,218,12,14,31,255,13*72
$GPGSV,3,2,12,01,28,302,00,12,58,081,37,09,20,149,00,04,19,044,13*7B
$GPGSV,3,3,12,02,35,082,33,07,35,222,19,31,22,310,00,33,07,250,00*7F
$GPGGA,172601,4933.0333,N,01043.0274,E,1,06,2.30,332.7,M,47.547,M,,*7F
$GPRMC,172601,A,4933.0333,N,01043.0274,E,0.0000,0.000,300707,,*24
$GPGSA,A,3,06,14,12,04,02,07,,,,,,,2.9,1.9,2.1*33
$GPGSV,3,1,12,05,78,071,11,30,78,307,00,06,43,218,11,14,31,255,13*71
$GPGSV,3,2,12,01,28,302,00,12,58,081,37,09,20,149,00,04,19,044,13*7B
$GPGSV,3,3,12,02,35,082,34,07,35,222,19,31,22,310,00,33,07,250,00*78
$GPGGA,172602,4933.0333,N,01043.0274,E,1,07,1.90,332.7,M,47.547,M,,*74
$GPRMC,172602,A,4933.0333,N,01043.0274,E,0.0000,0.000,300707,,*27
$GPGSA,A,3,05,06,14,12,04,02,07,,,,,,3.0,2.1,2.1*35
$GPGSV,3,1,12,05,78,071,12,30,78,307,00,06,43,218,10,14,31,255,13*73
$GPGSV,3,2,12,01,28,302,00,12,58,081,36,09,20,149,00,04,19,044,12*7B
$GPGSV,3,3,12,02,35,082,34,07,35,222,19,31,22,310,00,33,07,250,00*78
$GPGGA,172603,4933.0333,N,01043.0274,E,1,06,2.10,332.7,M,47.547,M,,*7F
$GPRMC,172603,A,4933.0333,N,01043.0274,E,0.3385,161.314,300707,,*2B
$GPGSA,A,3,05,14,12,04,02,07,,,,,,,3.8,2.5,2.8*36
$GPGSV,3,1,12,05,78,071,11,30,78,307,00,06,43,218,11,14,31,255,13*71
$GPGSV,3,2,12,01,28,302,00,12,58,081,37,09,20,149,00,04,19,044,09*70
$GPGSV,3,3,12,02,35,082,34,07,35,222,21,31,22,310,00,33,07,250,00*73
$GPGGA,172604,4933.0333,N,01043.0274,E,1,06,2.50,332.7,M,47.547,M,,*7C
$GPRMC,172604,A,4933.0333,N,01043.0274,E,0.0000,0.000,300707,,*21
$GPGSA,A,3,05,06,14,12,02,07,,,,,,,2.9,1.9,2.1*32
$GPGSV,3,1,12,05,78,071,12,30,78,307,00,06,43,218,13,14,31,255,16*75
$GPGSV,3,2,12,01,28,302,00,12,58,081,37,09,20,149,00,04,19,044,11*79
$GPGSV,3,3,12,02,35,082,35,07,35,222,21,31,22,310,00,33,07,250,00*72
$GPGGA,172605,4933.0333,N,01043.0274,E,1,07,1.90,332.7,M,47.547,M,,*73
$GPRMC,172605,A,4933.0333,N,01043.0274,E,0.0000,0.000,300707,,*20
$GPGSA,A,3,05,06,14,12,04,02,07,,,,,,2.9,1.9,2.1*36
$GPGSV,3,1,12,05,78,071,12,30,78,307,00,06,43,218,13,14,31,255,14*77
$GPGSV,3,2,12,01,28,302,00,12,58,081,37,09,20,149,00,04,19,044,11*79
$GPGSV,3,3,12,02,35,082,35,07,35,222,20,31,22,310,00,33,07,250,00*73
$GPGGA,172606,4933.0333,N,01043.0274,E,1,07,1.90,332.7,M,47.547,M,,*70
$GPRMC,172606,A,4933.0333,N,01043.0274,E,0.0000,0.000,300707,,*23
$GPGSA,A,3,05,06,14,12,04,02,07,,,,,,5.1,2.7,4.4*37
$GPGSV,3,1,12,05,78,071,09,30,78,307,00,06,43,218,12,14,31,255,12*7A
$GPGSV,3,2,12,01,28,302,00,12,58,081,36,09,20,149,00,04,19,044,10*79
$GPGSV,3,3,12,02,35,082,35,07,35,222,20,31,22,310,00,33,07,250,00*73
$GPGGA,172607,4933.0333,N,01043.0274,E,1,05,2.70,332.7,M,47.547,M,,*7E
$GPRMC,172607,A,4933.0333,N,01043.0274,E,0.0000,0.000,300707,,*22
$GPGSA,A,3,06,14,12,02,07,,,,,,,,2.9,1.9,2.1*37
$GPGSV,3,1,12,05,78,071,13,30,78,307,00,06,43,218,12,14,31,255,12*71
$GPGSV,3,2,12,01,28,302,00,12,58,081,37,09,20,149,00,04,19,044,10*78
$GPGSV,3,3,12,02,35,082,35,07,35,222,21,31,22,310,00,33,07,250,00*72
$GPGGA,172608,4933.0333,N,01043.0274,E,1,07,1.90,332.7,M,47.547,M,,*7E
$GPRMC,172608,A,4933.0333,N,01043.0274,E,0.1498,193.967,300707,,*2A
$GPGSA,A,3,05,06,14,12,04,02,07,,,,,,2.9,1.9,2.1*36
$GPGSV,3,1,12,05,78,071,14,30,78,307,00,06,43,218,11,14,31,255,12*75
$GPGSV,3,2,12,01,28,302,00,12,58,081,35,09,20,149,00,04,19,044,10*7A
$GPGSV,3,3,12,02,35,082,34,07,35,222,21,31,22,310,00,33,07,250,00*73
$GPGGA,172609,4933.0333,N,01043.0274,E,1,07,1.90,332.7,M,47.547,M,,*7F
$GPRMC,172609,A,4933.0333,N,01043.0274,E,0.0000,0.000,300707,,*2C
$GPGSA,A,3,05,06,14,12,04,02,07,,,,,,4.2,3.0,2.9*38
$GPGSV,3,1,12,05,78,071,15,30,78,307,00,06,43,218,09,14,31,255,12*7D
$GPGSV,3,2,12,01,28,302,00,12,58,081,35,09,20,149,00,04,19,044,09*72
$GPGSV,3,3,12,02,35,082,32,07,35,222,21,31,22,310,00,33,07,250,00*75
$GPGGA,172610,4933.0333,N,01043.0274,E,1,06,3.00,332.7,M,47.547,M,,*7D
$GPRMC,172610,A,4933.0333,N,01043.0274,E,0.2995,193.967,300707,,*20
$GPGSA,A,3,05,14,12,02,07,33,,,,,,,2.9,1.9,2.1*34
$GPGSV,3,1,12,05,78,071,16,30,78,307,00,06,43,218,10,14,31,255,12*76
$GPGSV,3,2,12,01,28,302,00,12,58,081,35,09,20,149,00,04,19,044,09*72
$GPGSV,3,3,12,02,35,082,35,07,35,222,21,31,22,310,00,33,07,250,00*72
$GPGGA,172611,4933.0333,N,01043.0282,E,1,07,1.90,332.8,M,47.547,M,,*70
$GPRMC,172611,A,4933.0333,N,01043.0282,E,0.0000,0.000,300707,,*2C
$GPGSA,A,3,05,06,14,12,04,02,07,,,,,,5.4,5.3,0.9*38
$GPGSV,3,1,12,05,78,071,16,30,78,307,00,06,43,218,09,14,31,255,10*7C
$GPGSV,3,2,12,01,28,302,00,12,58,081,36,09,20,149,00,04,19,044,07*7F
$GPGSV,3,3,12,02,35,082,35,07,35,222,22,31,22,310,00,33,07,250,00*71
$GPGGA,172612,4933.0329,N,01043.0282,E,1,05,5.30,332.1,M,47.547,M,,*7D
$GPRMC,172612,A,4933.0329,N,01043.0282,E,0.0000,0.000,300707,,*24
$GPGSA,A,3,05,12,02,07,33,,,,,,,,3.4,2.6,2.1*31
$GPGSV,3,1,12,05,78,071,15,30,78,307,00,06,43,218,10,14,31,255,08*7E
$GPGSV,3,2,12,01,28,302,00,12,58,081,36,09,20,149,00,04,19,044,09*71
$GPGSV,3,3,12,02,35,082,34,07,35,222,22,31,22,310,00,33,07,250,00*70
$GPGGA,172613,4933.0329,N,01043.0282,E,1,06,2.60,332.1,M,47.547,M,,*7D
$GPRMC,172613,A,4933.0329,N,01043.0282,E,0.0000,0.000,300707,,*25
$GPGSA,A,3,05,06,12,04,02,07,,,,,,,3.8,2.5,2.8*35
$GPGSV,3,1,12,05,78,071,15,30,78,307,00,06,43,218,10,14,31,255,11*76
$GPGSV,3,2,12,01,28,302,00,12,58,081,36,09,20,149,00,04,19,044,07*7F
$GPGSV,3,3,12,02,35,082,33,07,35,222,21,31,22,310,00,33,07,250,00*74
$GPGGA,172614,4933.0329,N,01043.0282,E,1,06,2.50,332.1,M,47.547,M,,*79
$GPRMC,172614,A,4933.0329,N,01043.0282,E,0.8999,181.649,300707,,*20
$GPGSA,A,3,05,06,14,12,02,07,,,,,,,3.0,2.1,2.1*31
$GPGSV,3,1,12,05,78,071,16,30,78,307,00,06,43,218,09,14,31,255,12*7E
$GPGSV,3,2,12,01,28,302,00,12,58,081,35,09,20,149,00,04,19,044,09*72
$GPGSV,3,3,12,02,35,082,32,07,35,222,21,31,22,310,00,33,07,250,00*75
$GPGGA,172615,4933.0329,N,01043.0282,E,1,06,2.10,332.1,M,47.547,M,,*7C
$GPRMC,172615,A,4933.0329,N,01043.0282,E,0.0000,0.000,300707,,*23
$GPGSA,A,3,05,14,12,04,02,07,,,,,,,2.9,1.9,2.1*30
$GPGSV,3,1,12,05,78,071,16,30,78,307,00,06,43,218,10,14,31,255,11*75
$GPGSV,3,2,12,01,28,302,00,12,58,081,35,09,20,149,00,04,19,044,09*72
$GPGSV,3,3,12,02,35,082,33,07,35,222,21,31,22,310,00,33,07,250,00*74
$GPGGA,172616,4933.0329,N,01043.0282,E,1,07,1.90,332.1,M,47.547,M,,*75
$GPRMC,172616,A,4933.0329,N,01043.0282,E,0.0000,0.000,300707,,*20
$GPGSA,A,3,05,06,14,12,04,02,07,,,,,,3.8,2.5,2.8*30
$GPGSV,3,1,12,05,78,071,16,30,78,307,00,06,43,218,12,14,31,255,12*74
$GPGSV,3,2,12,01,28,302,00,12,58,081,36,09,20,149,00,04,19,044,09*71
$GPGSV,3,3,12,02,35,082,33,07,35,222,22,31,22,310,00,33,07,250,00*77
$GPGGA,172617,4933.0329,N,01043.0282,E,1,06,2.50,332.1,M,47.547,M,,*7A
$GPRMC,172617,A,4933.0329,N,01043.0282,E,0.0000,0.000,300707,,*21
$GPGSA,A,3,05,06,14,12,02,07,,,,,,,5.1,5.0,0.9*3A
$GPGSV,3,1,12,05,78,071,15,30,78,307,00,06,43,218,12,14,31,255,09*7D
$GPGSV,3,2,12,01,28,302,00,12,58,081,36,09,20,149,00,04,19,044,08*70
$GPGSV,3,3,12,02,35,082,33,07,35,222,22,31,22,310,00,33,07,250,00*77
$GPGGA,172618,4933.0333,N,01043.0283,E,1,05,5.00,331.4,M,47.547,M,,*78
$GPRMC,172618,A,4933.0333,N,01043.0283,E,0.0000,0.000,300707,,*24
$GPGSA,A,3,05,06,12,02,07,,,,,,,,5.1,2.7,4.4*36
$GPGSV,3,1,12,05,78,071,13,30,78,307,00,06,43,218,12,14,31,255,10*73
$GPGSV,3,2,12,01,28,302,00,12,58,081,38,09,20,149,00,04,19,044,07*71
$GPGSV,3,3,12,02,35,082,32,07,35,222,21,31,22,310,00,33,07,250,00*75
$GPGGA,172619,4933.0333,N,01043.0283,E,1,06,2.70,331.4,M,47.547,M,,*7A
$GPRMC,172619,A,4933.0333,N,01043.0283,E,0.0000,0.000,300707,,*25
$GPGSA,A,3,06,14,12,02,07,33,,,,,,,5.1,5.0,0.9*3F
$GPGSV,3,1,12,05,78,071,14,30,78,307,00,06,43,218,11,14,31,255,09*7F
$GPGSV,3,2,12,01,28,302,00,12,58,081,37,09,20,149,00,04,19,044,08*71
$GPGSV,3,3,12,02,35,082,33,07,35,222,21,31,22,310,00,33,07,250,00*74
$GPGGA,172620,4933.0333,N,01043.0283,E,1,05,5.00,331.4,M,47.547,M,,*73
$GPRMC,172620,A,4933.0333,N,01043.0283,E,0.2321,138.145,300707,,*27
$GPGSA,A,3,05,06,12,02,07,,,,,,,,3.0,2.1,2.1*34
$GPGSV,3,1,12,05,78,071,13,30,78,307,00,06,43,218,10,14,31,255,10*71
$GPGSV,3,2,12,01,28,302,00,12,58,081,37,09,20,149,00,04,19,044,08*71
$GPGSV,3,3,12,02,35,082,33,07,35,222,21,31,22,310,00,33,07,250,00*74
$GPGGA,172621,4933.0333,N,01043.0283,E,1,06,2.10,331.4,M,47.547,M,,*77
$GPRMC,172621,A,4933.0333,N,01043.0283,E,0.0000,0.000,300707,,*2E
$GPGSA,A,3,05,14,12,04,02,07,,,,,,,4.2,3.0,2.9*3E
$GPGSV,3,1,12,05,78,071,13,30,79,308,00,06,43,218,09,14,31,255,10*77
$GPGSV,3,2,12,01,28,302,00,12,58,081,37,09,20,149,00,04,19,044,09*70
$GPGSV,3,3,12,02,35,082,33,07,35,222,20,31,22,310,00,33,07,250,00*75
$GPGGA,172622,4933.0333,N,01043.0283,E,1,06,3.00,331.4,M,47.547,M,,*74
$GPRMC,172622,A,4933.0333,N,01043.0283,E,0.3796,125.339,300707,,*29
$GPGSA,A,3,05,14,12,02,07,33,,,,,,,3.4,2.6,2.1*34
$GPGSV,3,1,12,05,78,071,14,30,79,308,00,06,43,218,10,14,31,255,09*70
$GPGSV,3,2,12,01,28,301,00,12,58,081,37,09,20,149,00,04,19,044,08*72
$GPGSV,3,3,12,02,35,082,32,07,35,222,19,31,22,310,00,33,07,250,00*7E
$GPGGA,172623,4933.0333,N,01043.0283,E,1,06,2.60,331.4,M,47.547,M,,*72
$GPRMC,172623,A,4933.0333,N,01043.0283,E,0.0000,0.000,300707,,*2C
$GPGSA,A,3,05,06,12,04,02,07,,,,,,,2.9,2.0,2.1*39
$GPGSV,3,1,12,05,78,071,14,30,79,308,00,06,43,218,09,14,31,255,10*70
$GPGSV,3,2,12,01,28,301,00,12,58,081,37,09,20,149,00,04,19,044,09*73
$GPGSV,3,3,12,02,35,082,31,07,35,222,20,31,22,310,00,33,07,250,00*77
$GPGGA,172624,4933.0333,N,01043.0283,E,1,07,2.00,331.4,M,47.547,M,,*72
$GPRMC,172624,A,4933.0333,N,01043.0283,E,0.0000,0.000,300707,,*2B
$GPGSA,A,3,05,06,14,12,04,02,07,,,,,,3.0,2.1,2.1*35
$GPGSV,3,1,12,05,78,071,14,30,79,308,00,06,43,218,09,14,31,255,10*70
$GPGSV,3,2,12,01,28,301,00,12,58,081,37,09,20,149,00,04,19,044,10*7B
$GPGSV,3,3,12,02,35,082,31,07,35,222,20,31,22,310,00,47,07,250,00*74
$GPGGA,172625,4933.0333,N,01043.0283,E,1,06,2.10,331.4,M,47.547,M,,*73
$GPRMC,172625,A,4933.0333,N,01043.0283,E,0.0000,0.000,300707,,*2A
$GPGSA,A,3,05,14,12,04,02,07,,,,,,,4.2,3.0,2.9*3E
$GPGSV,3,1,12,05,78,071,16,30,79,308,00,06,43,218,08,14,31,255,11*72
$GPGSV,3,2,12,01,28,301,00,12,58,081,36,09,20,149,00,04,19,044,08*73
$GPGSV,3,3,12,02,35,082,31,07,35,222,20,31,22,310,00,47,07,250,00*74
$GPGGA,172626,4933.0333,N,01043.0283,E,1,06,3.00,331.4,M,47.547,M,,*70
$GPRMC,172626,A,4933.0333,N,01043.0283,E,0.0000,0.000,300707,,*29
$GPGSA,A,3,05,14,12,02,07,47,,,,,,,4.2,3.0,2.9*39
$GPGSV,3,1,12,05,78,071,16,30,79,308,00,06,43,218,07,14,31,255,12*7E
$GPGSV,3,2,12,01,28,301,00,12,58,081,35,09,20,149,00,04,19,044,06*7E
$GPGSV,3,3,12,02,35,082,30,07,35,222,20,31,22,310,00,47,07,250,00*75
$GPGGA,172627,4933.0333,N,01043.0283,E,1,06,3.00,331.4,M,47.547,M,,*71
$GPRMC,172627,A,4933.0333,N,01043.0283,E,0.0000,0.000,300707,,*28
$GPGSA,A,3,05,14,12,02,07,47,,,,,,,4.2,3.0,2.9*39
$GPGSV,3,1,12,05,78,071,16,30,79,308,00,06,43,218,06,14,31,255,11*7C
$GPGSV,3,2,12,01,28,301,00,12,58,081,34,09,20,149,00,04,19,044,06*7F
$GPGSV,3,3,12,02,35,082,30,07,35,222,20,31,22,310,00,47,07,250,00*75
$GPGGA,172628,4933.0333,N,01043.0283,E,1,05,3.00,331.4,M,47.547,M,,*7D
$GPRMC,172628,A,4933.0333,N,01043.0283,E,0.0000,0.000,300707,,*27
$GPGSA,A,3,05,14,12,02,07,,,,,,,,5.4,5.3,0.9*3A
$GPGSV,3,1,12,05,78,071,17,30,79,308,00,06,43,218,06,14,31,255,08*75
$GPGSV,3,2,12,01,28,301,00,12,58,081,34,09,20,149,00,04,19,044,06*7F
$GPGSV,3,3,12,02,35,082,31,07,35,222,20,31,22,310,00,47,07,250,00*74
$GPGGA,172629,4933.0333,N,01043.0283,E,1,04,5.30,331.4,M,47.547,M,,*78
$GPRMC,172629,A,4933.0333,N,01043.0283,E,0.0000,0.000,300707,,*26
$GPGSA,A,3,05,12,02,07,,,,,,,,,4.2,3.0,2.9*3F
$GPGSV,3,1,12,05,78,071,18,30,79,308,00,06,43,218,06,14,31,255,11*72
$GPGSV,3,2,12,01,28,301,00,12,58,081,33,09,20,149,00,04,19,044,05*7B
$GPGSV,3,3,12,02,35,082,31,07,35,222,21,31,22,310,00,47,07,250,00*75
$GPGGA,172630,4933.0333,N,01043.0283,E,1,06,3.00,331.4,M,47.547,M,,*77
$GPRMC,172630,A,4933.0333,N,01043.0283,E,0.6106,355.642,300707,,*2C
$GPGSA,A,3,05,14,12,02,07,47,,,,,,,3.8,2.5,2.8*31
$GPGSV,3,1,12,05,78,071,18,30,79,308,00,06,43,218,07,14,31,255,11*73
$GPGSV,3,2,12,01,28,301,00,12,58,081,33,09,20,149,00,04,19,044,07*79
$GPGSV,3,3,12,02,35,082,32,07,35,222,22,31,22,310,00,47,07,250,00*75
$GPGGA,172631,4933.0337,N,01043.0285,E,1,06,2.50,330.8,M,47.547,M,,*7D
$GPRMC,172631,A,4933.0337,N,01043.0285,E,0.0000,0.000,300707,,*2D
$GPGSA,A,3,05,06,14,12,02,07,,,,,,,2.9,2.0,2.1*38
$GPGSV,3,1,12,05,78,071,18,30,79,308,00,06,43,218,08,14,31,255,11*7C
$GPGSV,3,2,12,01,28,301,00,12,58,081,32,09,20,149,00,04,19,044,08*77
$GPGSV,3,3,12,02,35,082,31,07,35,222,22,31,22,310,00,47,07,250,00*76
$GPGGA,172632,4933.0337,N,01043.0285,E,1,07,2.00,330.8,M,47.547,M,,*7A
$GPRMC,172632,A,4933.0337,N,01043.0285,E,0.0000,0.000,300707,,*2E
$GPGSA,A,3,05,06,14,12,04,02,07,,,,,,3.0,2.1,2.1*35
$GPGSV,3,1,12,05,78,071,19,30,79,308,00,06,43,218,06,14,31,255,11*73
$GPGSV,3,2,12,01,28,301,00,12,58,081,32,09,20,149,00,04,19,044,08*77
$GPGSV,3,3,12,02,35,082,31,07,35,222,22,31,22,310,00,47,07,250,00*76
$GPGGA,172633,4933.0338,N,01043.0277,E,1,06,2.10,330.7,M,47.547,M,,*76
$GPRMC,172633,A,4933.0338,N,01043.0277,E,0.0000,0.000,300707,,*2D
$GPGSA,A,3,05,14,12,04,02,07,,,,,,,4.2,3.0,2.9*3E
$GPGSV,3,1,12,05,78,071,20,30,79,308,00,06,43,218,05,14,31,255,10*7B
$GPGSV,3,2,12,01,28,301,00,12,58,081,31,09,20,149,00,04,19,044,07*7B
$GPGSV,3,3,12,02,35,082,32,07,35,222,21,31,22,310,00,47,07,250,00*76
$GPGGA,172634,4933.0334,N,01043.0277,E,1,05,3.00,329.9,M,47.547,M,,*78
$GPRMC,172634,A,4933.0334,N,01043.0277,E,0.3396,339.543,300707,,*22
$GPGSA,A,3,05,14,12,02,07,,,,,,,,3.4,2.7,2.1*35
$GPGSV,3,1,12,05,78,071,19,30,79,308,00,06,43,218,08,14,31,255,07*7A
$GPGSV,3,2,12,01,28,301,00,12,58,081,32,09,20,149,00,04,19,044,07*78
$GPGSV,3,3,12,02,35,082,32,07,35,222,21,31,22,310,00,47,07,250,00*76
$GPGGA,172635,4933.0338,N,01043.0278,E,1,06,2.70,329.3,M,47.547,M,,*75
$GPRMC,172635,A,4933.0338,N,01043.0278,E,0.7365,356.387,300707,,*2F
$GPGSA,A,3,05,12,04,02,07,47,,,,,,,3.8,2.5,2.8*30
$GPGSV,3,1,12,05,78,071,19,30,79,308,00,06,43,218,10,14,31,255,09*7D
$GPGSV,3,2,12,01,28,301,00,12,58,081,32,09,20,149,00,04,19,044,07*78
$GPGSV,3,3,12,02,35,082,32,07,35,222,22,31,22,310,00,47,07,250,00*75
$GPGGA,172636,4933.0338,N,01043.0278,E,1,06,2.50,329.3,M,47.547,M,,*74
$GPRMC,172636,A,4933.0338,N,01043.0278,E,0.0000,0.000,300707,,*27
$GPGSA,A,3,05,06,14,12,02,07,,,,,,,3.4,2.6,2.1*32
$GPGSV,3,1,12,05,78,071,20,30,79,308,00,06,43,218,12,14,31,255,07*7B
$GPGSV,3,2,12,01,28,301,00,12,58,081,31,09,20,149,00,04,19,044,08*74
$GPGSV,3,3,12,02,35,082,31,07,35,222,21,31,22,310,00,47,07,250,00*75
$GPGGA,172637,4933.0338,N,01043.0278,E,1,06,2.60,329.3,M,47.547,M,,*76
$GPRMC,172637,A,4933.0338,N,01043.0278,E,0.0000,0.000,300707,,*26
$GPGSA,A,3,05,06,12,04,02,07,,,,,,,2.9,2.0,2.1*39
$GPGSV,3,1,12,05,78,071,20,30,79,308,00,06,43,218,11,14,31,255,10*7E
$GPGSV,3,2,12,01,28,301,00,12,58,081,30,09,20,149,00,04,19,044,08*75
$GPGSV,3,3,12,02,35,082,32,07,35,222,21,31,22,310,00,47,07,250,00*76
$GPGGA,172638,4933.0338,N,01043.0278,E,1,07,2.00,329.3,M,47.547,M,,*7E
$GPRMC,172638,A,4933.0338,N,01043.0278,E,0.0000,0.000,300707,,*29
$GPGSA,A,3,05,06,14,12,04,02,07,,,,,,3.4,2.6,2.1*36
$GPGSV,3,1,12,05,78,071,20,30,79,308,00,06,43,218,12,14,31,255,10*7D
$GPGSV,3,2,12,01,28,301,00,12,58,081,31,09,20,149,00,04,19,044,08*74
$GPGSV,3,3,12,02,35,082,32,07,35,222,22,31,22,310,00,47,07,250,00*75
$GPGGA,172639,4933.0338,N,01043.0278,E,1,06,2.60,329.3,M,47.547,M,,*78
$GPRMC,172639,A,4933.0338,N,01043.0278,E,0.0000,0.000,300707,,*28
$GPGSA,A,3,05,06,12,04,02,07,,,,,,,3.8,2.5,2.8*35
$GPGSV,3,1,12,05,78,071,19,30,79,308,00,06,43,218,11,14,31,255,10*74
$GPGSV,3,2,12,01,28,301,00,12,58,081,31,09,20,149,00,04,19,044,09*75
$GPGSV,3,3,12,02,35,082,34,07,35,222,22,31,22,310,00,47,07,250,00*73
$GPGGA,172640,4933.0338,N,01043.0278,E,1,06,2.50,329.3,M,47.547,M,,*75
$GPRMC,172640,A,4933.0338,N,01043.0278,E,0.1498,193.967,300707,,*21
$GPGSA,A,3,05,06,14,12,02,07,,,,,,,3.4,2.6,2.1*32
$GPGSV,3,1,12,05,78,071,16,30,79,308,00,06,43,218,14,14,31,255,08*77
$GPGSV,3,2,12,01,28,301,00,12,58,081,30,09,20,149,00,04,19,044,10*7C
$GPGSV,3,3,12,02,35,082,31,07,35,222,22,31,22,310,00,47,07,250,00*76
$GPGGA,172641,4933.0342,N,01043.0280,E,1,06,2.60,328.6,M,47.547,M,,*79
$GPRMC,172641,A,4933.0342,N,01043.0280,E,0.9117,228.366,300707,,*28
$GPGSA,A,3,05,06,12,04,02,07,,,,,,,4.3,2.4,3.6*37
$GPGSV,3,1,12,05,78,071,10,30,79,308,00,06,43,218,14,14,31,255,16*7E
$GPGSV,3,2,12,01,28,301,00,12,58,081,27,09,20,149,00,04,19,044,09*72
$GPGSV,3,3,12,02,35,082,26,07,35,222,21,31,22,310,00,47,07,250,00*73
$GPGGA,172642,4933.0342,N,01043.0280,E,1,06,2.40,328.6,M,47.547,M,,*78
$GPRMC,172642,A,4933.0342,N,01043.0280,E,1.7054,223.406,300707,,*28
$GPGSA,A,3,06,14,12,04,02,07,,,,,,,5.2,2.7,4.4*31
$GPGSV,3,1,12,05,78,071,06,30,79,308,00,06,43,218,11,14,31,255,15*7F
$GPGSV,3,2,12,01,28,301,00,12,58,081,25,09,20,149,00,04,19,044,05*7C
$GPGSV,3,3,12,02,35,082,26,07,35,222,20,31,22,310,00,47,07,250,00*72
$GPRMC,172643,A,4933.0336,N,01043.0270,E,2.3479,237.130,300707,,*2C
$GPGSA,A,2,06,14,12,02,07,47,,,,,,,5.2,2.7,4.4*37
$GPGSV,3,1,12,05,78,071,05,30,79,308,00,06,43,218,09,14,31,255,09*78
$GPGSV,3,2,12,01,28,301,00,12,58,081,16,09,20,149,00,04,19,044,06*7F
$GPGSV,3,3,12,02,35,082,24,07,35,222,14,31,22,310,00,47,07,250,00*77
$GPGGA,172644,4933.0324,N,01043.0267,E,1,02,2.70,328.9,M,47.547,M,,*7F
$GPRMC,172644,A,4933.0324,N,01043.0267,E,6.5191,200.441,300707,,*28
$GPGSA,A,3,12,02,,,,,,,,,,,5.5,5.4,0.9*3B
$GPGSV,3,1,12,05,78,071,16,30,79,308,00,06,43,218,08,14,31,255,10*73
$GPGSV,3,2,12,01,28,301,00,12,58,081,21,09,20,149,00,04,19,044,07*7A
$GPGSV,3,3,12,02,35,082,21,07,35,222,15,31,22,310,00,47,07,250,00*73
$GPGGA,172645,4933.0310,N,01043.0256,E,1,05,5.40,328.5,M,47.547,M,,*74
$GPRMC,172645,A,4933.0310,N,01043.0256,E,6.3201,211.628,300707,,*2D
$GPGSA,A,3,05,12,02,07,47,,,,,,,,6.7,3.1,5.9*3D
$GPGSV,3,1,12,05,78,071,24,30,79,308,32,06,43,218,10,14,31,255,13*79
$GPGSV,3,2,12,01,28,301,00,12,58,081,26,09,20,149,00,04,19,044,06*7C
$GPGSV,3,3,12,02,35,082,16,07,35,222,16,31,22,310,00,47,07,250,00*74
$GPGGA,172646,4933.0292,N,01043.0235,E,1,06,3.10,328.7,M,47.547,M,,*7B
$GPRMC,172646,A,4933.0292,N,01043.0235,E,6.7769,215.003,300707,,*24
$GPGSA,A,3,05,06,14,12,07,47,,,,,,,3.5,2.6,2.4*37
$GPGSV,3,1,12,05,78,071,29,30,79,308,33,06,43,218,12,14,31,255,17*73
$GPGSV,3,2,12,01,28,301,00,12,58,081,29,09,20,149,00,04,19,044,10*74
$GPGSV,3,3,12,02,35,082,09,07,35,222,14,31,22,310,00,47,07,250,00*78
$GPGGA,172647,4933.0279,N,01043.0215,E,1,06,2.60,328.2,M,47.547,M,,*7E
$GPRMC,172647,A,4933.0279,N,01043.0215,E,8.1547,223.332,300707,,*20
$GPGSA,A,3,05,06,14,12,04,07,,,,,,,3.8,2.9,2.4*32
$GPGSV,3,1,12,05,78,071,32,30,79,308,35,06,43,218,08,14,31,255,22*72
$GPGSV,3,2,12,01,28,301,00,12,58,081,31,09,20,149,00,04,19,044,12*7F
$GPGSV,3,3,12,02,35,082,06,07,35,222,15,31,22,310,00,47,07,250,00*76
$GPGGA,172648,4933.0262,N,01043.0188,E,1,05,2.90,326.8,M,47.547,M,,*74
$GPRMC,172648,A,4933.0262,N,01043.0188,E,8.2899,227.714,300707,,*2B
$GPGSA,A,3,05,14,12,04,07,,,,,,,,5.7,3.2,4.6*33
$GPGSV,3,1,12,05,78,071,32,30,79,308,38,06,43,218,05,14,31,255,21*71
$GPGSV,3,2,12,01,28,301,00,12,58,081,36,09,20,149,00,04,19,044,09*72
$GPGSV,3,3,12,02,35,082,05,07,35,222,13,31,22,310,00,47,07,250,00*73
$GPGGA,172649,4933.0242,N,01043.0159,E,1,05,3.20,326.1,M,47.547,M,,*78
$GPRMC,172649,A,4933.0242,N,01043.0159,E,7.9523,222.819,300707,,*2B
$GPGSA,A,3,05,30,14,12,07,,,,,,,,2.9,2.2,1.7*38
$GPGSV,3,1,12,05,78,071,33,30,79,308,39,06,43,218,04,14,31,255,19*7B
$GPGSV,3,2,12,01,28,301,22,12,58,081,37,09,20,149,00,04,19,044,09*73
$GPGSV,3,3,12,02,35,082,00,07,35,222,16,31,22,310,00,47,07,250,00*73
$GPGGA,172650,4933.0229,N,01043.0139,E,1,06,2.20,325.6,M,47.547,M,,*7D
$GPRMC,172650,A,4933.0229,N,01043.0139,E,7.3458,217.286,300707,,*25
$GPGSA,A,3,05,30,14,12,04,07,,,,,,,2.9,2.3,1.7*3D
$GPGSV,3,1,12,05,78,071,32,30,79,308,36,06,43,218,04,14,31,255,15*79
$GPGSV,3,2,12,01,28,301,24,12,58,081,37,09,20,149,00,04,19,044,13*7E
$GPGSV,3,3,12,02,35,082,00,07,35,222,18,31,22,310,00,47,07,250,00*7D
$GPGGA,172651,4933.0211,N,01043.0120,E,1,06,2.30,324.3,M,47.547,M,,*7A
$GPRMC,172651,A,4933.0211,N,01043.0120,E,5.9213,211.835,300707,,*22
$GPGSA,A,3,05,30,14,12,04,07,,,,,,,2.9,2.3,1.7*3D
$GPGSV,3,1,12,05,78,071,33,30,79,308,34,06,43,218,05,14,31,255,14*7A
$GPGSV,3,2,12,01,28,301,23,12,58,081,32,09,20,149,00,04,19,044,15*7A
$GPGSV,3,3,12,02,35,082,00,07,35,222,15,31,22,310,00,47,07,250,00*70
$GPGGA,172652,4933.0197,N,01043.0109,E,1,06,2.30,324.0,M,47.547,M,,*7C
$GPRMC,172652,A,4933.0197,N,01043.0109,E,4.1034,220.101,300707,,*25
$GPGSA,A,3,05,30,14,12,04,07,,,,,,,2.7,2.0,1.7*30
$GPGSV,3,1,12,05,78,071,33,30,79,309,35,06,43,218,08,14,31,255,22*72
$GPGSV,3,2,12,01,28,301,24,12,58,081,33,09,20,149,00,04,19,044,14*7D
$GPGSV,3,3,12,02,35,082,00,07,35,222,15,31,22,310,00,47,07,250,00*70
$GPGGA,172653,4933.0191,N,01043.0091,E,1,07,2.00,323.6,M,47.547,M,,*78
$GPRMC,172653,A,4933.0191,N,01043.0091,E,3.4492,263.588,300707,,*2A
$GPGSA,A,3,05,30,06,14,12,04,07,,,,,,2.7,2.0,1.7*36
$GPGSV,3,1,12,05,78,071,34,30,79,309,34,06,43,218,14,14,31,255,17*7F
$GPGSV,3,2,12,01,28,301,18,12,58,081,33,09,20,149,00,04,19,044,16*70
$GPGSV,3,3,12,02,35,082,00,07,35,222,16,31,22,310,00,47,07,250,00*73
$GPGGA,172654,4933.0193,N,01043.0075,E,1,07,2.00,323.4,M,47.547,M,,*75
$GPRMC,172654,A,4933.0193,N,01043.0075,E,3.6314,290.488,300707,,*23
$GPGSA,A,3,05,30,06,14,12,04,07,,,,,,2.7,2.1,1.8*38
$GPGSV,3,1,12,05,78,071,35,30,79,309,31,06,43,218,12,14,31,255,11*7B
$GPGSV,3,2,12,01,28,301,15,12,58,081,31,09,20,149,00,04,19,044,17*7E
$GPGSV,3,3,12,02,35,082,11,07,35,222,14,31,22,310,00,47,07,250,00*71
$GPGGA,172655,4933.0202,N,01043.0060,E,1,06,2.10,323.3,M,47.547,M,,*7C
$GPRMC,172655,A,4933.0202,N,01043.0060,E,3.8924,314.699,300707,,*25
$GPGSA,A,3,05,30,12,04,02,07,,,,,,,2.7,2.0,1.7*37
$GPGSV,3,1,12,05,78,071,33,30,79,309,32,06,43,218,15,14,31,255,07*7E
$GPGSV,3,2,12,01,28,301,10,12,58,081,31,09,20,149,00,04,19,044,14*78
$GPGSV,3,3,12,02,35,082,25,07,35,222,15,31,22,310,00,47,07,250,00*77
$GPGGA,172656,4933.0215,N,01043.0047,E,1,07,2.00,322.5,M,47.547,M,,*7B
$GPRMC,172656,A,4933.0215,N,01043.0047,E,8.0728,323.376,300707,,*24
$GPGSA,A,3,05,30,06,12,04,02,07,,,,,,2.3,1.7,1.6*30
$GPGSV,3,1,12,05,78,071,31,30,79,309,32,06,43,218,15,14,31,255,13*79
$GPGSV,3,2,12,01,28,301,13,12,58,081,34,09,20,149,00,04,19,044,16*7C
$GPGSV,3,3,12,02,35,082,27,07,35,222,15,31,22,310,00,47,07,250,00*75
$GPGGA,172657,4933.0241,N,01043.0019,E,1,08,1.70,322.4,M,47.547,M,,*7A
$GPRMC,172657,A,4933.0241,N,01043.0019,E,9.1505,321.482,300707,,*2C
$GPGSA,A,3,05,30,06,14,12,04,02,07,,,,,2.3,1.7,1.6*35
$GPGSV,3,1,12,05,77,072,30,30,79,309,31,06,43,218,13,14,31,255,15*77
$GPGSV,3,2,12,01,28,301,15,12,58,081,35,09,20,149,20,04,19,044,16*79
$GPGSV,3,3,12,02,35,082,30,07,35,222,13,31,22,310,00,47,07,250,00*75
$GPGGA,172658,4933.0262,N,01042.9989,E,1,08,1.70,322.9,M,47.547,M,,*71
$GPRMC,172658,A,4933.0262,N,01042.9989,E,11.6952,320.801,300707,,*1C
$GPGSA,A,3,05,30,06,14,12,04,02,07,,,,,2.5,1.8,1.7*3D
$GPGSV,3,1,12,05,77,072,31,30,79,309,29,06,43,218,12,14,31,255,16*7D
$GPGSV,3,2,12,01,28,301,15,12,58,081,34,09,20,149,20,04,19,044,12*7C
$GPGSV,3,3,12,02,35,082,33,07,35,222,11,31,22,310,00,47,07,250,00*74
$GPGGA,172659,4933.0288,N,01042.9961,E,1,07,1.80,322.8,M,47.547,M,,*73
$GPRMC,172659,A,4933.0288,N,01042.9961,E,12.3018,320.092,300707,,*1C
$GPGSA,A,3,05,30,06,14,12,04,02,,,,,,3.4,2.3,2.5*33
$GPGSV,3,1,12,05,77,072,33,30,79,309,26,06,43,218,13,14,31,255,14*73
$GPGSV,3,2,12,01,28,301,11,12,58,081,33,09,20,149,19,04,19,044,07*71
$GPGSV,3,3,12,02,35,082,33,07,35,222,11,31,22,310,00,47,07,250,00*74
$GPGGA,172700,4933.0319,N,01042.9919,E,1,07,2.30,321.8,M,47.548,M,,*7C
$GPRMC,172700,A,4933.0319,N,01042.9919,E,10.7086,319.694,300707,,*1C
$GPGSA,A,3,05,30,06,14,12,02,07,,,,,,2.1,1.3,1.6*37
$GPGSV,3,1,12,05,77,072,35,30,79,309,25,06,43,218,11,14,31,255,08*79
$GPGSV,3,2,12,01,28,301,10,12,58,081,33,09,20,149,19,04,19,044,13*75
$GPGSV,3,3,12,02,35,082,27,07,35,222,13,31,22,310,00,47,07,250,00*73
$GPGGA,172701,4933.0348,N,01042.9891,E,1,08,1.30,322.5,M,47.548,M,,*7A
$GPRMC,172701,A,4933.0348,N,01042.9891,E,7.5305,329.475,300707,,*2A
$GPGSA,A,3,05,30,06,12,09,04,02,07,,,,,2.5,1.6,1.8*30
$GPGSV,3,1,12,05,77,072,35,30,79,309,22,06,43,218,17,14,31,255,06*76
$GPGSV,3,2,12,01,28,301,07,12,58,081,35,09,20,149,17,04,19,044,18*70
$GPGSV,3,3,12,02,35,082,20,07,35,222,10,31,22,310,00,47,07,250,00*77
$GPGGA,172702,4933.0361,N,01042.9876,E,1,06,1.60,323.1,M,47.548,M,,*75
$GPRMC,172702,A,4933.0361,N,01042.9876,E,4.5035,337.137,300707,,*24
$GPGSA,A,3,05,30,06,12,09,04,,,,,,,2.5,1.8,1.7*34
$GPGSV,3,1,12,05,77,072,33,30,79,309,24,06,43,218,14,14,31,255,11*73
$GPGSV,3,2,12,01,28,301,06,12,58,081,35,09,20,149,14,04,19,044,15*7F
$GPGSV,3,3,12,02,35,082,23,07,35,222,07,31,22,310,00,47,07,250,00*72
$GPGGA,172703,4933.0372,N,01042.9877,E,1,07,1.80,324.0,M,47.548,M,,*7E
$GPRMC,172703,A,4933.0372,N,01042.9877,E,2.7898,347.717,300707,,*2E
$GPGSA,A,3,05,30,06,14,12,04,02,,,,,,2.4,1.5,1.8*39
$GPGSV,3,1,12,05,77,072,32,30,79,309,24,06,43,218,18,14,31,255,08*76
$GPGSV,3,2,12,01,28,301,04,12,58,081,31,09,20,149,15,04,19,044,20*7E
$GPGSV,3,3,12,02,35,082,23,07,35,222,05,31,22,310,00,47,07,250,00*70
$GPGGA,172704,4933.0388,N,01042.9872,E,1,07,1.50,324.1,M,47.548,M,,*75
$GPRMC,172704,A,4933.0388,N,01042.9872,E,4.7181,3.704,300707,,*2F
$GPGSA,A,3,05,30,06,12,09,04,02,,,,,,1.8,1.1,1.5*33
$GPGSV,3,1,12,05,77,072,33,30,79,309,27,06,43,218,20,14,31,255,12*74
$GPGSV,3,2,12,01,28,301,05,12,58,081,29,09,20,149,17,04,19,044,25*71
$GPGSV,3,3,12,02,35,082,27,07,35,222,13,31,22,310,00,47,07,250,00*73
$GPGGA,172705,4933.0407,N,01042.9877,E,1,09,1.10,323.7,M,47.548,M,,*7A
$GPRMC,172705,A,4933.0407,N,01042.9877,E,8.0495,29.677,300707,,*1D
$GPGSA,A,3,05,30,06,14,12,09,04,02,07,,,,1.8,1.1,1.5*31
$GPGSV,3,1,12,05,77,072,30,30,79,309,29,06,43,218,22,14,31,255,14*7D
$GPGSV,3,2,12,01,28,301,05,12,58,081,28,09,20,149,19,04,19,044,19*71
$GPGSV,3,3,12,02,35,082,29,07,35,222,17,31,22,310,00,47,07,250,00*79
$GPGGA,172706,4933.0423,N,01042.9906,E,1,09,1.10,323.7,M,47.548,M,,*78
$GPRMC,172706,A,4933.0423,N,01042.9906,E,9.8825,44.761,300707,,*1C
$GPGSA,A,3,05,30,06,14,12,09,04,02,07,,,,3.4,2.3,2.5*3D
$GPGSV,3,1,12,05,77,072,27,30,79,309,31,06,43,218,22,14,31,255,15*73
$GPGSV,3,2,12,01,28,301,04,12,58,081,23,09,20,149,11,04,19,044,11*7B
$GPGSV,3,3,12,02,35,082,30,07,35,222,23,31,22,310,00,47,07,250,00*76
$GPGGA,172707,4933.0448,N,01042.9937,E,1,07,2.30,323.8,M,47.548,M,,*76
$GPRMC,172707,A,4933.0448,N,01042.9937,E,12.3441,44.064,300707,,*2F
$GPGSA,A,3,05,30,06,14,12,02,07,,,,,,3.0,1.7,2.5*33
$GPGSV,3,1,12,05,77,072,24,30,79,309,29,06,43,218,23,14,31,255,16*7B
$GPGSV,3,2,12,01,28,301,03,12,58,081,21,09,20,149,10,04,19,044,07*78
$GPGSV,3,3,12,02,35,082,31,07,35,222,25,31,22,310,00,47,07,250,00*71
$GPGGA,172708,4933.0475,N,01042.9985,E,1,08,1.70,323.5,M,47.547,M,,*74
$GPRMC,172708,A,4933.0475,N,01042.9985,E,15.5606,34.194,300707,,*2E
$GPGSA,A,3,05,30,06,14,12,09,02,07,,,,,2.7,2.0,1.7*39
$GPGSV,3,1,12,05,77,072,24,30,79,309,29,06,43,218,24,14,31,255,18*72
$GPGSV,3,2,12,01,28,301,06,12,58,081,24,09,20,149,09,04,19,044,11*77
$GPGSV,3,3,12,02,35,082,16,07,35,222,25,31,22,310,00,47,07,250,00*74
$GPGGA,172709,4933.0514,N,01043.0019,E,1,07,2.00,323.8,M,47.547,M,,*71
$GPRMC,172709,A,4933.0514,N,01043.0019,E,18.7396,31.618,300707,,*28
$GPGSA,A,3,05,30,06,14,12,04,07,,,,,,5.0,2.6,4.2*30
$GPGSV,3,1,12,05,77,072,25,30,79,309,29,06,43,218,25,14,31,255,18*72
$GPGSV,3,2,12,01,28,301,05,12,58,081,26,09,20,149,05,04,19,044,12*79
$GPGSV,3,3,12,02,35,082,09,07,35,222,25,31,22,310,00,47,07,250,00*7A
$GPGGA,172710,4933.0564,N,01043.0064,E,1,06,2.60,323.8,M,47.547,M,,*73
$GPRMC,172710,A,4933.0564,N,01043.0064,E,19.7921,32.307,300707,,*22
$GPGSA,A,3,05,30,06,14,12,07,,,,,,,5.0,2.6,4.2*34
$GPGSV,3,1,12,05,77,072,25,30,79,309,30,06,43,218,26,14,31,255,16*77
$GPGSV,3,2,12,01,28,301,04,12,58,081,29,09,20,149,03,04,19,044,07*75
$GPGSV,3,3,12,02,35,082,10,07,35,222,27,31,22,310,00,47,07,250,00*70
$GPGGA,172711,4933.0615,N,01043.0109,E,1,06,2.60,323.7,M,47.547,M,,*72
$GPRMC,172711,A,4933.0615,N,01043.0109,E,19.7861,31.543,300707,,*2C
$GPGSA,A,3,05,30,06,14,12,07,,,,,,,5.0,2.6,4.2*34
$GPGSV,3,1,12,05,77,072,25,30,79,309,32,06,43,218,27,14,31,255,16*74
$GPGSV,3,2,12,01,28,301,07,12,58,081,30,09,20,149,03,04,19,044,05*7C
$GPGSV,3,3,12,02,35,082,09,07,35,222,27,31,22,310,00,35,07,250,00*7D
$GPGGA,172712,4933.0657,N,01043.0152,E,1,06,2.60,323.6,M,47.547,M,,*78
$GPRMC,172712,A,4933.0657,N,01043.0152,E,18.5234,30.814,300707,,*20
$GPGSA,A,3,05,30,06,14,12,07,,,,,,,3.4,2.3,2.5*32
$GPGSV,3,1,12,05,77,072,26,30,79,309,31,06,43,218,27,14,31,255,15*77
$GPGSV,3,2,12,01,28,301,05,12,58,081,29,09,20,149,00,04,19,044,05*75
$GPGSV,3,3,12,02,35,082,11,07,35,222,27,31,22,310,00,35,07,250,00*74
$GPGGA,172713,4933.0703,N,01043.0194,E,1,07,2.30,325.5,M,47.547,M,,*72
$GPRMC,172713,A,4933.0703,N,01043.0194,E,18.8118,39.056,300707,,*2C
$GPGSA,A,3,05,30,06,14,12,02,07,,,,,,9.9,4.6,8.7*3C
$GPGSV,3,1,12,05,77,072,25,30,79,309,36,06,43,218,25,14,31,255,19*7D
$GPGSV,3,2,12,01,28,301,09,12,58,081,17,09,20,149,00,04,19,044,06*77
$GPGSV,3,3,12,02,35,082,06,07,35,222,25,31,22,310,00,35,07,250,00*70
$GPGGA,172714,4933.0740,N,01043.0254,E,1,05,4.60,324.8,M,47.547,M,,*70
$GPRMC,172714,A,4933.0740,N,01043.0254,E,19.4002,52.288,300707,,*28
$GPGSA,A,3,05,30,06,14,07,,,,,,,,5.0,2.6,4.2*37
$GPGSV,3,1,12,05,77,072,24,30,79,309,34,06,43,218,26,14,31,255,18*7C
$GPGSV,3,2,12,01,28,301,08,12,58,081,18,09,20,149,00,04,19,044,05*7A
$GPGSV,3,3,12,02,35,082,05,07,35,222,27,31,22,310,00,35,07,250,00*71
$GPGGA,172715,4933.0769,N,01043.0328,E,1,06,2.60,324.3,M,47.547,M,,*7E
$GPRMC,172715,A,4933.0769,N,01043.0328,E,17.8302,62.618,300707,,*27
$GPGSA,A,3,05,30,06,14,12,07,,,,,,,3.4,2.3,2.5*32
$GPGSV,3,1,12,05,77,072,26,30,79,309,31,06,43,218,27,14,31,255,19*7B
$GPGSV,3,2,12,01,28,301,06,12,58,081,23,09,20,149,00,04,19,044,04*7D
$GPGSV,3,3,12,02,35,082,11,07,35,222,24,31,22,310,00,35,07,250,00*77
$GPGGA,172716,4933.0787,N,01043.0391,E,1,07,2.30,324.1,M,47.547,M,,*79
$GPRMC,172716,A,4933.0787,N,01043.0391,E,14.5903,74.154,300707,,*2B
$GPGSA,A,3,05,30,06,14,12,02,07,,,,,,3.4,2.3,2.5*30
$GPGSV,3,1,12,05,77,072,27,30,79,309,32,06,43,218,20,14,31,255,21*75
$GPGSV,3,2,12,01,28,301,00,12,58,081,23,09,20,149,00,04,19,044,03*7C
$GPGSV,3,3,12,02,35,082,16,07,35,222,17,31,22,310,00,35,07,250,00*70
$GPGGA,172717,4933.0790,N,01043.0451,E,1,07,2.30,323.7,M,47.547,M,,*74
$GPRMC,172717,A,4933.0790,N,01043.0451,E,11.9862,92.372,300707,,*26
$GPGSA,A,3,05,30,06,14,12,02,07,,,,,,3.6,2.6,2.5*37
$GPGSV,3,1,12,05,77,072,30,30,79,309,31,06,43,218,13,14,31,255,20*71
$GPGSV,3,2,12,01,28,301,00,12,58,081,20,09,20,149,00,04,19,044,00*7C
$GPGSV,3,3,12,02,35,082,16,07,35,222,10,31,22,310,00,35,07,250,00*77
$GPGGA,172718,4933.0789,N,01043.0500,E,1,06,2.60,325.1,M,47.547,M,,*72
$GPRMC,172718,A,4933.0789,N,01043.0500,E,11.9862,92.372,300707,,*24
$GPGSA,A,2,05,30,06,14,12,02,,,,,,,11.0,11.0,1.0*36
$GPGSV,3,1,12,05,77,072,32,30,79,309,33,06,43,218,08,14,31,255,12*7A
$GPGSV,3,2,12,01,28,301,00,12,58,081,19,09,20,149,00,04,19,044,00*76
$GPGSV,3,3,12,02,35,082,09,07,35,222,07,31,22,310,00,35,07,250,00*7F
$GPGGA,172719,4933.0787,N,01043.0536,E,1,00,11.00,322.8,M,47.547,M,,*44
$GPRMC,172719,A,4933.0787,N,01043.0536,E,6.3968,83.044,300707,,*1F
$GPGSA,A,3,,,,,,,,,,,,,12.3,6.9,10.1*3D
$GPGSV,3,1,12,05,77,072,31,30,79,309,31,06,43,218,15,14,31,255,08*7C
$GPGSV,3,2,12,01,28,301,00,12,58,081,19,09,20,149,12,04,19,044,00*75
$GPGSV,3,3,12,02,35,082,06,07,35,222,07,31,22,310,00,35,07,250,00*70
$GPGGA,172720,4933.0788,N,01043.0570,E,1,05,6.90,322.7,M,47.547,M,,*76
$GPRMC,172720,A,4933.0788,N,01043.0570,E,8.8395,92.341,300707,,*13
$GPGSA,A,3,05,30,06,12,07,,,,,,,,3.4,2.3,2.5*37
$GPGSV,3,1,12,05,77,072,31,30,79,309,32,06,43,218,26,14,31,255,11*77
$GPGSV,3,2,12,01,28,301,08,12,58,081,21,09,20,149,20,04,19,044,00*77
$GPGSV,3,3,12,02,35,082,13,07,35,222,16,31,22,310,00,35,07,250,00*74
$GPGGA,172721,4933.0800,N,01043.0607,E,1,07,2.30,322.0,M,47.547,M,,*70
$GPRMC,172721,A,4933.0800,N,01043.0607,E,11.4808,48.475,300707,,*22
$GPGSA,A,3,05,30,06,14,12,02,07,,,,,,3.0,1.7,2.4*32
$GPGSV,3,1,12,05,77,072,27,30,79,309,31,06,43,218,26,14,31,255,16*74
$GPGSV,3,2,12,01,28,301,09,12,58,081,20,09,20,149,21,04,19,044,00*76
$GPGSV,3,3,12,02,35,082,22,07,35,222,22,31,22,310,00,35,07,250,00*71
$GPGGA,172722,4933.0824,N,01043.0646,E,1,08,1.70,322.2,M,47.547,M,,*7A
$GPRMC,172722,A,4933.0824,N,01043.0646,E,14.1193,34.650,300707,,*27
$GPGSA,A,3,05,30,06,14,12,09,02,07,,,,,3.4,2.3,2.5*39
$GPGSV,3,1,12,05,77,072,25,30,79,309,30,06,43,218,25,14,31,255,17*75
$GPGSV,3,2,12,01,28,301,07,12,58,081,24,09,20,149,14,04,19,044,00*7A
$GPGSV,3,3,12,02,35,082,23,07,35,222,23,31,22,310,00,35,07,250,00*71
$GPGGA,172723,4933.0859,N,01043.0688,E,1,07,2.30,321.9,M,47.547,M,,*73
$GPRMC,172723,A,4933.0859,N,01043.0688,E,17.5811,34.013,300707,,*2B
$GPGSA,A,3,05,30,06,14,12,02,07,,,,,,5.0,2.6,4.2*36
$GPGSV,3,1,12,05,77,072,23,30,79,309,31,06,43,218,25,14,31,255,18*7D
$GPGSV,3,2,12,01,28,301,04,12,58,081,23,09,20,149,10,04,19,044,00*7A
$GPGSV,3,3,12,02,35,082,13,07,35,222,26,31,22,310,00,35,07,250,00*77
$GPGGA,172724,4933.0901,N,01043.0731,E,1,06,2.60,321.7,M,47.547,M,,*71
$GPRMC,172724,A,4933.0901,N,01043.0731,E,19.5592,34.924,300707,,*26
$GPGSA,A,3,05,30,06,14,12,07,,,,,,,12.3,6.9,10.1*3C
$GPGSV,3,1,12,05,77,072,23,30,79,309,32,06,43,218,26,14,31,255,10*75
$GPGSV,3,2,12,01,28,301,00,12,58,081,22,09,20,149,06,04,19,044,00*78
$GPGSV,3,3,12,02,35,082,08,07,35,222,25,31,22,310,00,35,07,250,00*7E
$GPGGA,172725,4933.0943,N,01043.0791,E,1,05,6.90,321.8,M,47.547,M,,*7B
$GPRMC,172725,A,4933.0943,N,01043.0791,E,21.1227,35.089,300707,,*22
$GPGSA,A,3,05,30,06,12,07,,,,,,,,12.3,6.9,10.1*39
$GPGSV,3,1,12,05,77,072,23,30,79,309,33,06,43,218,26,14,31,255,07*72
$GPGSV,3,2,12,01,28,301,00,12,58,081,25,09,20,149,06,04,19,044,00*7F
$GPGSV,3,3,12,02,35,082,06,07,35,222,26,31,22,310,00,35,07,250,00*73
$GPGGA,172726,4933.0996,N,01043.0845,E,1,05,6.90,321.2,M,47.547,M,,*7C
$GPRMC,172726,A,4933.0996,N,01043.0845,E,22.8626,35.140,300707,,*24
$GPGSA,A,3,05,30,06,12,07,,,,,,,,3.4,2.3,2.5*37
$GPGSV,3,1,12,05,77,072,22,30,79,309,33,06,43,218,25,14,31,255,12*74
$GPGSV,3,2,12,01,28,301,00,12,58,081,26,09,20,149,00,04,19,044,00*7A
$GPGSV,3,3,12,02,35,082,12,07,35,222,26,31,22,310,00,35,07,250,00*76
$GPGGA,172727,4933.1050,N,01043.0900,E,1,07,2.30,320.7,M,47.547,M,,*77
$GPRMC,172727,A,4933.1050,N,01043.0900,E,23.6622,34.000,300707,,*28
$GPGSA,A,3,05,30,06,14,12,02,07,,,,,,5.0,2.6,4.2*36
$GPGSV,3,1,12,05,77,072,23,30,79,309,33,06,43,218,26,14,31,255,15*71
$GPGSV,3,2,12,01,28,301,00,12,58,081,26,09,20,149,00,04,19,044,00*7A
$GPGSV,3,3,12,02,35,082,13,07,35,222,25,31,22,310,00,35,07,250,00*74
$GPGGA,172728,4933.1098,N,01043.0960,E,1,06,2.60,322.3,M,47.547,M,,*78
$GPRMC,172728,A,4933.1098,N,01043.0960,E,24.2980,33.606,300707,,*26
$GPGSA,A,3,05,30,06,14,12,07,,,,,,,3.4,2.3,2.5*32
$GPGSV,3,1,12,05,77,073,23,30,79,309,32,06,43,218,24,14,31,255,18*7E
$GPGSV,3,2,12,01,28,301,00,12,58,081,26,09,20,149,00,04,19,044,00*7A
$GPGSV,3,3,12,02,35,082,16,07,35,222,25,31,22,310,00,35,07,250,00*71
$GPGGA,172729,4933.1150,N,01043.1021,E,1,07,2.30,323.2,M,47.546,M,,*74
$GPRMC,172729,A,4933.1150,N,01043.1021,E,23.7294,35.009,300707,,*2C
$GPGSA,A,3,05,30,06,14,12,02,07,,,,,,5.0,2.6,4.2*36
$GPGSV,3,1,12,05,77,073,21,30,79,309,31,06,43,218,24,14,31,255,18*7F
$GPGSV,3,2,12,01,28,301,00,12,58,081,20,09,20,149,00,04,19,044,00*7C
$GPGSV,3,3,12,02,35,082,11,07,35,222,24,31,22,310,00,35,07,250,00*77
$GPGGA,172730,4933.1190,N,01043.1087,E,1,06,2.60,324.8,M,47.546,M,,*75
$GPRMC,172730,A,4933.1190,N,01043.1087,E,20.2565,42.224,300707,,*26
$GPGSA,A,3,05,30,06,14,12,07,,,,,,,7.1,5.0,5.0*35
$GPGSV,3,1,12,05,77,073,23,30,79,309,32,06,43,218,24,14,31,255,11*77
$GPGSV,3,2,12,01,28,301,00,12,58,081,23,09,20,149,00,04,19,044,00*7F
$GPGSV,3,3,12,02,35,082,19,07,35,222,25,31,22,310,00,35,07,250,00*7E
$GPGGA,172731,4933.1230,N,01043.1145,E,1,06,5.00,326.3,M,47.546,M,,*7A
$GPRMC,172731,A,4933.1230,N,01043.1145,E,22.2985,39.820,300707,,*23
$GPGSA,A,3,05,30,06,12,02,07,,,,,,,3.4,2.3,2.5*35
$GPGSV,3,1,12,05,77,073,22,30,79,309,32,06,43,218,25,14,31,255,16*70
$GPGSV,3,2,12,01,28,301,00,12,58,081,24,09,20,149,00,04,19,044,00*78
$GPGSV,3,3,12,02,35,082,21,07,36,222,25,31,22,310,00,35,07,250,00*76
$GPGGA,172732,4933.1274,N,01043.1213,E,1,07,2.30,327.2,M,47.546,M,,*7C
$GPRMC,172732,A,4933.1274,N,01043.1213,E,22.6117,45.892,300707,,*25
$GPGSA,A,3,05,30,06,14,12,02,07,,,,,,3.4,2.3,2.5*30
$GPGSV,3,1,12,05,77,073,23,30,79,309,33,06,43,218,23,14,31,255,17*77
$GPGSV,3,2,12,01,28,301,00,12,58,081,25,09,20,149,00,04,19,044,00*79
$GPGSV,3,3,12,02,35,082,18,07,36,222,26,31,22,310,00,35,07,250,00*7F
$GPGGA,172733,4933.1317,N,01043.1297,E,1,07,2.30,328.4,M,47.546,M,,*7C
$GPRMC,172733,A,4933.1317,N,01043.1297,E,24.3079,50.897,300707,,*27
$GPGSA,A,3,05,30,06,14,12,02,07,,,,,,3.4,2.3,2.5*30
$GPGSV,3,1,12,05,77,073,23,30,79,309,30,06,43,218,22,14,31,255,20*71
$GPGSV,3,2,12,01,28,301,00,12,58,081,18,09,20,149,09,04,19,044,00*7E
$GPGSV,3,3,12,02,35,082,18,07,36,222,25,31,22,310,00,35,07,250,00*7C
$GPGGA,172734,4933.1364,N,01043.1376,E,1,07,2.30,327.4,M,47.546,M,,*7E
$GPRMC,172734,A,4933.1364,N,01043.1376,E,25.2475,52.116,300707,,*20
$GPGSA,A,3,05,30,06,14,12,02,07,,,,,,4.9,2.6,4.2*3E
$GPGSV,3,1,12,05,77,073,25,30,79,309,29,06,43,218,20,14,31,255,20*7D
$GPGSV,3,2,12,01,28,301,00,12,58,081,18,09,20,149,12,04,19,044,00*74
$GPGSV,3,3,12,02,35,082,12,07,36,222,24,31,22,310,00,35,07,250,00*77
$GPGGA,172735,4933.1407,N,01043.1462,E,1,06,2.60,327.2,M,47.546,M,,*7D
$GPRMC,172735,A,4933.1407,N,01043.1462,E,25.9221,52.393,300707,,*22
$GPGSA,A,3,05,30,06,14,12,07,,,,,,,4.0,2.2,3.3*37
$GPGSV,3,1,12,05,77,073,24,30,79,309,30,06,43,218,20,14,31,255,20*74
$GPGSV,3,2,12,01,28,301,00,12,58,081,20,09,20,149,15,04,19,044,00*78
$GPGSV,3,3,12,02,35,082,11,07,36,222,24,31,22,310,00,35,07,250,00*74
$GPGGA,172736,4933.1453,N,01043.1557,E,1,07,2.20,326.5,M,47.546,M,,*7B
$GPRMC,172736,A,4933.1453,N,01043.1557,E,27.4493,53.207,300707,,*2A
$GPGSA,A,3,05,30,06,14,12,09,07,,,,,,4.9,2.6,4.2*35
$GPGSV,3,1,12,05,77,073,23,30,79,309,29,06,43,218,23,14,31,255,20*78
$GPGSV,3,2,12,01,28,301,00,12,57,081,20,09,20,149,09,04,19,044,00*7A
$GPGSV,3,3,12,02,35,082,09,07,36,222,25,31,22,310,00,35,07,250,00*7C
$GPGGA,172737,4933.1495,N,01043.1659,E,1,06,2.60,326.5,M,47.546,M,,*78
$GPRMC,172737,A,4933.1495,N,01043.1659,E,27.3222,54.115,300707,,*20
$GPGSA,A,3,05,30,06,14,12,07,,,,,,,4.9,2.6,4.2*3C
$GPGSV,3,1,12,05,77,073,24,30,79,309,30,06,43,218,23,14,31,255,18*7C
$GPGSV,3,2,12,01,28,301,00,12,57,081,20,09,20,149,06,04,19,044,00*75
$GPGSV,3,3,12,02,35,082,06,07,36,222,27,31,22,310,00,35,07,250,00*71
$GPGGA,172738,4933.1541,N,01043.1755,E,1,06,2.60,325.8,M,47.546,M,,*7C
$GPRMC,172738,A,4933.1541,N,01043.1755,E,26.9803,54.730,300707,,*29
$GPGSA,A,3,05,30,06,14,12,07,,,,,,,4.9,2.6,4.2*3C
$GPGSV,3,1,12,05,77,073,24,30,79,309,29,06,43,218,24,14,31,254,17*7D
$GPGSV,3,2,12,01,28,301,00,12,57,081,19,09,20,149,04,04,19,044,00*7D
$GPGSV,3,3,12,02,35,082,04,07,36,222,27,31,22,310,00,35,07,250,00*73
$GPGGA,172739,4933.1587,N,01043.1850,E,1,06,2.60,325.1,M,47.546,M,,*74
$GPRMC,172739,A,4933.1587,N,01043.1850,E,26.4494,56.289,300707,,*22
$GPGSA,A,3,05,30,06,14,12,07,,,,,,,9.8,4.6,8.6*3E
$GPGSV,3,1,12,05,77,073,28,30,79,309,29,06,43,218,25,14,31,254,19*7E
$GPGSV,3,2,12,01,28,301,00,12,57,081,14,09,20,149,06,04,19,044,00*72
$GPGSV,3,3,12,02,35,082,11,07,36,222,26,31,22,310,00,35,07,250,00*76
$GPGGA,172740,4933.1626,N,01043.1944,E,1,05,4.60,324.2,M,47.546,M,,*71
$GPRMC,172740,A,4933.1626,N,01043.1944,E,26.4494,56.289,300707,,*20
$GPGSA,A,2,05,30,06,14,07,,,,,,,,11.0,10.3,3.9*39
$GPGSV,3,1,12,05,77,073,30,30,79,309,29,06,43,218,17,14,31,254,20*7C
$GPGSV,3,2,12,01,28,301,00,12,57,081,23,09,20,149,06,04,19,044,00*76
$GPGSV,3,3,12,02,35,082,16,07,36,222,17,31,22,310,00,35,07,250,00*73
$GPGGA,172741,4933.1660,N,01043.2044,E,1,01,10.30,324.2,M,47.545,M,,*4F
$GPRMC,172741,A,4933.1660,N,01043.2044,E,25.9115,75.382,300707,,*20
$GPGSA,A,3,35,,,,,,,,,,,,3.0,1.7,2.4*37
$GPGSV,3,1,12,05,77,073,30,30,79,309,31,06,43,218,26,14,31,254,21*76
$GPGSV,3,2,12,01,28,301,00,12,57,081,22,09,20,149,13,04,19,044,00*73
$GPGSV,3,3,12,02,35,082,16,07,36,222,20,31,22,310,00,35,07,250,00*77
$GPGGA,172742,4933.1669,N,01043.2155,E,1,08,1.70,325.3,M,47.545,M,,*79
$GPRMC,172742,A,4933.1669,N,01043.2155,E,25.6617,90.523,300707,,*27
$GPGSA,A,3,05,30,06,14,12,09,02,07,,,,,3.0,1.7,2.4*3B
$GPGSV,3,1,12,05,77,073,32,30,79,309,30,06,43,218,28,14,31,254,21*7B
$GPGSV,3,2,12,01,28,301,00,12,57,081,19,09,20,149,09,04,19,044,00*70
$GPGSV,3,3,12,02,35,082,19,07,36,222,25,31,22,310,00,35,07,250,00*7D
$GPGGA,172743,4933.1672,N,01043.2257,E,1,08,1.70,324.9,M,47.545,M,,*78
$GPRMC,172743,A,4933.1672,N,01043.2257,E,26.1988,94.999,300707,,*29
