$GPGSV,3,1,11,09,75,122,27,12,69,260,21,05,48,258,15,14,27,314,00*7B
$GPGSV,3,2,11,17,20,044,17,04,13,095,16,22,09,275,00,26,06,169,00*72
$GPGSV,3,3,11,02,05,127,00,30,29,254,17,33,07,250,00*47
$GPGGA,153007,4934.4327,N,01054.9368,E,1,06,1.70,325.4,M,47.423,M,,*78
$GPRMC,153007,A,4934.4327,N,01054.9368,E,0.0000,0.000,300707,,*22
$GPGSA,A,3,09,12,05,17,04,30,,,,,,,2.4,1.7,1.7*3A
$GPGSV,3,1,11,09,75,122,28,12,69,260,22,05,48,258,16,14,27,314,00*74
$GPGSV,3,2,11,17,20,044,17,04,13,095,15,22,09,275,00,26,06,169,00*71
$GPGSV,3,3,11,02,05,127,00,30,29,254,17,33,07,250,00*47
$GPGGA,153008,4934.4332,N,01054.9361,E,1,06,1.70,332.5,M,47.423,M,,*7D
$GPRMC,153008,A,4934.4332,N,01054.9361,E,0.0000,0.000,300707,,*20
$GPGSA,A,3,09,12,05,17,04,30,,,,,,,2.4,1.7,1.7*3A
$GPGSV,3,1,11,09,75,122,27,12,69,260,21,05,48,258,17,14,27,314,00*79
$GPGSV,3,2,11,17,20,044,17,04,13,095,14,22,09,275,00,26,06,169,00*70
$GPGSV,3,3,11,02,05,127,00,30,29,254,16,33,07,250,00*46
$GPGGA,153009,4934.4330,N,01054.9365,E,1,06,1.70,336.9,M,47.423,M,,*72
$GPRMC,153009,A,4934.4330,N,01054.9365,E,0.0000,0.000,300707,,*27
$GPGSA,A,3,09,12,05,17,04,30,,,,,,,2.4,1.7,1.7*3A
$GPGSV,3,1,11,09,75,122,27,12,69,260,21,05,48,258,16,14,27,314,00*78
$GPGSV,3,2,11,17,20,044,16,04,13,095,15,22,09,275,00,26,06,169,00*70
$GPGSV,3,3,11,02,05,127,00,30,29,254,16,33,07,250,00*46
$GPGGA,153010,4934.4326,N,01054.9354,E,1,06,1.70,338.8,M,47.423,M,,*70
$GPRMC,153010,A,4934.4326,N,01054.9354,E,0.0000,0.000,300707,,*2A
$GPGSA,A,3,09,12,05,17,04,30,,,,,,,2.4,1.7,1.7*3A
$GPGSV,3,1,11,09,75,122,28,12,69,260,21,05,48,258,15,14,27,314,00*74
$GPGSV,3,2,11,17,20,044,16,04,13,095,15,22,09,275,00,26,05,169,00*73
$GPGSV,3,3,11,02,05,127,00,30,29,254,15,33,07,250,00*45
$GPGGA,153011,4934.4327,N,01054.9345,E,1,06,1.70,338.6,M,47.423,M,,*7E
$GPRMC,153011,A,4934.4327,N,01054.9345,E,0.0000,0.000,300707,,*2A
$GPGSA,A,3,09,12,05,17,04,30,,,,,,,2.4,1.7,1.7*3A
$GPGSV,3,1,11,09,75,122,27,12,69,260,21,05,48,258,15,14,27,314,00*7B
$GPGSV,3,2,11,17,20,044,16,04,13,095,15,22,09,275,00,26,05,169,00*73
$GPGSV,3,3,11,02,05,127,00,30,29,254,17,47,07,250,00*44
$GPGGA,153012,4934.4327,N,01054.9345,E,1,06,1.70,338.6,M,47.423,M,,*7D
$GPRMC,153012,A,4934.4327,N,01054.9345,E,0.0000,0.000,300707,,*29
$GPGSA,A,3,09,12,05,17,04,30,,,,,,,2.4,1.7,1.7*3A
$GPGSV,3,1,11,09,75,122,27,12,69,260,22,05,48,258,15,14,27,314,00*78
$GPGSV,3,2,11,17,20,044,18,04,13,095,15,22,09,275,00,26,05,169,00*7D
$GPGSV,3,3,11,02,05,127,00,30,29,254,17,47,07,250,00*44
$GPGGA,153013,4934.4327,N,01054.9345,E,1,06,1.70,338.6,M,47.423,M,,*7C
$GPRMC,153013,A,4934.4327,N,01054.9345,E,0.0000,0.000,300707,,*28
$GPGSA,A,3,09,12,05,17,04,30,,,,,,,2.4,1.7,1.7*3A
$GPGSV,3,1,11,09,75,122,28,12,69,260,22,05,48,258,15,14,27,314,00*77
$GPGSV,3,2,11,17,20,044,18,04,13,095,16,22,09,275,00,26,05,169,00*7E
$GPGSV,3,3,11,02,05,127,00,30,29,254,17,47,07,250,00*44
$GPGGA,153014,4934.4327,N,01054.9345,E,1,06,1.70,338.6,M,47.423,M,,*7B
$GPRMC,153014,A,4934.4327,N,01054.9345,E,0.0000,0.000,300707,,*2F
$GPGSA,A,3,09,12,05,17,04,30,,,,,,,2.4,1.7,1.7*3A
$GPGSV,3,1,11,09,75,122,28,12,69,260,21,05,48,258,14,14,27,314,00*75
$GPGSV,3,2,11,17,20,044,19,04,13,095,17,22,09,275,00,26,05,169,00*7E
$GPGSV,3,3,11,02,05,127,00,30,30,254,17,47,07,250,00*4C
$GPGGA,153015,4934.4327,N,01054.9345,E,1,06,1.70,338.6,M,47.423,M,,*7A
$GPRMC,153015,A,4934.4327,N,01054.9345,E,0.0000,0.000,300707,,*2E
$GPGSA,A,3,09,12,05,17,04,30,,,,,,,2.4,1.7,1.7*3A
$GPGSV,3,1,11,09,75,122,28,12,69,260,21,05,48,258,13,14,27,314,00*72
$GPGSV,3,2,11,17,20,044,19,04,13,095,16,22,09,275,00,26,05,169,00*7F
$GPGSV,3,3,11,02,05,127,00,30,30,254,15,47,07,250,00*4E
$GPGGA,153016,4934.4327,N,01054.9345,E,1,06,1.70,338.6,M,47.423,M,,*79
$GPRMC,153016,A,4934.4327,N,01054.9345,E,0.0000,0.000,300707,,*2D
$GPGSA,A,3,09,12,05,17,04,30,,,,,,,2.4,1.7,1.7*3A
$GPGSV,3,1,11,09,75,122,28,12,69,260,21,05,48,258,12,14,27,314,00*73
$GPGSV,3,2,11,17,20,044,19,04,13,095,16,22,09,275,00,26,05,169,00*7F
$GPGSV,3,3,11,02,05,127,00,30,30,254,15,47,07,250,00*4E
$GPGGA,153017,4934.4327,N,01054.9345,E,1,06,1.70,338.6,M,47.423,M,,*78
$GPRMC,153017,A,4934.4327,N,01054.9345,E,0.1929,98.352,300707,,*1A
$GPGSA,A,3,09,12,05,17,04,30,,,,,,,2.4,1.7,1.7*3A
$GPGSV,3,1,11,09,75,122,27,12,69,260,21,05,48,258,11,14,27,314,00*7F
$GPGSV,3,2,11,17,20,044,20,04,13,095,17,22,09,275,00,26,05,169,00*74
$GPGSV,3,3,11,02,05,127,00,30,30,254,16,47,07,250,00*4D
$GPGGA,153018,4934.4327,N,01054.9345,E,1,06,1.70,338.6,M,47.423,M,,*77
$GPRMC,153018,A,4934.4327,N,01054.9345,E,0.3858,98.352,300707,,*10
$GPGSA,A,3,09,12,05,17,04,30,,,,,,,3.1,2.0,2.4*3A
$GPGSV,3,1,11,09,75,122,27,12,69,260,22,05,48,258,11,14,27,314,00*7C
$GPGSV,3,2,11,17,20,044,18,04,13,095,18,22,09,275,00,26,05,169,00*70
$GPGSV,3,3,11,02,05,127,00,30,30,254,11,47,07,250,00*4A
$GPGGA,153019,4934.4327,N,01054.9345,E,1,05,2.00,338.6,M,47.423,M,,*71
$GPRMC,153019,A,4934.4327,N,01054.9345,E,1.0056,114.153,300707,,*23
$GPGSA,A,3,09,12,05,17,04,,,,,,,,2.4,1.7,1.7*39
$GPGSV,3,1,11,09,75,122,30,12,69,260,24,05,48,258,12,14,27,314,00*7F
$GPGSV,3,2,11,17,20,044,21,04,13,094,17,22,09,275,00,26,05,169,00*74
$GPGSV,3,3,11,02,05,127,00,30,30,254,14,47,07,250,00*4F
$GPGGA,153020,4934.4322,N,01054.9354,E,1,06,1.70,338.0,M,47.423,M,,*7F
$GPRMC,153020,A,4934.4322,N,01054.9354,E,0.6430,123.558,300707,,*24
$GPGSA,A,3,09,12,05,17,04,30,,,,,,,2.4,1.7,1.7*3A
$GPGSV,3,1,11,09,75,122,32,12,69,260,25,05,48,258,15,14,27,314,00*7B
$GPGSV,3,2,11,17,20,044,23,04,13,094,17,22,09,275,00,26,05,169,00*76
$GPGSV,3,3,11,02,05,127,00,30,30,254,16,47,07,250,00*4D
$GPGGA,153021,4934.4315,N,01054.9352,E,1,06,1.70,337.9,M,47.423,M,,*7A
$GPRMC,153021,A,4934.4315,N,01054.9352,E,0.8011,141.476,300707,,*27
$GPGSA,A,3,09,12,05,17,04,30,,,,,,,2.4,1.7,1.7*3A
$GPGSV,3,1,11,09,75,122,33,12,69,260,24,05,48,258,18,14,27,314,00*76
$GPGSV,3,2,11,17,20,044,20,04,13,094,15,22,09,275,00,26,05,169,00*77
$GPGSV,3,3,11,02,05,127,00,30,30,254,17,47,07,250,00*4C
$GPGGA,153022,4934.4307,N,01054.9360,E,1,06,1.70,336.5,M,47.423,M,,*76
$GPRMC,153022,A,4934.4307,N,01054.9360,E,1.9336,143.430,300707,,*20
$GPGSA,A,3,09,12,05,17,04,30,,,,,,,2.4,1.7,1.7*3A
$GPGSV,3,1,11,09,75,122,33,12,69,260,21,05,48,258,15,14,27,314,00*7E
$GPGSV,3,2,11,17,20,044,17,04,13,094,12,22,09,275,00,26,05,169,00*74
$GPGSV,3,3,11,02,05,127,00,30,30,254,14,47,07,250,00*4F
$GPGGA,153023,4934.4307,N,01054.9360,E,1,06,1.70,336.5,M,47.423,M,,*77
$GPRMC,153023,A,4934.4307,N,01054.9360,E,2.1503,101.603,300707,,*2E
$GPGSA,A,3,09,12,05,17,04,30,,,,,,,9.7,6.8,6.9*33
$GPGSV,3,1,11,09,75,123,31,12,69,260,20,05,48,258,15,14,27,314,00*7C
$GPGSV,3,2,11,17,20,044,17,04,13,094,09,22,09,275,00,26,05,169,00*7E
$GPGSV,3,3,11,02,05,127,00,30,30,254,09,47,07,250,00*43
$GPGGA,153024,4934.4305,N,01054.9377,E,1,04,6.80,336.7,M,47.423,M,,*7C
$GPRMC,153024,A,4934.4305,N,01054.9377,E,2.4598,113.625,300707,,*2D
$GPGSA,A,3,09,12,05,17,,,,,,,,,5.4,4.3,3.2*3C
$GPGSV,3,1,11,09,75,123,30,12,69,260,18,05,48,258,17,14,27,314,00*74
$GPGSV,3,2,11,17,20,044,19,04,13,094,06,22,09,275,00,26,05,169,00*7F
$GPGSV,3,3,11,02,05,127,00,30,30,254,12,47,07,250,00*49
$GPGGA,153025,4934.4305,N,01054.9377,E,1,05,4.30,336.7,M,47.423,M,,*75
$GPRMC,153025,A,4934.4305,N,01054.9377,E,0.0000,0.000,300707,,*2C
$GPGSA,A,3,09,12,05,17,30,,,,,,,,5.4,4.3,3.2*3F
$GPGSV,3,1,11,09,75,123,31,12,69,260,19,05,48,258,20,14,27,314,00*70
$GPGSV,3,2,11,17,20,044,17,04,13,094,04,22,09,275,00,26,05,169,00*73
$GPGSV,3,3,11,02,05,127,00,30,30,254,12,47,07,250,00*49
$GPGGA,153026,4934.4305,N,01054.9377,E,1,05,4.30,336.7,M,47.423,M,,*76
$GPRMC,153026,A,4934.4305,N,01054.9377,E,0.0000,0.000,300707,,*2F
$GPGSA,A,3,09,12,05,17,30,,,,,,,,5.4,4.3,3.2*3F
$GPGSV,3,1,11,09,75,123,32,12,69,260,17,05,48,258,21,14,27,314,00*7C
$GPGSV,3,2,11,17,20,044,18,04,13,094,00,22,09,275,00,26,05,169,00*78
$GPGSV,3,3,11,02,05,127,00,30,30,254,13,47,07,250,00*48
$GPGGA,153027,4934.4306,N,01054.9368,E,1,05,4.30,336.6,M,47.423,M,,*7B
$GPRMC,153027,A,4934.4306,N,01054.9368,E,3.3936,268.230,300707,,*22
$GPGSA,A,3,09,12,05,17,30,,,,,,,,9.7,6.8,6.9*37
$GPGSV,3,1,11,09,75,123,30,12,69,260,18,05,48,258,18,14,27,314,00*7B
$GPGSV,3,2,11,17,20,044,17,04,13,094,00,22,09,275,00,26,05,169,00*77
$GPGSV,3,3,11,02,05,127,00,30,30,254,09,47,07,250,00*43
$GPGGA,153028,4934.4305,N,01054.9342,E,1,04,6.80,336.9,M,47.423,M,,*78
$GPRMC,153028,A,4934.4305,N,01054.9342,E,5.8075,259.618,300707,,*29
$GPGSA,A,3,09,12,05,17,,,,,,,,,9.7,6.8,6.9*34
$GPGSV,3,1,11,09,75,123,25,12,69,260,21,05,48,258,17,14,27,314,00*7A
$GPGSV,3,2,11,17,20,044,17,04,13,094,00,22,09,275,00,26,05,169,00*77
$GPGSV,3,3,11,02,05,127,00,30,30,254,06,47,07,250,00*4C
$GPGGA,153029,4934.4306,N,01054.9326,E,1,04,6.80,336.6,M,47.423,M,,*77
$GPRMC,153029,A,4934.4306,N,01054.9326,E,4.1596,258.422,300707,,*23
$GPGSA,A,3,09,12,05,17,,,,,,,,,9.7,6.8,6.9*34
$GPGSV,3,1,11,09,75,123,23,12,69,260,21,05,48,258,18,14,27,314,00*73
$GPGSV,3,2,11,17,20,044,17,04,13,094,00,22,09,275,00,26,05,169,00*77
$GPGSV,3,3,11,02,05,127,00,30,30,254,05,47,07,250,00*4F
$GPGGA,153030,4934.4315,N,01054.9302,E,1,04,6.80,337.8,M,47.423,M,,*74
$GPRMC,153030,A,4934.4315,N,01054.9302,E,2.1652,251.720,300707,,*2A
$GPGSA,A,3,09,12,05,17,,,,,,,,,9.7,6.8,6.9*34
$GPGSV,3,1,11,09,75,123,21,12,69,260,21,05,48,258,18,14,27,314,00*71
$GPGSV,3,2,11,17,20,044,17,04,13,094,00,22,09,275,00,26,05,169,00*77
$GPGSV,3,3,11,02,05,127,00,30,30,254,04,47,07,250,00*4E
$GPGGA,153031,4934.4324,N,01054.9287,E,1,05,6.80,337.7,M,47.423,M,,*75
$GPRMC,153031,A,4934.4324,N,01054.9287,E,1.3738,272.121,300707,,*2F
$GPGSA,A,3,09,12,05,17,47,,,,,,,,9.7,6.7,6.9*38
$GPGSV,3,1,11,09,75,123,21,12,69,260,23,05,48,258,17,14,27,314,00*7C
$GPGSV,3,2,11,17,20,043,17,04,13,094,00,22,09,275,00,26,05,169,00*70
$GPGSV,3,3,11,02,05,127,00,30,30,254,00,47,07,250,00*4A
$GPGGA,153032,4934.4328,N,01054.9287,E,1,04,6.70,338.4,M,47.423,M,,*78
$GPRMC,153032,A,4934.4328,N,01054.9287,E,0.8998,242.795,300707,,*24
$GPGSA,A,3,09,12,05,17,,,,,,,,,9.7,6.7,6.9*3B
$GPGSV,3,1,11,09,75,123,21,12,69,260,23,05,48,258,15,14,27,314,00*7E
$GPGSV,3,2,11,17,20,043,16,04,13,094,00,22,09,275,00,26,05,169,00*71
$GPGSV,3,3,11,02,05,127,00,30,30,254,00,47,07,250,00*4A
$GPGGA,153033,4934.4313,N,01054.9285,E,1,05,6.70,336.8,M,47.423,M,,*70
$GPRMC,153033,A,4934.4313,N,01054.9285,E,0.6852,242.789,300707,,*2B
$GPGSA,A,3,09,12,05,17,47,,,,,,,,9.7,6.7,6.9*38
$GPGSV,3,1,11,09,75,123,20,12,69,260,22,05,48,258,15,14,27,314,00*7E
$GPGSV,3,2,11,17,20,043,17,04,13,094,00,22,09,275,00,26,05,169,00*70
$GPGSV,3,3,11,02,05,127,00,30,30,254,00,47,07,250,00*4A
$GPGGA,153034,4934.4330,N,01054.9272,E,1,04,6.70,336.8,M,47.423,M,,*7F
$GPRMC,153034,A,4934.4330,N,01054.9272,E,3.9319,261.064,300707,,*28
$GPGSA,A,3,09,12,05,17,,,,,,,,,9.7,6.7,6.9*3B
$GPGSV,3,1,11,09,75,123,23,12,69,260,22,05,48,258,19,14,27,314,00*71
$GPGSV,3,2,11,17,20,043,16,04,13,094,00,22,09,275,00,26,05,169,00*71
$GPGSV,3,3,11,02,05,127,00,30,30,254,00,47,07,250,00*4A
$GPGGA,153035,4934.4328,N,01054.9246,E,1,05,6.70,337.0,M,47.423,M,,*78
$GPRMC,153035,A,4934.4328,N,01054.9246,E,6.9745,257.684,300707,,*22
$GPGSA,A,3,09,12,05,17,47,,,,,,,,9.7,6.7,6.9*38
$GPGSV,3,1,11,09,75,123,24,12,69,260,21,05,48,258,20,14,27,314,00*7F
$GPGSV,3,2,11,17,20,043,15,04,13,094,00,22,09,275,00,26,05,169,00*72
$GPGSV,3,3,11,02,05,127,00,30,30,254,00,47,07,250,00*4A
$GPGGA,153036,4934.4331,N,01054.9212,E,1,04,6.70,338.0,M,47.423,M,,*7C
$GPRMC,153036,A,4934.4331,N,01054.9212,E,6.7544,246.576,300707,,*2B
$GPGSA,A,3,09,12,05,17,,,,,,,,,9.6,6.7,6.9*3A
$GPGSV,3,1,11,09,75,123,26,12,69,260,22,05,48,258,20,14,27,314,00*7E
$GPGSV,3,2,11,17,20,043,15,04,13,094,00,22,09,274,00,26,05,169,00*73
$GPGSV,3,3,11,02,05,127,00,30,30,254,00,47,07,250,00*4A
$GPGGA,153037,4934.4321,N,01054.9193,E,1,04,6.70,338.2,M,47.424,M,,*73
$GPRMC,153037,A,4934.4321,N,01054.9193,E,4.2311,225.802,300707,,*2B
$GPGSA,A,3,09,12,05,17,,,,,,,,,5.3,4.3,3.2*3B
$GPGSV,3,1,11,09,75,123,26,12,69,260,25,05,48,258,23,14,27,314,00*7A
$GPGSV,3,2,11,17,20,043,13,04,13,094,00,22,09,274,00,26,05,169,00*75
$GPGSV,3,3,11,02,05,127,00,30,30,254,14,47,07,250,00*4F
$GPGGA,153038,4934.4318,N,01054.9183,E,1,05,4.30,338.7,M,47.424,M,,*75
$GPRMC,153038,A,4934.4318,N,01054.9183,E,1.7701,207.973,300707,,*2D
$GPGSA,A,3,09,12,05,17,30,,,,,,,,5.3,4.3,3.2*38
$GPGSV,3,1,11,09,75,123,26,12,69,260,29,05,48,258,22,14,27,314,00*77
$GPGSV,3,2,11,17,20,043,15,04,13,094,00,22,09,274,00,26,05,169,00*73
$GPGSV,3,3,11,02,05,127,00,30,30,254,22,47,07,250,00*4A
$GPGGA,153039,4934.4314,N,01054.9181,E,1,05,4.30,339.4,M,47.424,M,,*78
$GPRMC,153039,A,4934.4314,N,01054.9181,E,1.4510,204.538,300707,,*23
$GPGSA,A,3,09,12,05,17,30,,,,,,,,5.7,4.6,3.3*38
$GPGSV,3,1,11,09,75,123,28,12,69,260,31,05,48,258,17,14,27,314,00*76
$GPGSV,3,2,11,17,20,043,19,04,13,094,00,22,09,274,00,26,05,169,00*7F
$GPGSV,3,3,11,02,05,127,00,30,30,254,31,47,07,250,00*48
$GPGGA,153040,4934.4307,N,01054.9172,E,1,04,4.60,339.1,M,47.424,M,,*79
$GPRMC,153040,A,4934.4307,N,01054.9172,E,3.2814,202.240,300707,,*20
$GPGSA,A,3,09,12,17,30,,,,,,,,,5.3,4.2,3.2*3C
$GPGSV,3,1,11,09,75,123,27,12,69,260,31,05,48,258,23,14,27,314,00*7E
$GPGSV,3,2,11,17,20,043,18,04,13,094,00,22,09,274,00,26,05,169,00*7E
$GPGSV,3,3,11,02,05,127,00,30,30,254,33,47,07,250,00*4A
$GPGGA,153041,4934.4296,N,01054.9170,E,1,06,4.20,338.2,M,47.424,M,,*77
$GPRMC,153041,A,4934.4296,N,01054.9170,E,5.9618,192.252,300707,,*2C
$GPGSA,A,3,09,12,05,17,30,47,,,,,,,5.3,4.2,3.2*3A
$GPGSV,3,1,11,09,75,123,25,12,69,260,30,05,48,258,20,14,27,314,00*7E
$GPGSV,3,2,11,17,20,043,17,04,13,094,00,22,09,274,00,26,05,169,00*71
$GPGSV,3,3,11,02,05,127,00,30,30,254,28,47,07,250,00*40
$GPGGA,153042,4934.4277,N,01054.9165,E,1,05,4.20,338.6,M,47.424,M,,*78
$GPRMC,153042,A,4934.4277,N,01054.9165,E,7.6154,188.617,300707,,*28
$GPGSA,A,3,09,12,05,17,30,,,,,,,,5.3,4.2,3.2*39
$GPGSV,3,1,11,09,75,123,23,12,69,260,31,05,48,258,22,14,27,314,00*7B
$GPGSV,3,2,11,17,20,043,15,04,13,094,00,22,09,274,00,26,05,169,00*73
$GPGSV,3,3,11,02,05,127,00,30,30,254,25,47,07,250,00*4D
$GPGGA,153043,4934.4266,N,01054.9154,E,1,06,4.20,339.0,M,47.424,M,,*7F
$GPRMC,153043,A,4934.4266,N,01054.9154,E,9.0018,184.795,300707,,*2D
$GPGSA,A,3,09,12,05,17,30,47,,,,,,,5.3,4.2,3.2*3A
$GPGSV,3,1,11,09,75,123,22,12,69,260,31,05,48,258,25,14,27,314,00*7D
$GPGSV,3,2,11,17,20,043,14,04,13,094,00,22,09,274,00,26,05,169,00*72
$GPGSV,3,3,11,02,05,127,00,30,30,254,28,47,07,250,00*40
$GPGGA,153044,4934.4246,N,01054.9157,E,1,05,4.20,339.5,M,47.424,M,,*7F
$GPRMC,153044,A,4934.4246,N,01054.9157,E,8.3666,180.476,300707,,*2C
$GPGSA,A,3,09,12,05,17,30,,,,,,,,5.3,4.2,3.2*39
$GPGSV,3,1,11,09,75,123,20,12,69,260,31,05,48,258,26,14,27,314,00*7C
$GPGSV,3,2,11,17,20,043,15,04,13,094,00,22,09,274,00,26,05,169,00*73
$GPGSV,3,3,11,02,05,127,00,30,30,254,28,47,07,250,00*40
$GPGGA,153045,4934.4227,N,01054.9153,E,1,05,4.20,339.9,M,47.424,M,,*71
$GPRMC,153045,A,4934.4227,N,01054.9153,E,8.2506,178.901,300707,,*20
$GPGSA,A,3,09,12,05,17,30,,,,,,,,5.3,4.2,3.2*39
$GPGSV,3,1,11,09,75,123,22,12,69,260,31,05,48,258,27,14,27,314,18*76
$GPGSV,3,2,11,17,20,043,15,04,13,094,00,22,09,274,00,26,05,169,00*73
$GPGSV,3,3,11,02,05,127,00,30,30,254,27,47,07,250,00*4F
$GPGGA,153046,4934.4192,N,01054.9163,E,1,06,4.20,338.9,M,47.424,M,,*7E
$GPRMC,153046,A,4934.4192,N,01054.9163,E,8.9441,174.559,300707,,*29
$GPGSA,A,3,09,12,05,17,30,47,,,,,,,5.3,4.2,3.2*3A
$GPGSV,3,1,11,09,75,123,23,12,69,260,27,05,48,258,28,14,27,314,16*71
$GPGSV,3,2,11,17,20,043,15,04,13,094,00,22,09,274,00,26,05,169,00*73
$GPGSV,3,3,11,02,05,127,00,30,30,254,26,47,07,250,00*4E
$GPGGA,153047,4934.4164,N,01054.9173,E,1,05,4.20,339.4,M,47.424,M,,*78
$GPRMC,153047,A,4934.4164,N,01054.9173,E,11.6320,159.169,300707,,*1F
$GPGSA,A,3,09,12,05,17,30,,,,,,,,9.1,9.1,0.9*31
$GPGSV,3,1,11,09,75,123,26,12,69,260,31,05,48,258,29,14,27,314,15*71
$GPGSV,3,2,11,17,20,043,13,04,13,094,00,22,09,274,00,26,05,169,00*75
$GPGSV,3,3,11,02,05,127,00,30,30,254,25,47,07,250,00*4D
$GPGGA,153048,4934.4139,N,01054.9202,E,1,04,9.10,338.1,M,47.423,M,,*76
$GPRMC,153048,A,4934.4139,N,01054.9202,E,11.1570,127.620,300707,,*1A
$GPGSA,A,3,09,12,05,30,,,,,,,,,5.3,4.2,3.2*3F
$GPGSV,3,1,11,09,75,123,30,12,69,260,32,05,48,258,32,14,27,314,15*7F
$GPGSV,3,2,11,17,20,043,12,04,13,094,00,22,09,274,00,26,05,169,00*74
$GPGSV,3,3,11,02,05,127,00,30,30,254,23,47,07,250,00*4B
$GPGGA,153049,4934.4120,N,01054.9240,E,1,05,4.20,338.5,M,47.423,M,,*72
$GPRMC,153049,A,4934.4120,N,01054.9240,E,12.6946,118.072,300707,,*15
$GPGSA,A,3,09,12,05,17,30,,,,,,,,9.1,9.1,0.9*31
$GPGSV,3,1,11,09,75,123,29,12,69,260,29,05,48,258,33,14,27,314,15*7C
$GPGSV,3,2,11,17,20,043,08,04,13,094,00,22,09,274,00,26,05,169,00*7F
$GPGSV,3,3,11,02,05,127,00,30,30,254,23,47,07,250,00*4B
$GPGGA,153050,4934.4100,N,01054.9287,E,1,04,9.10,337.6,M,47.423,M,,*70
$GPRMC,153050,A,4934.4100,N,01054.9287,E,13.4236,116.960,300707,,*1F
$GPGSA,A,3,09,12,05,30,,,,,,,,,9.1,9.1,0.9*37
$GPGSV,3,1,11,09,75,123,30,12,69,260,28,05,48,258,33,14,27,314,14*74
$GPGSV,3,2,11,17,20,043,05,04,13,094,00,22,09,274,00,26,05,169,00*72
$GPGSV,3,3,11,02,05,127,00,30,30,254,25,47,07,250,00*4D
$GPGGA,153051,4934.4084,N,01054.9343,E,1,05,9.10,337.6,M,47.423,M,,*74
$GPRMC,153051,A,4934.4084,N,01054.9343,E,13.9429,115.601,300707,,*14
$GPGSA,A,3,09,12,05,30,47,,,,,,,,9.1,9.0,0.9*35
$GPGSV,3,1,11,09,75,123,30,12,69,260,28,05,48,258,33,14,27,314,15*75
$GPGSV,3,2,11,17,20,043,06,04,13,094,00,22,09,274,00,26,05,169,00*71
$GPGSV,3,3,11,02,05,127,00,30,30,254,24,47,07,250,00*4C
$GPGGA,153052,4934.4052,N,01054.9395,E,1,04,9.00,337.3,M,47.423,M,,*72
$GPRMC,153052,A,4934.4052,N,01054.9395,E,14.2549,119.337,300707,,*10
$GPGSA,A,3,09,12,05,30,,,,,,,,,9.1,9.0,0.9*36
$GPGSV,3,1,11,09,75,123,30,12,69,260,28,05,48,258,34,14,27,314,15*72
$GPGSV,3,2,11,17,20,043,06,04,13,094,00,22,09,274,00,26,05,169,00*71
$GPGSV,3,3,11,02,05,127,00,30,30,254,24,47,07,250,00*4C
$GPGGA,153053,4934.4017,N,01054.9446,E,1,05,9.00,337.6,M,47.423,M,,*7F
$GPRMC,153053,A,4934.4017,N,01054.9446,E,13.2538,119.729,300707,,*13
$GPGSA,A,3,09,12,05,30,47,,,,,,,,9.1,9.0,0.9*35
$GPGSV,3,1,11,09,75,123,30,12,69,260,27,05,48,258,34,14,27,314,14*7C
$GPGSV,3,2,11,17,20,043,07,04,13,094,00,22,09,274,00,26,05,169,00*70
$GPGSV,3,3,11,02,05,127,00,30,30,254,22,47,07,250,00*4A
$GPGGA,153054,4934.4005,N,01054.9494,E,1,05,9.00,336.9,M,47.423,M,,*7A
$GPRMC,153054,A,4934.4005,N,01054.9494,E,11.7187,115.411,300707,,*1B
$GPGSA,A,3,09,12,05,30,47,,,,,,,,5.3,4.2,3.2*3C
$GPGSV,3,1,11,09,75,123,28,12,69,260,27,05,48,258,33,14,27,314,16*70
$GPGSV,3,2,11,17,20,043,07,04,13,094,00,22,09,274,00,26,05,169,00*70
$GPGSV,3,3,11,02,05,127,00,30,30,254,22,35,07,250,00*4F
$GPGGA,153055,4934.3990,N,01054.9534,E,1,05,4.20,336.6,M,47.423,M,,*72
$GPRMC,153055,A,4934.3990,N,01054.9534,E,9.0569,111.872,300707,,*24
$GPGSA,A,3,09,12,05,17,30,,,,,,,,9.1,9.0,0.9*30
$GPGSV,3,1,11,09,75,123,27,12,69,260,29,05,48,258,34,14,27,314,15*75
$GPGSV,3,2,11,17,20,043,05,04,13,094,00,22,09,274,00,26,05,169,00*72
$GPGSV,3,3,11,02,05,127,00,30,30,254,22,35,07,250,00*4F
$GPGGA,153056,4934.3988,N,01054.9568,E,1,05,9.00,335.7,M,47.423,M,,*7C
$GPRMC,153056,A,4934.3988,N,01054.9568,E,5.9275,100.056,300707,,*26
$GPGSA,A,3,09,12,05,30,35,,,,,,,,5.3,4.2,3.2*39
$GPGSV,3,1,11,09,75,123,27,12,69,260,28,05,48,258,34,14,27,314,15*74
$GPGSV,3,2,11,17,20,043,10,04,13,094,00,22,09,274,00,26,05,169,00*76
$GPGSV,3,3,11,02,05,127,00,30,30,254,18,35,07,250,00*46
$GPGGA,153057,4934.3986,N,01054.9584,E,1,06,4.20,335.9,M,47.423,M,,*73
$GPRMC,153057,A,4934.3986,N,01054.9584,E,2.7220,100.978,300707,,*27
$GPGSA,A,3,09,12,05,17,30,35,,,,,,,5.3,4.2,3.2*3F
$GPGSV,3,1,11,09,75,123,28,12,69,260,29,05,48,258,35,14,27,314,14*7A
$GPGSV,3,2,11,17,20,043,10,04,13,094,00,22,09,274,00,26,05,169,00*76
$GPGSV,3,3,11,02,05,127,00,30,30,254,18,35,07,250,00*46
$GPGGA,153058,4934.3985,N,01054.9592,E,1,06,4.20,336.1,M,47.423,M,,*73
$GPRMC,153058,A,4934.3985,N,01054.9592,E,0.7997,107.324,300707,,*2D
$GPGSA,A,3,09,12,05,17,30,35,,,,,,,9.1,9.0,0.9*36
$GPGSV,3,1,11,09,75,123,28,12,69,260,27,05,48,258,36,14,27,314,14*77
$GPGSV,3,2,11,17,20,043,08,04,13,094,00,22,09,274,00,26,05,169,00*7F
$GPGSV,3,3,11,02,05,127,00,30,30,254,19,35,07,250,00*47
$GPGGA,153059,4934.3994,N,01054.9586,E,1,04,9.00,336.1,M,47.423,M,,*7A
$GPRMC,153059,A,4934.3994,N,01054.9586,E,0.3858,98.352,300707,,*19
$GPGSA,A,3,09,12,05,30,,,,,,,,,5.3,4.2,3.2*3F
$GPGSV,3,1,11,09,75,123,29,12,69,260,27,05,48,258,36,14,27,314,14*76
$GPGSV,3,2,11,17,20,043,09,04,13,094,00,22,09,274,00,26,05,169,00*7E
$GPGSV,3,3,11,02,05,127,00,30,30,254,20,35,07,250,00*4D
$GPGGA,153100,4934.4000,N,01054.9595,E,1,05,4.20,336.3,M,47.423,M,,*7A
$GPRMC,153100,A,4934.4000,N,01054.9595,E,2.1730,104.943,300707,,*2A
$GPGSA,A,3,09,12,05,17,30,,,,,,,,9.1,9.0,0.9*30
$GPGSV,3,1,11,09,75,123,30,12,69,260,27,05,48,258,37,14,27,314,14*7F
$GPGSV,3,2,11,17,20,043,10,04,13,094,00,22,09,274,00,26,05,169,00*76
$GPGSV,3,3,11,02,05,127,00,30,30,254,21,35,07,250,00*4C
$GPGGA,153101,4934.3995,N,01054.9612,E,1,04,9.00,335.8,M,47.423,M,,*73
$GPRMC,153101,A,4934.3995,N,01054.9612,E,5.1149,105.630,300707,,*20
$GPGSA,A,3,09,12,05,30,,,,,,,,,5.3,4.2,3.2*3F
$GPGSV,3,1,11,09,75,123,30,12,69,260,29,05,48,258,39,14,27,314,14*7F
$GPGSV,3,2,11,17,20,043,10,04,13,094,00,22,09,274,00,26,05,169,00*76
$GPGSV,3,3,11,02,05,127,00,30,30,254,22,35,07,250,00*4F
$GPGGA,153102,4934.3990,N,01054.9636,E,1,05,4.20,335.4,M,47.423,M,,*71
$GPRMC,153102,A,4934.3990,N,01054.9636,E,8.9968,115.745,300707,,*2C
$GPGSA,A,3,09,12,05,17,30,,,,,,,,5.3,4.2,3.2*39
$GPGSV,3,1,11,09,75,123,30,12,69,260,29,05,48,258,39,14,27,314,15*7E
$GPGSV,3,2,11,17,20,043,12,04,13,094,17,22,09,274,00,26,05,169,00*72
$GPGSV,3,3,11,02,05,127,00,30,30,254,23,35,07,250,00*4E
$GPGGA,153103,4934.3971,N,01054.9675,E,1,05,4.20,334.4,M,47.423,M,,*79
$GPRMC,153103,A,4934.3971,N,01054.9675,E,10.5979,128.377,300707,,*1B
$GPGSA,A,3,09,12,05,17,30,,,,,,,,5.3,4.2,3.2*39
$GPGSV,3,1,11,09,75,123,31,12,69,260,33,05,48,258,37,14,27,314,14*7B
$GPGSV,3,2,11,17,20,043,14,04,13,094,15,22,09,274,00,26,05,169,00*76
$GPGSV,3,3,11,02,05,127,00,30,30,254,25,35,07,250,00*48
$GPGGA,153104,4934.3949,N,01054.9713,E,1,06,4.20,334.0,M,47.423,M,,*73
$GPRMC,153104,A,4934.3949,N,01054.9713,E,10.8071,133.679,300707,,*1B
$GPGSA,A,3,09,12,05,17,30,35,,,,,,,9.0,9.0,0.9*37
$GPGSV,3,1,11,09,75,123,30,12,69,260,35,05,48,258,37,14,27,314,15*7D
$GPGSV,3,2,11,17,20,043,10,04,13,094,09,22,09,274,00,26,05,169,00*7F
$GPGSV,3,3,11,02,05,127,00,30,30,254,26,35,07,250,00*4B
$GPGGA,153105,4934.3926,N,01054.9749,E,1,04,9.00,335.0,M,47.423,M,,*78
$GPRMC,153105,A,4934.3926,N,01054.9749,E,12.2009,137.743,300707,,*17
$GPGSA,A,3,09,12,05,30,,,,,,,,,5.3,4.2,3.2*3F
$GPGSV,3,1,11,09,75,123,31,12,69,260,36,05,48,258,38,14,27,314,15*70
$GPGSV,3,2,11,17,20,043,12,04,13,094,07,22,09,274,00,26,05,169,00*73
$GPGSV,3,3,11,02,05,127,00,30,30,254,23,35,07,250,00*4E
$GPGGA,153106,4934.3900,N,01054.9778,E,1,05,4.20,333.7,M,47.423,M,,*72
$GPRMC,153106,A,4934.3900,N,01054.9778,E,12.2646,141.036,300707,,*1B
$GPGSA,A,3,09,12,05,17,30,,,,,,,,5.3,4.2,3.2*39
$GPGSV,3,1,11,09,75,123,31,12,69,260,37,05,48,258,39,14,27,314,11*74
$GPGSV,3,2,11,17,20,043,13,04,13,094,06,22,09,274,00,26,05,169,00*73
$GPGSV,3,3,11,02,05,127,00,30,30,254,20,35,07,250,00*4D
$GPGGA,153107,4934.3871,N,01054.9805,E,1,05,4.20,334.4,M,47.423,M,,*75
$GPRMC,153107,A,4934.3871,N,01054.9805,E,12.4927,157.091,300707,,*1C
$GPGSA,A,3,09,12,05,17,30,,,,,,,,3.2,2.0,2.5*3C
$GPGSV,3,1,11,09,75,123,31,12,69,260,33,05,48,258,34,14,27,314,13*7F
$GPGSV,3,2,11,17,20,043,12,04,13,094,00,22,09,274,00,26,05,169,00*74
$GPGSV,3,3,11,02,05,127,00,30,30,254,20,35,07,250,00*4D
$GPGGA,153108,4934.3835,N,01054.9823,E,1,06,2.00,333.5,M,47.423,M,,*7F
$GPRMC,153108,A,4934.3835,N,01054.9823,E,13.3815,172.837,300707,,*12
$GPGSA,A,3,09,12,05,14,17,30,,,,,,,3.2,2.0,2.5*39
$GPGSV,3,1,11,09,75,123,26,12,69,260,27,05,48,258,34,14,27,314,15*7A
$GPGSV,3,2,11,17,20,043,14,04,13,094,00,22,09,274,00,26,05,169,00*72
$GPGSV,3,3,11,02,05,127,00,30,30,254,21,35,07,250,00*4C
$GPGGA,153109,4934.3788,N,01054.9830,E,1,06,2.00,333.0,M,47.423,M,,*70
$GPRMC,153109,A,4934.3788,N,01054.9830,E,14.5213,178.053,300707,,*15
$GPGSA,A,3,09,12,05,14,17,30,,,,,,,3.2,2.0,2.5*39
$GPGSV,3,1,11,09,75,123,24,12,69,260,26,05,48,258,32,14,27,314,16*7C
$GPGSV,3,2,11,17,20,043,15,04,13,094,00,22,09,274,00,26,05,169,00*73
$GPGSV,3,3,11,02,05,127,00,30,30,254,20,35,07,250,00*4D
$GPGGA,153110,4934.3745,N,01054.9838,E,1,06,2.00,331.9,M,47.423,M,,*7A
$GPRMC,153110,A,4934.3745,N,01054.9838,E,17.4019,179.080,300707,,*11
$GPGSA,A,3,09,12,05,14,17,30,,,,,,,3.2,2.0,2.5*39
$GPGSV,3,1,11,09,75,123,24,12,69,260,28,05,48,258,31,14,27,314,17*70
$GPGSV,3,2,11,17,20,043,14,04,13,094,00,22,09,274,00,26,05,169,00*72
$GPGSV,3,3,11,02,05,127,00,30,30,254,19,35,07,250,00*47
$GPGGA,153111,4934.3684,N,01054.9834,E,1,06,2.00,331.0,M,47.423,M,,*72
$GPRMC,153111,A,4934.3684,N,01054.9834,E,21.2853,179.094,300707,,*10
$GPGSA,A,3,09,12,05,14,17,30,,,,,,,3.2,2.0,2.5*39
$GPGSV,3,1,11,09,75,123,24,12,69,260,28,05,48,258,32,14,27,314,18*7C
$GPGSV,3,2,11,17,20,043,14,04,13,094,00,22,09,274,00,26,05,169,00*72
$GPGSV,3,3,11,02,05,127,00,30,30,254,21,35,07,250,00*4C
$GPGGA,153112,4934.3622,N,01054.9845,E,1,06,2.00,330.4,M,47.423,M,,*7E
$GPRMC,153112,A,4934.3622,N,01054.9845,E,22.0412,180.404,300707,,*1A
$GPGSA,A,3,09,12,05,14,17,30,,,,,,,3.2,2.0,2.5*39
$GPGSV,3,1,11,09,75,123,23,12,69,260,29,05,48,258,32,14,27,314,18*7A
$GPGSV,3,2,11,17,20,043,15,04,13,094,00,22,09,274,00,26,05,169,00*73
$GPGSV,3,3,11,02,05,127,00,30,30,254,20,35,07,250,00*4D
$GPGGA,153113,4934.3557,N,01054.9839,E,1,06,2.00,330.2,M,47.423,M,,*73
$GPRMC,153113,A,4934.3557,N,01054.9839,E,24.3865,180.695,300707,,*12
$GPGSA,A,3,09,12,05,14,17,30,,,,,,,3.2,2.0,2.5*39
$GPGSV,3,1,11,09,75,123,23,12,69,260,30,05,48,258,32,14,27,314,16*7C
$GPGSV,3,2,11,17,20,043,15,04,13,094,00,22,09,274,00,26,05,169,00*73
$GPGSV,3,3,11,02,05,127,00,30,30,254,20,35,07,250,00*4D
$GPGGA,153114,4934.3480,N,01054.9840,E,1,06,2.00,329.2,M,47.423,M,,*79
$GPRMC,153114,A,4934.3480,N,01054.9840,E,25.0518,181.366,300707,,*1D
$GPGSA,A,3,09,12,05,14,17,30,,,,,,,3.2,2.0,2.5*39
$GPGSV,3,1,11,09,75,123,22,12,69,260,31,05,48,258,31,14,27,314,17*7E
$GPGSV,3,2,11,17,20,043,15,04,13,094,00,22,09,274,00,26,05,169,00*73
$GPGSV,3,3,11,02,05,127,00,30,30,254,20,35,07,250,00*4D
$GPGGA,153115,4934.3403,N,01054.9841,E,1,06,2.00,328.2,M,47.423,M,,*73
$GPRMC,153115,A,4934.3403,N,01054.9841,E,23.4989,181.849,300707,,*16
$GPGSA,A,3,09,12,05,14,17,30,,,,,,,3.2,2.0,2.5*39
$GPGSV,3,1,11,09,75,123,22,12,69,260,30,05,48,258,31,14,27,314,17*7F
$GPGSV,3,2,11,17,20,043,15,04,13,094,00,22,09,274,00,26,05,169,00*73
$GPGSV,3,3,11,02,05,127,00,30,30,254,23,35,07,250,00*4E
$GPGGA,153116,4934.3338,N,01054.9836,E,1,06,2.00,326.5,M,47.423,M,,*76
$GPRMC,153116,A,4934.3338,N,01054.9836,E,19.8933,182.455,300707,,*1C
$GPGSA,A,3,09,12,05,14,17,30,,,,,,,3.2,2.0,2.5*39
$GPGSV,3,1,11,09,75,123,23,12,69,260,31,05,48,258,31,14,27,314,17*7F
$GPGSV,3,2,11,17,20,043,15,04,13,094,00,22,09,274,00,26,05,169,00*73
$GPGSV,3,3,11,02,05,127,00,30,30,254,23,35,07,250,00*4E
$GPGGA,153117,4934.3285,N,01054.9833,E,1,06,2.00,325.8,M,47.423,M,,*7B
$GPRMC,153117,A,4934.3285,N,01054.9833,E,18.8421,188.086,300707,,*10
$GPGSA,A,3,09,12,05,14,17,30,,,,,,,3.2,2.0,2.5*39
$GPGSV,3,1,11,09,75,123,24,12,69,260,32,05,48,258,36,14,27,314,18*73
$GPGSV,3,2,11,17,20,043,16,04,13,094,00,22,09,274,00,26,05,169,00*70
$GPGSV,3,3,11,02,05,127,00,30,30,254,24,35,07,250,00*49
$GPGGA,153118,4934.3228,N,01054.9821,E,1,06,2.00,325.6,M,47.423,M,,*7E
$GPRMC,153118,A,4934.3228,N,01054.9821,E,17.5711,194.418,300707,,*17
$GPGSA,A,3,09,12,05,14,17,30,,,,,,,3.2,2.0,2.5*39
$GPGSV,3,1,11,09,75,123,24,12,69,260,32,05,48,258,38,14,27,314,20*76
$GPGSV,3,2,11,17,20,043,14,04,13,094,00,22,09,274,00,26,05,169,00*72
$GPGSV,3,3,11,02,05,127,00,30,30,254,20,35,07,250,00*4D
$GPGGA,153119,4934.3180,N,01054.9811,E,1,06,2.00,324.0,M,47.423,M,,*7A
$GPRMC,153119,A,4934.3180,N,01054.9811,E,14.5876,187.367,300707,,*14
$GPGSA,A,3,09,12,05,14,17,30,,,,,,,3.2,2.0,2.5*39
$GPGSV,3,1,11,09,75,123,23,12,69,260,33,05,48,259,39,14,27,314,16*75
$GPGSV,3,2,11,17,20,043,13,04,13,094,00,22,09,274,00,26,05,169,00*75
$GPGSV,3,3,11,02,05,127,00,30,30,254,17,35,07,250,00*49
$GPGGA,153120,4934.3134,N,01054.9812,E,1,06,2.00,322.0,M,47.423,M,,*7A
$GPRMC,153120,A,4934.3134,N,01054.9812,E,10.7460,185.001,300707,,*1E
$GPGSA,A,3,09,12,05,14,17,30,,,,,,,6.5,3.7,5.3*3C
$GPGSV,3,1,11,09,75,123,23,12,69,260,34,05,48,259,38,14,27,314,16*73
$GPGSV,3,2,11,17,20,043,13,04,13,094,00,22,09,274,00,26,05,169,00*75
$GPGSV,3,3,11,02,05,127,00,30,30,254,14,35,07,250,00*4A
$GPGGA,153121,4934.3104,N,01054.9815,E,1,05,3.70,320.3,M,47.423,M,,*7B
$GPRMC,153121,A,4934.3104,N,01054.9815,E,8.9461,185.580,300707,,*21
$GPGSA,A,3,09,12,05,14,17,,,,,,,,3.2,2.0,2.5*3A
$GPGSV,3,1,11,09,75,123,23,12,69,260,35,05,48,259,36,14,27,314,15*7F
$GPGSV,3,2,11,17,20,043,13,04,13,094,00,22,09,274,00,26,05,169,00*75
$GPGSV,3,3,11,02,05,127,00,30,30,254,16,35,07,250,00*48
$GPGGA,153122,4934.3074,N,01054.9809,E,1,06,2.00,319.8,M,47.423,M,,*77
$GPRMC,153122,A,4934.3074,N,01054.9809,E,10.1891,185.937,300707,,*1B
$GPGSA,A,3,09,12,05,14,17,30,,,,,,,3.2,2.0,2.5*39
$GPGSV,3,1,11,09,75,123,23,12,69,260,36,05,48,259,37,14,27,314,14*7C
$GPGSV,3,2,11,17,20,043,13,04,13,094,00,22,09,274,00,26,05,169,00*75
$GPGSV,3,3,11,02,05,127,00,30,30,254,19,35,07,250,00*47
$GPGGA,153123,4934.3040,N,01054.9802,E,1,06,2.00,318.5,M,47.423,M,,*76
$GPRMC,153123,A,4934.3040,N,01054.9802,E,12.2536,186.318,300707,,*13
$GPGSA,A,3,09,12,05,14,17,30,,,,,,,3.2,2.0,2.5*39
$GPGSV,3,1,11,09,75,123,24,12,69,260,35,05,48,259,37,14,27,314,14*78
$GPGSV,3,2,11,17,20,043,15,04,13,094,00,22,09,274,00,26,05,169,00*73
$GPGSV,3,3,11,02,05,127,00,30,30,254,18,35,07,250,00*46
$GPGGA,153124,4934.3002,N,01054.9795,E,1,06,2.00,317.9,M,47.423,M,,*75
$GPRMC,153124,A,4934.3002,N,01054.9795,E,12.8243,186.532,300707,,*12
$GPGSA,A,3,09,12,05,14,17,30,,,,,,,3.2,2.0,2.5*39
$GPGSV,3,1,11,09,75,123,24,12,69,260,35,05,48,259,34,14,27,314,13*7C
$GPGSV,3,2,11,17,20,043,17,04,13,094,00,22,09,274,00,26,05,169,00*71
$GPGSV,3,3,11,02,05,127,00,30,30,254,21,35,07,250,00*4C
$GPGGA,153125,4934.2968,N,01054.9796,E,1,06,2.00,316.7,M,47.423,M,,*7C
$GPRMC,153125,A,4934.2968,N,01054.9796,E,14.6156,186.745,300707,,*19
$GPGSA,A,3,09,12,05,14,17,30,,,,,,,3.2,2.0,2.5*39
$GPGSV,3,1,11,09,75,123,25,12,69,260,35,05,48,259,32,14,27,314,14*7C
$GPGSV,3,2,11,17,20,043,16,04,13,094,00,22,09,274,00,26,05,169,00*70
$GPGSV,3,3,11,02,05,127,00,30,30,254,23,35,07,250,00*4E
$GPGGA,153126,4934.2926,N,01054.9795,E,1,06,2.00,316.9,M,47.423,M,,*78
$GPRMC,153126,A,4934.2926,N,01054.9795,E,16.9547,186.937,300707,,*11
$GPGSA,A,3,09,12,05,14,17,30,,,,,,,3.2,2.0,2.5*39
$GPGSV,3,1,11,09,75,123,25,12,69,260,36,05,48,259,30,14,27,314,14*7D
$GPGSV,3,2,11,17,20,043,15,04,13,094,00,22,09,274,00,26,05,169,00*73
$GPGSV,3,3,11,02,05,127,00,30,30,254,23,35,07,250,00*4E
$GPGGA,153127,4934.2869,N,01054.9783,E,1,06,2.00,316.6,M,47.423,M,,*7B
$GPRMC,153127,A,4934.2869,N,01054.9783,E,20.6680,186.591,300707,,*1F
$GPGSA,A,3,09,12,05,14,17,30,,,,,,,3.2,2.0,2.5*39
$GPGSV,3,1,11,09,75,123,24,12,69,261,36,05,48,259,30,14,27,314,16*7F
$GPGSV,3,2,11,17,20,043,16,04,13,094,00,22,09,274,00,26,05,169,00*70
$GPGSV,3,3,11,02,05,127,00,30,30,254,23,35,07,250,00*4E
$GPGGA,153128,4934.2804,N,01054.9777,E,1,06,2.00,316.4,M,47.423,M,,*76
$GPRMC,153128,A,4934.2804,N,01054.9777,E,22.8878,186.303,300707,,*18
$GPGSA,A,3,09,12,05,14,17,30,,,,,,,3.2,2.0,2.5*39
$GPGSV,3,1,11,09,75,123,24,12,69,261,37,05,48,259,31,14,27,314,15*7C
$GPGSV,3,2,11,17,20,043,15,04,13,094,00,22,09,274,00,26,05,169,00*73
$GPGSV,3,3,11,02,05,127,00,30,30,254,21,35,07,250,00*4C
$GPGGA,153129,4934.2744,N,01054.9764,E,1,06,2.00,315.4,M,47.423,M,,*7D
$GPRMC,153129,A,4934.2744,N,01054.9764,E,24.5933,184.697,300707,,*1F
$GPGSA,A,3,09,12,05,14,17,30,,,,,,,3.2,2.0,2.5*39
$GPGSV,3,1,11,09,75,123,24,12,69,261,37,05,48,259,33,14,28,313,13*70
$GPGSV,3,2,11,17,20,043,14,04,13,094,00,22,09,274,00,26,05,169,00*72
$GPGSV,3,3,11,02,05,127,00,30,30,254,15,35,07,250,00*4B
$GPGGA,153130,4934.2686,N,01054.9750,E,1,06,2.00,316.6,M,47.423,M,,*7C
$GPRMC,153130,A,4934.2686,N,01054.9750,E,25.5337,182.791,300707,,*11
$GPGSA,A,3,09,12,05,14,17,30,,,,,,,3.2,2.0,2.5*39
$GPGSV,3,1,11,09,75,123,25,12,69,261,37,05,48,259,36,14,28,313,17*70
$GPGSV,3,2,11,17,20,043,15,04,13,094,00,22,09,274,00,26,05,169,00*73
$GPGSV,3,3,11,02,05,127,00,30,30,254,20,35,07,250,00*4D
$GPGGA,153131,4934.2613,N,01054.9751,E,1,06,2.00,316.3,M,47.423,M,,*75
$GPRMC,153131,A,4934.2613,N,01054.9751,E,26.4562,181.359,300707,,*1A
$GPGSA,A,3,09,12,05,14,17,30,,,,,,,3.2,2.0,2.5*39
$GPGSV,3,1,11,09,75,123,25,12,69,261,36,05,48,259,36,14,28,313,19*7F
$GPGSV,3,2,11,17,20,043,16,04,13,094,00,22,09,274,00,26,05,169,00*70
$GPGSV,3,3,11,02,05,127,00,30,30,254,22,35,07,250,00*4F
$GPGGA,153132,4934.2544,N,01054.9743,E,1,06,2.00,316.7,M,47.423,M,,*70
$GPRMC,153132,A,4934.2544,N,01054.9743,E,26.6263,181.018,300707,,*19
$GPGSA,A,3,09,12,05,14,17,30,,,,,,,3.2,2.0,2.5*39
$GPGSV,3,1,11,09,75,123,27,12,69,261,36,05,48,259,36,14,28,313,21*76
$GPGSV,3,2,11,17,20,043,16,04,13,094,00,22,09,274,00,26,05,169,00*70
$GPGSV,3,3,11,02,05,127,00,30,30,254,23,35,07,250,00*4E
$GPGGA,153133,4934.2475,N,01054.9735,E,1,06,2.00,317.1,M,47.423,M,,*74
$GPRMC,153133,A,4934.2475,N,01054.9735,E,26.7262,181.912,300707,,*19
$GPGSA,A,3,09,12,05,14,17,30,,,,,,,3.2,2.0,2.5*39
$GPGSV,3,1,11,09,75,123,26,12,69,261,36,05,48,259,36,14,28,313,20*76
$GPGSV,3,2,11,17,20,043,15,04,13,094,00,22,09,274,00,26,05,169,00*73
$GPGSV,3,3,11,02,05,127,00,30,30,254,23,35,07,250,00*4E
$GPGGA,153134,4934.2406,N,01054.9728,E,1,06,2.00,317.5,M,47.423,M,,*7F
$GPRMC,153134,A,4934.2406,N,01054.9728,E,26.2517,183.534,300707,,*1C
$GPGSA,A,3,09,12,05,14,17,30,,,,,,,3.2,2.0,2.5*39
$GPGSV,3,1,11,09,75,123,24,12,69,261,38,05,48,259,38,14,28,313,19*7E
$GPGSV,3,2,11,17,20,043,15,04,13,094,00,22,09,274,00,26,05,169,00*73
$GPGSV,3,3,11,02,05,127,00,30,30,254,24,35,07,250,00*49
$GPGGA,153135,4934.2326,N,01054.9719,E,1,06,2.00,317.1,M,47.423,M,,*7D
$GPRMC,153135,A,4934.2326,N,01054.9719,E,26.4370,187.330,300707,,*1D
$GPGSA,A,3,09,12,05,14,17,30,,,,,,,3.2,2.0,2.5*39
$GPGSV,3,1,11,09,75,123,24,12,69,261,36,05,48,259,40,14,28,313,18*7E
$GPGSV,3,2,11,17,20,043,16,04,13,094,00,22,09,274,00,26,05,169,00*70
$GPGSV,3,3,11,02,05,127,00,30,30,254,27,35,07,250,00*4A
$GPGGA,153136,4934.2250,N,01054.9703,E,1,06,2.00,315.8,M,47.423,M,,*7E
$GPRMC,153136,A,4934.2250,N,01054.9703,E,26.7659,189.958,300707,,*12
$GPGSA,A,3,09,12,05,14,17,30,,,,,,,3.2,2.0,2.5*39
$GPGSV,3,1,11,09,75,123,24,12,69,261,34,05,48,259,39,14,28,313,18*72
$GPGSV,3,2,11,17,20,043,16,04,13,094,00,22,08,274,00,26,05,169,00*71
$GPGSV,3,3,11,02,05,127,00,30,30,254,27,35,07,250,00*4A
$GPGGA,153137,4934.2179,N,01054.9679,E,1,06,2.00,315.2,M,47.423,M,,*71
$GPRMC,153137,A,4934.2179,N,01054.9679,E,27.2216,191.583,300707,,*1F
$GPGSA,A,3,09,12,05,14,17,30,,,,,,,3.2,2.0,2.5*39
$GPGSV,3,1,11,09,75,123,23,12,69,261,30,05,48,259,35,14,28,313,18*7D
$GPGSV,3,2,11,17,20,043,16,04,13,094,00,22,08,274,00,26,05,169,00*71
$GPGSV,3,3,11,02,05,127,00,30,30,254,24,33,07,250,00*4F
$GPGGA,153138,4934.2101,N,01054.9654,E,1,06,2.00,314.5,M,47.423,M,,*78
$GPRMC,153138,A,4934.2101,N,01054.9654,E,27.5299,194.873,300707,,*17
$GPGSA,A,3,09,12,05,14,17,30,,,,,,,3.2,2.0,2.5*39
$GPGSV,3,1,11,09,75,123,22,12,69,261,26,05,48,259,31,14,28,313,17*70
$GPGSV,3,2,11,17,20,043,16,04,13,094,00,22,08,274,00,26,05,169,00*71
$GPGSV,3,3,11,02,05,127,00,30,30,254,27,33,07,250,00*4C
$GPGGA,153139,4934.2023,N,01054.9620,E,1,06,2.00,313.6,M,47.423,M,,*7F
$GPRMC,153139,A,4934.2023,N,01054.9620,E,28.3488,198.285,300707,,*14
$GPGSA,A,3,09,12,05,14,17,30,,,,,,,3.2,2.0,2.5*39
$GPGSV,3,1,11,09,75,123,22,12,69,261,22,05,48,259,33,14,28,313,15*74
$GPGSV,3,2,11,17,20,043,17,04,13,094,00,22,08,274,00,26,05,169,00*70
$GPGSV,3,3,11,02,05,127,00,30,30,254,30,33,07,250,00*4A
$GPGGA,153140,4934.1946,N,01054.9578,E,1,06,2.00,312.6,M,47.423,M,,*77
$GPRMC,153140,A,4934.1946,N,01054.9578,E,28.6127,200.950,300707,,*19
$GPGSA,A,3,09,12,05,14,17,30,,,,,,,3.2,2.0,2.5*39
$GPGSV,3,1,11,09,75,123,23,12,69,261,22,05,48,259,33,14,28,313,16*76
$GPGSV,3,2,11,17,20,043,15,04,13,094,00,22,08,274,00,26,05,169,00*72
$GPGSV,3,3,11,02,05,127,00,30,30,254,31,33,07,250,00*4B
$GPGGA,153141,4934.1869,N,01054.9537,E,1,06,2.00,311.7,M,47.423,M,,*73
$GPRMC,153141,A,4934.1869,N,01054.9537,E,28.9216,201.199,300707,,*1D
$GPGSA,A,3,09,12,05,14,17,30,,,,,,,3.2,2.0,2.5*39
$GPGSV,3,1,11,09,75,123,22,12,69,261,22,05,48,259,32,14,28,313,16*76
$GPGSV,3,2,11,17,20,043,14,04,13,094,00,22,08,274,00,26,05,169,00*73
$GPGSV,3,3,11,02,05,127,00,30,30,254,32,33,07,250,00*48
$GPGGA,153142,4934.1793,N,01054.9487,E,1,06,2.00,310.6,M,47.423,M,,*70
$GPRMC,153142,A,4934.1793,N,01054.9487,E,28.8793,200.826,300707,,*1B
$GPGSA,A,3,09,12,05,14,17,30,,,,,,,3.2,2.0,2.5*39
$GPGSV,3,1,11,09,75,123,23,12,69,261,23,05,48,259,32,14,28,313,18*78
$GPGSV,3,2,11,17,20,043,14,04,13,094,00,22,08,274,00,26,05,169,00*73
$GPGSV,3,3,11,02,05,127,00,30,30,254,27,33,07,250,00*4C
$GPGGA,153143,4934.1719,N,01054.9445,E,1,06,2.00,310.4,M,47.423,M,,*7F
$GPRMC,153143,A,4934.1719,N,01054.9445,E,28.8041,201.289,300707,,*10
$GPGSA,A,3,09,12,05,14,17,30,,,,,,,3.2,2.0,2.5*39
$GPGSV,3,1,11,09,75,123,23,12,69,261,22,05,48,259,31,14,28,313,19*7B
$GPGSV,3,2,11,17,20,043,14,04,13,094,00,22,08,274,00,26,05,169,00*73
$GPGSV,3,3,11,02,05,127,00,30,30,254,29,33,07,250,00*42
$GPGGA,153144,4934.1642,N,01054.9402,E,1,06,2.00,310.8,M,47.423,M,,*78
$GPRMC,153144,A,4934.1642,N,01054.9402,E,28.7908,202.449,300707,,*19
$GPGSA,A,3,09,12,05,14,17,30,,,,,,,3.2,2.0,2.5*39
$GPGSV,3,1,11,09,75,123,23,12,69,261,23,05,48,259,31,14,28,313,19*7A
$GPGSV,3,2,11,17,20,043,13,04,13,094,00,22,08,274,00,26,05,169,00*74
$GPGSV,3,3,11,02,05,127,00,30,30,254,28,33,07,250,00*43
$GPGGA,153145,4934.1565,N,01054.9352,E,1,06,2.00,309.7,M,47.423,M,,*7A
$GPRMC,153145,A,4934.1565,N,01054.9352,E,28.9799,204.764,300707,,*1E
$GPGSA,A,3,09,12,05,14,17,30,,,,,,,3.2,2.0,2.5*39
$GPGSV,3,1,11,09,75,123,25,12,69,261,24,05,48,259,33,14,28,313,16*76
$GPGSV,3,2,11,17,20,043,14,04,13,094,00,22,08,274,00,26,05,169,00*73
$GPGSV,3,3,11,02,05,127,00,30,30,254,32,33,07,250,00*48
$GPGGA,153146,4934.1497,N,01054.9296,E,1,06,2.00,308.6,M,47.423,M,,*7C
$GPRMC,153146,A,4934.1497,N,01054.9296,E,28.9913,207.272,300707,,*15
$GPGSA,A,3,09,12,05,14,17,30,,,,,,,3.2,2.0,2.5*39
$GPGSV,3,1,11,09,75,123,27,12,69,261,27,05,48,259,33,14,28,313,18*79
$GPGSV,3,2,11,17,20,043,15,04,13,094,00,22,08,274,00,26,05,169,00*72
$GPGSV,3,3,11,02,05,127,00,30,30,254,34,33,07,250,00*4E
$GPGGA,153147,4934.1425,N,01054.9238,E,1,06,2.00,308.1,M,47.423,M,,*77
$GPRMC,153147,A,4934.1425,N,01054.9238,E,28.8784,210.601,300707,,*1E
$GPGSA,A,3,09,12,05,14,17,30,,,,,,,3.2,2.0,2.5*39
$GPGSV,3,1,11,09,75,123,28,12,69,261,30,05,48,259,29,14,28,313,21*71
$GPGSV,3,2,11,17,20,043,17,04,13,094,00,22,08,274,00,26,05,169,00*70
$GPGSV,3,3,11,02,05,127,00,30,30,254,29,33,07,250,00*42
$GPGGA,153148,4934.1359,N,01054.9163,E,1,06,2.00,308.2,M,47.423,M,,*7A
$GPRMC,153148,A,4934.1359,N,01054.9163,E,28.5527,217.402,300707,,*10
$GPGSA,A,3,09,12,05,14,17,30,,,,,,,3.2,2.0,2.5*39
$GPGSV,3,1,11,09,75,123,28,12,69,261,30,05,48,259,28,14,28,313,19*7B
$GPGSV,3,2,11,17,20,043,17,04,13,094,00,22,08,274,24,26,05,169,00*76
$GPGSV,3,3,11,02,05,127,00,30,30,254,20,33,07,250,00*4B
$GPGGA,153149,4934.1292,N,01054.9089,E,1,06,2.00,308.2,M,47.423,M,,*78
$GPRMC,153149,A,4934.1292,N,01054.9089,E,28.5977,216.945,300707,,*14
$GPGSA,A,3,09,12,05,14,17,30,,,,,,,6.6,3.7,5.4*38
$GPGSV,3,1,11,09,75,123,30,12,69,261,30,05,48,259,25,14,28,313,19*7F
$GPGSV,3,2,11,17,20,043,18,04,13,094,00,22,08,274,21,26,05,169,00*7C
$GPGSV,3,3,11,02,05,127,00,30,30,254,12,33,07,250,00*4A
$GPGGA,153150,4934.1232,N,01054.9016,E,1,05,3.70,308.4,M,47.423,M,,*7F
$GPRMC,153150,A,4934.1232,N,01054.9016,E,28.1962,213.456,300707,,*1A
$GPGSA,A,3,09,12,05,14,17,,,,,,,,3.2,2.0,2.5*3A
$GPGSV,3,1,11,09,75,123,30,12,69,261,33,05,48,259,22,14,28,313,21*70
$GPGSV,3,2,11,17,20,043,20,04,13,094,00,22,08,274,18,26,05,169,00*7D
$GPGSV,3,3,11,02,05,127,00,30,30,254,16,33,07,250,00*4E
$GPGGA,153151,4934.1165,N,01054.8950,E,1,06,2.00,308.6,M,47.423,M,,*72
$GPRMC,153151,A,4934.1165,N,01054.8950,E,27.9765,214.516,300707,,*1C
$GPGSA,A,3,09,12,05,14,17,30,,,,,,,3.2,2.0,2.5*39
$GPGSV,3,1,11,09,75,123,29,12,69,261,33,05,48,259,22,14,28,313,19*73
$GPGSV,3,2,11,17,20,043,21,04,13,094,00,22,08,274,21,26,05,169,00*76
$GPGSV,3,3,11,02,05,127,00,30,30,254,16,33,07,250,00*4E
$GPGGA,153152,4934.1102,N,01054.8879,E,1,06,2.00,314.5,M,47.423,M,,*74
$GPRMC,153152,A,4934.1102,N,01054.8879,E,27.2201,217.639,300707,,*15
$GPGSA,A,2,09,12,05,14,17,30,,,,,,,3.5,3.3,1.0*3B
$GPGSV,3,1,11,09,75,123,29,12,69,261,33,05,48,259,18,14,28,313,14*77
$GPGSV,3,2,11,17,20,043,19,04,13,094,00,22,08,274,11,26,05,169,00*7E
$GPGSV,3,3,11,02,05,127,00,30,30,254,10,33,07,250,00*48
$GPGGA,153153,4934.1046,N,01054.8816,E,1,03,3.30,314.2,M,47.424,M,,*7A
$GPRMC,153153,A,4934.1046,N,01054.8816,E,25.5184,217.795,300707,,*10
$GPGSA,A,2,09,12,17,,,,,,,,,,3.5,3.3,1.0*38
$GPGSV,3,1,11,09,75,123,28,12,69,261,34,05,48,259,13,14,28,313,08*77
$GPGSV,3,2,11,17,20,043,18,04,13,094,00,22,08,274,06,26,05,169,00*79
$GPGSV,3,3,11,02,05,127,00,30,30,254,07,33,07,250,00*4E
$GPGGA,153154,4934.0997,N,01054.8743,E,1,04,3.30,308.7,M,47.424,M,,*79
$GPRMC,153154,A,4934.0997,N,01054.8743,E,25.7119,214.927,300707,,*1E
$GPGSA,A,3,09,12,17,33,,,,,,,,,5.2,4.1,3.2*3D
$GPGSV,3,1,11,09,75,123,28,12,69,261,36,05,48,259,16,14,28,313,08*70
$GPGSV,3,2,11,17,20,043,18,04,13,094,00,22,08,274,08,26,05,169,00*77
$GPGSV,3,3,11,02,05,127,00,30,30,254,13,33,07,250,00*4B
$GPGGA,153155,4934.0933,N,01054.8677,E,1,06,4.10,309.7,M,47.424,M,,*76
$GPRMC,153155,A,4934.0933,N,01054.8677,E,24.8280,213.249,300707,,*1E
$GPGSA,A,3,09,12,05,17,30,33,,,,,,,6.6,3.8,5.4*32
$GPGSV,3,1,11,09,75,123,29,12,69,261,36,05,48,259,14,14,28,313,14*7E
$GPGSV,3,2,11,17,20,043,18,04,13,094,00,22,08,274,05,26,05,169,00*7A
$GPGSV,3,3,11,02,05,127,00,30,30,254,13,33,07,250,00*4B
$GPGGA,153156,4934.0884,N,01054.8614,E,1,05,3.80,310.9,M,47.424,M,,*76
$GPRMC,153156,A,4934.0884,N,01054.8614,E,25.2429,208.700,300707,,*19
$GPGSA,A,3,09,12,05,14,17,,,,,,,,9.4,6.4,6.8*3F
$GPGSV,3,1,11,09,75,123,28,12,69,261,33,05,48,259,16,14,28,313,09*74
$GPGSV,3,2,11,17,20,043,16,04,13,094,00,22,08,274,03,26,05,169,00*72
$GPGSV,3,3,11,02,05,127,00,30,30,254,09,33,07,250,00*40
$GPGGA,153157,4934.0819,N,01054.8566,E,1,04,6.40,310.7,M,47.424,M,,*73
$GPRMC,153157,A,4934.0819,N,01054.8566,E,27.1167,202.563,300707,,*19
$GPGSA,A,3,09,12,05,17,,,,,,,,,5.2,4.1,3.2*38
$GPGSV,3,1,11,09,75,123,26,12,69,261,30,05,48,259,18,14,28,313,07*79
$GPGSV,3,2,11,17,20,043,16,04,13,094,00,22,08,274,04,26,05,169,00*75
$GPGSV,3,3,11,02,05,127,00,30,30,254,18,33,07,250,00*40
$GPGGA,153158,4934.0756,N,01054.8526,E,1,05,4.10,311.3,M,47.424,M,,*7F
$GPRMC,153158,A,4934.0756,N,01054.8526,E,24.7165,202.277,300707,,*13
$GPGSA,A,3,09,12,05,17,30,,,,,,,,3.2,2.0,2.5*3C
$GPGSV,3,1,11,09,75,123,25,12,69,261,27,05,48,259,20,14,28,313,10*71
$GPGSV,3,2,11,17,20,043,14,04,13,094,00,22,08,274,03,26,05,169,00*70
$GPGSV,3,3,11,02,05,127,00,30,30,254,13,33,07,250,00*4B
$GPGGA,153159,4934.0690,N,01054.8486,E,1,06,2.00,311.2,M,47.424,M,,*7B
$GPRMC,153159,A,4934.0690,N,01054.8486,E,27.5763,198.024,300707,,*17
$GPGSA,A,3,09,12,05,14,17,30,,,,,,,5.2,4.1,3.2*3E
$GPGSV,3,1,11,09,75,123,24,12,69,261,26,05,48,259,20,14,28,313,06*76
$GPGSV,3,2,11,17,20,043,15,04,13,094,00,22,08,274,02,26,05,169,00*70
$GPGSV,3,3,11,02,05,127,00,30,30,254,19,33,07,250,00*41
$GPGGA,153200,4934.0624,N,01054.8454,E,1,05,4.10,311.3,M,47.424,M,,*71
$GPRMC,153200,A,4934.0624,N,01054.8454,E,25.3253,195.783,300707,,*1D
$GPGSA,A,3,09,12,05,17,30,,,,,,,,3.2,2.0,2.5*3C
$GPGSV,3,1,11,09,75,123,24,12,69,261,28,05,48,259,23,14,28,313,12*7E
$GPGSV,3,2,11,17,20,043,15,04,13,094,00,22,08,274,00,26,05,169,00*72
$GPGSV,3,3,11,02,05,127,00,30,30,254,16,33,07,250,00*4E
$GPGGA,153201,4934.0557,N,01054.8422,E,1,06,2.00,311.3,M,47.424,M,,*72
$GPRMC,153201,A,4934.0557,N,01054.8422,E,25.4893,192.767,300707,,*16
$GPGSA,A,3,09,12,05,14,17,30,,,,,,,5.2,4.1,3.2*3E
$GPGSV,3,1,11,09,75,123,25,12,69,261,29,05,48,259,29,14,28,313,07*70
$GPGSV,3,2,11,17,20,043,15,04,13,094,00,22,08,274,00,26,05,169,00*72
$GPGSV,3,3,11,02,05,127,00,30,30,254,18,33,07,250,00*40
$GPGGA,153202,4934.0489,N,01054.8408,E,1,05,4.10,310.2,M,47.424,M,,*7F
$GPRMC,153202,A,4934.0489,N,01054.8408,E,20.9953,190.478,300707,,*15
$GPGSA,A,3,09,12,05,17,30,,,,,,,,2.0,1.8,0.9*3A
$GPGSV,3,1,11,09,75,123,25,12,69,261,29,05,48,259,19,14,28,313,10*75
$GPGSV,3,2,11,17,20,043,14,04,13,094,00,22,08,274,00,26,05,169,00*73
$GPGSV,3,3,11,02,05,127,00,30,30,254,11,33,07,250,00*49
$GPGGA,153203,4934.0439,N,01054.8393,E,1,04,1.80,312.9,M,47.424,M,,*74
$GPRMC,153203,A,4934.0439,N,01054.8393,E,18.6670,184.149,300707,,*12
$GPGSA,A,2,09,12,14,17,,,,,,,,,3.4,3.3,0.9*34
$GPGSV,3,1,11,09,75,123,23,12,69,261,25,05,48,259,12,14,28,313,07*72
$GPGSV,3,2,11,17,20,043,15,04,13,094,00,22,08,274,00,26,05,169,00*72
$GPGSV,3,3,11,02,05,127,00,30,30,254,07,33,07,250,00*4E
$GPGGA,153204,4934.0396,N,01054.8400,E,1,03,3.30,313.1,M,47.424,M,,*7B
$GPRMC,153204,A,4934.0396,N,01054.8400,E,17.6857,174.877,300707,,*15
$GPGSA,A,2,09,12,17,,,,,,,,,,3.4,3.3,1.0*39
$GPGSV,3,1,11,09,75,123,23,12,69,261,24,05,48,259,14,14,28,313,06*74
$GPGSV,3,2,11,17,20,043,17,04,13,094,00,22,08,274,00,26,05,169,00*70
$GPGSV,3,3,11,02,05,127,00,30,30,254,05,33,07,250,00*4C
$GPGGA,153205,4934.0353,N,01054.8410,E,1,04,3.30,310.6,M,47.424,M,,*71
$GPRMC,153205,A,4934.0353,N,01054.8410,E,18.2583,163.216,300707,,*18
$GPGSA,A,3,09,12,17,33,,,,,,,,,5.2,4.1,3.2*3D
$GPGSV,3,1,11,09,75,123,25,12,69,261,29,05,48,259,18,14,28,313,06*73
$GPGSV,3,2,11,17,20,043,14,04,13,094,00,22,08,274,00,26,05,169,00*73
$GPGSV,3,3,11,02,05,127,00,30,30,254,11,33,07,250,00*49
$GPGGA,153206,4934.0304,N,01054.8442,E,1,06,4.10,310.5,M,47.424,M,,*73
$GPRMC,153206,A,4934.0304,N,01054.8442,E,18.8541,152.642,300707,,*1D
$GPGSA,A,3,09,12,05,17,30,33,,,,,,,5.2,4.1,3.2*3B
$GPGSV,3,1,11,09,75,123,27,12,69,261,34,05,48,259,26,14,28,313,00*76
$GPGSV,3,2,11,17,20,043,12,04,13,094,00,22,08,274,00,26,05,169,00*75
$GPGSV,3,3,11,02,05,127,00,30,30,254,18,33,07,250,00*40
$GPGGA,153207,4934.0262,N,01054.8492,E,1,05,4.10,309.3,M,47.424,M,,*73
$GPRMC,153207,A,4934.0262,N,01054.8492,E,19.8943,138.761,300707,,*13
$GPGSA,A,3,09,12,05,17,30,,,,,,,,5.2,4.1,3.2*3B
$GPGSV,3,1,11,09,75,123,28,12,69,261,30,05,48,259,18,14,28,313,00*70
$GPGSV,3,2,11,17,20,043,12,04,13,094,00,22,08,274,00,26,05,169,00*75
$GPGSV,3,3,11,02,05,127,00,30,30,254,15,33,07,250,00*4D
$GPGGA,153208,4934.0237,N,01054.8554,E,1,05,4.10,309.3,M,47.424,M,,*77
$GPRMC,153208,A,4934.0237,N,01054.8554,E,19.6960,121.499,300707,,*14
$GPGSA,A,3,09,12,05,17,30,,,,,,,,7.9,5.9,5.2*3D
$GPGSV,3,1,11,09,75,123,27,12,69,261,19,05,48,259,15,14,28,313,00*79
$GPGSV,3,2,11,17,20,043,11,04,13,094,00,22,08,274,00,26,05,169,00*76
$GPGSV,3,3,11,02,05,127,00,30,30,254,20,33,07,250,00*4B
$GPGGA,153209,4934.0222,N,01054.8634,E,1,04,5.90,310.4,M,47.424,M,,*70
$GPRMC,153209,A,4934.0222,N,01054.8634,E,21.6116,114.409,300707,,*19
$GPGSA,A,3,09,05,17,30,,,,,,,,,8.7,8.6,0.9*33
$GPGSV,3,1,11,09,75,123,25,12,69,261,17,05,48,259,21,14,28,313,00*72
$GPGSV,3,2,11,17,20,043,08,04,13,094,00,22,08,274,00,26,05,169,00*7E
$GPGSV,3,3,11,02,05,127,00,30,30,254,23,33,07,250,00*48
$GPGGA,153210,4934.0198,N,01054.8719,E,1,05,8.60,312.9,M,47.424,M,,*78
$GPRMC,153210,A,4934.0198,N,01054.8719,E,21.6116,114.409,300707,,*1D
$GPGSA,A,2,09,12,05,30,33,,,,,,,,15.1,15.1,0.9*36
$GPGSV,3,1,11,09,75,123,23,12,69,261,14,05,48,259,15,14,28,313,00*70
$GPGSV,3,2,11,17,20,043,09,04,13,094,00,22,08,274,00,26,05,169,00*7F
$GPGSV,3,3,11,02,05,127,00,30,30,254,18,33,07,250,00*40
$GPRMC,153211,A,4934.0172,N,01054.8809,E,25.6615,110.797,300707,,*16
$GPGSA,A,2,,,,,,,,,,,,,15.1,15.1,0.9*3A
$GPGSV,3,1,11,09,75,123,20,12,69,261,15,05,48,259,16,14,28,313,00*71
$GPGSV,3,2,11,17,20,043,06,04,13,094,00,22,08,274,00,26,05,169,00*70
$GPGSV,3,3,11,02,05,127,00,30,30,254,15,33,07,250,00*4D
$GPRMC,153212,A,4934.0147,N,01054.8913,E,25.6615,110.797,300707,,*19
$GPGSA,A,2,09,05,,,,,,,,,,,15.1,15.1,0.9*36
$GPGSV,3,1,11,09,75,123,19,12,69,261,10,05,48,259,13,14,28,313,00*7B
$GPGSV,3,2,11,17,20,043,04,04,13,094,00,22,08,274,00,26,05,169,00*72
$GPGSV,3,3,11,02,05,127,00,30,30,254,11,33,07,250,00*49
$GPRMC,153213,A,4934.0117,N,01054.9024,E,25.4731,110.891,300707,,*1D
$GPGSA,A,2,,,,,,,,,,,,,15.1,15.1,0.9*3A
$GPGSV,3,1,11,09,75,123,24,12,69,261,08,05,48,259,17,14,28,313,00*78
$GPGSV,3,2,11,17,20,043,03,04,13,094,00,22,08,274,00,26,05,169,00*75
$GPGSV,3,3,11,02,05,127,00,30,30,254,08,33,07,250,00*41
$GPGGA,153214,4934.0090,N,01054.9110,E,1,02,15.10,311.4,M,47.423,M,,*4E
$GPRMC,153214,A,4934.0090,N,01054.9110,E,25.4668,119.624,300707,,*16
$GPGSA,A,3,09,05,,,,,,,,,,,5.3,2.9,4.5*32
$GPGSV,3,1,11,09,75,123,27,12,69,261,18,05,48,259,28,14,28,313,07*71
$GPGSV,3,2,11,17,20,043,00,04,13,094,00,22,08,274,00,26,05,169,00*76
$GPGSV,3,3,11,02,05,127,00,30,30,254,16,33,07,250,00*4E
$GPGGA,153215,4934.0047,N,01054.9202,E,1,05,2.90,311.6,M,47.423,M,,*7E
$GPRMC,153215,A,4934.0047,N,01054.9202,E,23.4154,127.707,300707,,*1E
$GPGSA,A,3,09,12,05,14,30,,,,,,,,5.3,2.9,4.5*37
$GPGSV,3,1,11,09,75,123,30,12,69,261,24,05,48,259,33,14,28,313,10*74
$GPGSV,3,2,11,17,20,043,00,04,13,094,00,22,08,274,00,26,05,169,00*76
$GPGSV,3,3,11,02,05,127,00,30,30,254,20,33,07,250,00*4B
$GPGGA,153216,4933.9998,N,01054.9275,E,1,06,2.90,311.5,M,47.423,M,,*78
$GPRMC,153216,A,4933.9998,N,01054.9275,E,22.7577,136.846,300707,,*15
$GPGSA,A,3,09,12,05,14,30,33,,,,,,,9.6,4.8,8.3*33
$GPGSV,3,1,11,09,75,123,32,12,69,261,30,05,48,259,35,14,28,313,12*77
$GPGSV,3,2,11,17,20,043,00,04,13,094,00,22,08,274,00,26,05,169,00*76
$GPGSV,3,3,11,02,06,127,00,30,30,254,16,33,07,250,00*4D
$GPGGA,153217,4933.9944,N,01054.9331,E,1,04,4.80,311.0,M,47.423,M,,*79
$GPRMC,153217,A,4933.9944,N,01054.9331,E,22.9341,149.361,300707,,*1F
$GPGSA,A,3,09,12,05,14,,,,,,,,,5.3,2.9,4.5*34
$GPGSV,3,1,11,09,75,123,34,12,69,261,32,05,48,259,37,14,28,313,12*71
$GPGSV,3,2,11,17,20,043,00,04,13,094,00,22,08,274,00,26,05,169,00*76
$GPGSV,3,3,11,02,06,127,00,30,30,254,20,33,07,250,00*48
$GPGGA,153218,4933.9878,N,01054.9366,E,1,06,2.90,312.1,M,47.423,M,,*7D
$GPRMC,153218,A,4933.9878,N,01054.9366,E,22.6845,158.830,300707,,*13
$GPGSA,A,3,09,12,05,14,30,33,,,,,,,9.6,4.8,8.3*33
$GPGSV,3,1,11,09,75,123,34,12,69,261,29,05,48,259,29,14,28,313,12*74
$GPGSV,3,2,11,17,20,043,00,04,14,094,00,22,08,274,00,26,05,169,00*71
$GPGSV,3,3,11,02,06,127,00,30,30,254,14,33,07,250,00*4F
$GPGGA,153219,4933.9829,N,01054.9397,E,1,04,4.80,312.0,M,47.423,M,,*72
$GPRMC,153219,A,4933.9829,N,01054.9397,E,23.4255,170.334,300707,,*15
$GPGSA,A,3,09,12,05,14,,,,,,,,,8.7,8.6,0.9*30
$GPGSV,3,1,11,09,75,123,31,12,69,261,24,05,48,259,32,14,28,313,09*7C
$GPGSV,3,2,11,17,20,043,00,04,14,094,00,22,08,274,00,26,05,169,00*71
$GPGSV,3,3,11,02,06,127,00,30,30,254,16,33,07,250,00*4D
$GPGGA,153220,4933.9759,N,01054.9407,E,1,04,8.60,311.2,M,47.423,M,,*7D
$GPRMC,153220,A,4933.9759,N,01054.9407,E,24.3341,179.884,300707,,*14
$GPGSA,A,3,09,12,05,30,,,,,,,,,5.3,2.9,4.5*32
$GPGSV,3,1,11,09,75,123,29,12,69,261,32,05,49,259,31,14,28,313,13*7B
$GPGSV,3,2,11,17,20,043,00,04,14,094,00,22,08,274,00,26,05,169,00*71
$GPGSV,3,3,11,02,06,127,00,30,30,254,21,47,07,250,00*4A
$GPGGA,153221,4933.9690,N,01054.9400,E,1,05,2.90,311.6,M,47.423,M,,*7F
$GPRMC,153221,A,4933.9690,N,01054.9400,E,24.7858,184.916,300707,,*19
$GPGSA,A,3,09,12,05,14,30,,,,,,,,9.6,4.8,8.3*33
$GPGSV,3,1,11,09,75,123,26,12,69,261,32,05,49,259,28,14,28,313,16*79
$GPGSV,3,2,11,17,20,043,16,04,14,094,00,22,08,274,00,26,05,169,00*76
$GPGSV,3,3,11,02,06,127,00,30,30,254,16,47,07,250,00*4E
$GPRMC,153222,A,4933.9626,N,01054.9386,E,24.7418,193.527,300707,,*1E
$GPGSA,A,2,09,12,05,14,47,,,,,,,,9.6,4.8,8.3*32
$GPGSV,3,1,11,09,75,123,26,12,69,261,24,05,49,259,23,14,28,313,12*71
$GPGSV,3,2,11,17,20,043,15,04,14,094,00,22,08,274,00,26,05,169,00*75
$GPGSV,3,3,11,02,06,127,00,30,30,254,14,47,07,250,00*4C
$GPGGA,153223,4933.9555,N,01054.9362,E,1,02,4.80,310.7,M,47.423,M,,*74
$GPRMC,153223,A,4933.9555,N,01054.9362,E,21.0871,196.840,300707,,*1A
$GPGSA,A,3,09,12,,,,,,,,,,,6.6,3.8,5.4*32
$GPGSV,3,1,11,09,75,123,26,12,69,261,24,05,49,259,21,14,28,313,14*75
$GPGSV,3,2,11,17,20,043,15,04,14,094,00,22,08,274,00,26,05,169,00*75
$GPGSV,3,3,11,02,06,127,00,30,30,254,08,47,07,250,00*41
$GPGGA,153224,4933.9499,N,01054.9341,E,1,05,3.80,310.3,M,47.423,M,,*77
$GPRMC,153224,A,4933.9499,N,01054.9341,E,17.7283,196.577,300707,,*11
$GPGSA,A,3,09,12,05,14,17,,,,,,,,5.2,4.0,3.2*3C
$GPGSV,3,1,11,09,74,124,25,12,69,261,24,05,49,259,26,14,28,313,09*7B
$GPGSV,3,2,11,17,20,043,15,04,14,094,00,22,08,274,00,26,05,169,00*75
$GPGSV,3,3,11,02,06,127,00,30,30,254,20,47,07,250,00*4B
$GPGGA,153225,4933.9447,N,01054.9322,E,1,05,4.00,309.3,M,47.423,M,,*77
$GPRMC,153225,A,4933.9447,N,01054.9322,E,17.3550,194.726,300707,,*1F
$GPGSA,A,3,09,12,05,17,30,,,,,,,,5.2,4.0,3.2*3A
$GPGSV,3,1,11,09,74,124,26,12,69,261,26,05,49,259,28,14,28,313,07*7A
$GPGSV,3,2,11,17,20,043,12,04,14,094,00,22,08,274,00,26,05,169,00*72
$GPGSV,3,3,11,02,06,127,00,30,30,254,22,47,07,250,00*49
$GPGGA,153226,4933.9394,N,01054.9311,E,1,05,4.00,308.4,M,47.423,M,,*7B
$GPRMC,153226,A,4933.9394,N,01054.9311,E,17.3775,195.358,300707,,*1C
$GPGSA,A,3,09,12,05,17,30,,,,,,,,5.3,2.9,4.5*34
$GPGSV,3,1,11,09,74,124,26,12,69,261,28,05,49,259,25,14,28,313,11*7E
$GPGSV,3,2,11,17,20,043,07,04,14,094,00,22,08,274,00,26,05,169,00*76
$GPGSV,3,3,11,02,06,127,00,30,30,254,22,47,07,250,00*49
$GPGGA,153227,4933.9347,N,01054.9285,E,1,06,2.90,306.7,M,47.423,M,,*79
$GPRMC,153227,A,4933.9347,N,01054.9285,E,18.8470,195.683,300707,,*1E
$GPGSA,A,3,09,12,05,14,30,47,,,,,,,5.3,2.9,4.5*34
$GPGSV,3,1,11,09,74,124,26,12,70,262,28,05,49,259,25,14,28,313,13*77
$GPGSV,3,2,11,17,20,043,05,04,14,094,00,22,08,274,00,26,05,169,00*74
$GPGSV,3,3,11,02,06,127,00,30,30,254,23,47,07,250,00*48
$GPGGA,153228,4933.9306,N,01054.9268,E,1,05,2.90,306.6,M,47.423,M,,*72
$GPRMC,153228,A,4933.9306,N,01054.9268,E,19.9242,195.693,300707,,*11
$GPGSA,A,3,09,12,05,14,30,,,,,,,,8.6,8.5,0.9*31
$GPGSV,3,1,11,09,74,124,24,12,70,262,29,05,49,259,25,14,28,313,08*7E
$GPGSV,3,2,11,17,20,043,07,04,14,094,00,22,08,274,00,26,05,169,00*76
$GPGSV,3,3,11,02,06,127,00,30,30,254,24,47,07,250,00*4F
$GPGGA,153229,4933.9246,N,01054.9255,E,1,05,8.50,305.6,M,47.423,M,,*7D
$GPRMC,153229,A,4933.9246,N,01054.9255,E,20.2923,189.982,300707,,*14
$GPGSA,A,3,09,12,05,30,47,,,,,,,,3.3,2.0,2.5*38
$GPGSV,3,1,11,09,74,124,24,12,70,262,31,05,49,259,27,14,28,313,12*7E
$GPGSV,3,2,11,17,20,043,12,04,14,094,00,22,08,274,00,26,05,169,00*72
$GPGSV,3,3,11,02,06,127,00,30,30,254,27,47,07,250,00*4C
$GPGGA,153230,4933.9190,N,01054.9234,E,1,06,2.00,305.2,M,47.423,M,,*72
$GPRMC,153230,A,4933.9190,N,01054.9234,E,19.5956,190.012,300707,,*14
$GPGSA,A,3,09,12,05,14,17,30,,,,,,,3.3,2.0,2.5*38
$GPGSV,3,1,11,09,74,124,24,12,70,262,30,05,49,259,28,14,28,313,16*74
$GPGSV,3,2,11,17,19,043,12,04,14,094,00,22,08,274,00,26,05,169,00*78
$GPGSV,3,3,11,02,06,127,00,30,30,254,25,47,07,250,00*4E
$GPGGA,153231,4933.9136,N,01054.9222,E,1,06,2.00,305.8,M,47.423,M,,*72
$GPRMC,153231,A,4933.9136,N,01054.9222,E,19.0167,197.201,300707,,*16
$GPGSA,A,3,09,12,05,14,17,30,,,,,,,5.1,4.0,3.2*3C
$GPGSV,3,1,11,09,74,124,25,12,70,262,29,05,49,259,23,14,28,313,12*72
$GPGSV,3,2,11,17,19,043,14,04,14,094,00,22,08,274,00,26,05,169,00*7E
$GPGSV,3,3,11,02,06,127,00,30,30,254,27,47,07,250,00*4C
$GPGGA,153232,4933.9085,N,01054.9195,E,1,05,4.00,304.6,M,47.423,M,,*7D
$GPRMC,153232,A,4933.9085,N,01054.9195,E,19.9497,196.242,300707,,*16
$GPGSA,A,3,09,12,05,17,30,,,,,,,,3.3,2.0,2.5*3D
$GPGSV,3,1,11,09,74,124,24,12,70,262,29,05,49,259,22,14,28,313,15*75
$GPGSV,3,2,11,17,19,043,15,04,14,094,00,22,08,274,00,26,05,169,00*7F
$GPGSV,3,3,11,02,06,127,00,30,30,254,25,47,07,250,00*4E
$GPGGA,153233,4933.9021,N,01054.9180,E,1,06,2.00,304.3,M,47.423,M,,*76
$GPRMC,153233,A,4933.9021,N,01054.9180,E,20.2877,189.437,300707,,*14
$GPGSA,A,3,09,12,05,14,17,30,,,,,,,3.3,2.0,2.6*3B
$GPGSV,3,1,11,09,74,124,23,12,70,262,30,05,49,259,24,14,28,313,16*7F
$GPGSV,3,2,11,17,19,043,13,04,14,094,00,22,08,274,00,26,05,169,00*79
$GPGSV,3,3,11,02,06,127,00,30,30,254,24,47,07,250,00*4F
$GPGGA,153234,4933.8960,N,01054.9176,E,1,06,2.00,303.4,M,47.423,M,,*75
$GPRMC,153234,A,4933.8960,N,01054.9176,E,21.9310,187.813,300707,,*13
$GPGSA,A,3,09,12,05,14,17,30,,,,,,,5.3,2.9,4.5*31
$GPGSV,3,1,11,09,74,124,23,12,70,262,32,05,49,259,23,14,28,313,17*7B
$GPGSV,3,2,11,17,19,043,08,04,14,094,00,22,08,274,00,26,05,169,00*73
$GPGSV,3,3,11,02,06,127,00,30,30,254,19,47,07,250,00*41
$GPGGA,153235,4933.8896,N,01054.9162,E,1,06,2.90,303.1,M,47.423,M,,*75
$GPRMC,153235,A,4933.8896,N,01054.9162,E,21.1879,192.591,300707,,*10
$GPGSA,A,3,09,12,05,14,30,47,,,,,,,2.0,1.8,0.9*3A
$GPGSV,3,1,11,09,74,124,23,12,70,262,26,05,49,259,15,14,28,313,16*7A
$GPGSV,3,2,11,17,19,043,12,04,14,094,00,22,08,274,00,26,05,169,00*78
$GPGSV,3,3,11,02,06,127,00,30,30,254,12,47,07,250,00*4A
$GPGGA,153236,4933.8840,N,01054.9141,E,1,05,1.80,302.7,M,47.423,M,,*7A
$GPRMC,153236,A,4933.8840,N,01054.9141,E,22.7800,186.909,300707,,*1A
$GPGSA,A,3,09,12,14,17,47,,,,,,,,9.2,6.3,6.7*37
$GPGSV,3,1,11,09,74,124,23,12,70,262,31,05,49,259,21,14,28,313,09*75
$GPGSV,3,2,11,17,19,043,14,04,14,094,00,22,08,274,00,26,05,169,00*7E
$GPGSV,3,3,11,02,06,127,00,30,30,254,07,47,07,250,00*4E
$GPGGA,153237,4933.8775,N,01054.9135,E,1,05,6.30,302.5,M,47.423,M,,*7F
$GPRMC,153237,A,4933.8775,N,01054.9135,E,22.0666,186.249,300707,,*17
$GPGSA,A,3,09,12,05,17,47,,,,,,,,9.2,6.3,6.7*37
$GPGSV,3,1,11,09,74,124,23,12,70,262,30,05,49,259,15,14,28,313,06*7C
$GPGSV,3,2,11,17,19,043,14,04,14,094,00,22,08,274,00,26,05,169,00*7E
$GPGSV,3,3,11,02,06,127,00,30,30,254,10,47,07,250,00*48
$GPGGA,153238,4933.8713,N,01054.9129,E,1,05,6.30,303.0,M,47.423,M,,*79
$GPRMC,153238,A,4933.8713,N,01054.9129,E,21.8160,186.321,300707,,*10
$GPGSA,A,3,09,12,05,17,47,,,,,,,,3.3,2.0,2.6*3E
$GPGSV,3,1,11,09,74,124,23,12,70,262,33,05,49,259,24,14,28,313,12*78
$GPGSV,3,2,11,17,19,043,14,04,14,094,00,22,08,274,00,26,05,169,00*7E
$GPGSV,3,3,11,02,06,127,00,30,30,254,17,47,07,250,00*4F
$GPGGA,153239,4933.8648,N,01054.9123,E,1,06,2.00,302.8,M,47.423,M,,*70
$GPRMC,153239,A,4933.8648,N,01054.9123,E,22.5057,185.338,300707,,*14
$GPGSA,A,3,09,12,05,14,17,30,,,,,,,3.3,2.0,2.6*3B
$GPGSV,3,1,11,09,74,124,23,12,70,262,35,05,49,259,27,14,28,313,15*7A
$GPGSV,3,2,11,17,19,043,14,04,14,094,00,22,08,274,00,26,05,169,00*7E
$GPGSV,3,3,11,02,06,127,00,30,30,254,21,47,07,250,00*4A
$GPGGA,153240,4933.8576,N,01054.9107,E,1,06,2.00,302.3,M,47.423,M,,*7D
$GPRMC,153240,A,4933.8576,N,01054.9107,E,23.6449,184.600,300707,,*14
$GPGSA,A,3,09,12,05,14,17,30,,,,,,,9.5,4.7,8.2*38
$GPGSV,3,1,11,09,74,124,23,12,70,262,37,05,49,259,29,14,28,313,14*77
$GPGSV,3,2,11,17,19,043,08,04,14,094,00,22,08,274,00,26,05,169,00*73
$GPGSV,3,3,11,02,06,127,00,30,30,254,13,47,07,250,00*4B
$GPGGA,153241,4933.8503,N,01054.9108,E,1,05,4.70,302.0,M,47.423,M,,*70
$GPRMC,153241,A,4933.8503,N,01054.9108,E,24.5170,183.902,300707,,*19
$GPGSA,A,3,09,12,05,14,47,,,,,,,,5.1,4.0,3.2*3A
$GPGSV,3,1,11,09,74,124,24,12,70,262,37,05,49,259,30,14,28,313,10*7C
$GPGSV,3,2,11,17,19,043,11,04,14,094,00,22,08,274,00,26,05,169,00*7B
