{"class":"VERSION","release":"2.92","rev":"svn","proto_major":3,"proto_minor":1}
{"class":"DEVICES","devices":[{"class":"DEVICE","path":"/dev/ttyUSB0","activated":1295021902.26,"flags":1,"driver":"SiRF binary","subtype":"GSW3.5.0_3.5.00.00-SDK-3EP2.01 ","native":1,"bps":4800,"parity":"N","stopbits":1,"cycle":1.00}]}
{"class":"WATCH","enable":true,"json":false,"nmea":true,"raw":0,"scaled":false,"timing":false}
$GPGGA,161822,5000.2476,N,00839.4455,E,1,10,0.80,122.98,M,47.863,M,,*4B
$GPRMC,161822,A,5000.2476,N,00839.4455,E,0.0000,0.000,140111,,*27
$GPGSA,A,3,23,04,02,20,13,10,07,32,16,30,,,0.0,0.8,0.0*3E
$GPGSV,3,1,11,02,28,307,39,23,64,061,41,04,55,273,40,20,35,108,40*73
$GPGSV,3,2,11,07,19,175,35,16,06,075,28,10,33,289,38,13,77,228,42*7E
$GPGSV,3,3,11,32,10,102,35,30,09,057,32,126,30,159,32*7F
$GPGGA,161823,5000.2476,N,00839.4455,E,1,10,0.80,122.98,M,47.863,M,,*4A
$GPRMC,161823,A,5000.2476,N,00839.4455,E,0.0000,0.000,140111,,*26
$GPGSA,A,3,23,04,02,20,13,10,07,32,16,30,,,1.6,0.8,1.2*3A
$GPGGA,161824,5000.2476,N,00839.4463,E,1,10,0.80,123.07,M,47.863,M,,*4F
$GPRMC,161824,A,5000.2476,N,00839.4463,E,0.0000,0.000,140111,,*24
$GPGSA,A,3,23,04,02,20,13,10,07,32,16,30,,,0.0,0.8,0.0*3E
$GPGGA,161825,5000.2476,N,00839.4463,E,1,10,0.80,123.07,M,47.863,M,,*4E
$GPRMC,161825,A,5000.2476,N,00839.4463,E,0.0000,0.000,140111,,*25
$GPGSA,A,3,23,04,02,20,13,10,07,32,16,30,,,0.0,0.8,0.0*3E
$GPGSV,3,1,11,02,28,307,39,23,64,061,42,04,55,273,40,20,35,108,40*70
$GPGSV,3,2,11,07,19,175,35,16,06,075,28,10,33,289,38,13,77,228,42*7E
$GPGSV,3,3,11,32,10,102,35,30,09,057,32,126,30,159,33*7E
$GPGGA,161826,5000.2476,N,00839.4463,E,1,10,0.80,123.07,M,47.863,M,,*4D
$GPRMC,161826,A,5000.2476,N,00839.4463,E,0.0000,0.000,140111,,*26
$GPGSA,A,3,23,04,02,20,13,10,07,32,16,30,,,1.6,0.8,1.2*3A
$GPGGA,161827,5000.2476,N,00839.4463,E,1,10,0.80,123.07,M,47.863,M,,*4C
$GPRMC,161827,A,5000.2476,N,00839.4463,E,0.0000,0.000,140111,,*27
$GPGSA,A,3,23,04,02,20,13,10,07,32,16,30,,,0.0,0.8,0.0*3E
$GPGGA,161828,5000.2476,N,00839.4463,E,1,10,0.80,123.07,M,47.863,M,,*43
$GPRMC,161828,A,5000.2476,N,00839.4463,E,0.0000,0.000,140111,,*28
$GPGSA,A,3,23,04,02,20,13,10,07,32,16,30,,,0.0,0.8,0.0*3E
$GPGSV,3,1,11,02,28,307,39,23,64,061,43,04,55,273,39,20,35,108,40*7F
$GPGSV,3,2,11,07,19,175,35,16,06,075,27,10,33,289,38,13,77,228,42*71
$GPGSV,3,3,11,32,10,102,35,30,09,057,33,126,30,159,32*7E
$GPGGA,161829,5000.2479,N,00839.4463,E,1,10,0.80,123.84,M,47.863,M,,*46
$GPRMC,161829,A,5000.2479,N,00839.4463,E,0.0000,0.000,140111,,*26
$GPGSA,A,3,23,04,02,20,13,10,07,32,16,30,,,1.6,0.8,1.2*3A
$GPGGA,161830,5000.2479,N,00839.4463,E,1,10,0.80,123.84,M,47.863,M,,*4E
$GPRMC,161830,A,5000.2479,N,00839.4463,E,0.0000,0.000,140111,,*2E
$GPGSA,A,3,23,04,02,20,13,10,07,32,16,30,,,0.0,0.8,0.0*3E
$GPGGA,161831,5000.2479,N,00839.4463,E,1,10,0.80,123.84,M,47.863,M,,*4F
$GPRMC,161831,A,5000.2479,N,00839.4463,E,0.0000,0.000,140111,,*2F
$GPGSA,A,3,23,04,02,20,13,10,07,32,16,30,,,0.0,0.8,0.0*3E
$GPGSV,3,1,11,02,28,307,39,23,64,061,42,04,55,273,39,20,35,108,40*7E
$GPGSV,3,2,11,07,19,175,35,16,06,075,27,10,33,289,38,13,77,228,42*71
$GPGSV,3,3,11,32,10,102,35,30,09,057,33,126,30,159,32*7E
$GPGGA,161832,5000.2479,N,00839.4463,E,1,10,0.80,123.84,M,47.863,M,,*4C
$GPRMC,161832,A,5000.2479,N,00839.4463,E,0.0000,0.000,140111,,*2C
$GPGSA,A,3,23,04,02,20,13,10,07,32,16,30,,,1.6,0.8,1.2*3A
$GPGGA,161833,5000.2479,N,00839.4463,E,1,10,0.80,123.84,M,47.863,M,,*4D
$GPRMC,161833,A,5000.2479,N,00839.4463,E,0.0000,0.000,140111,,*2D
$GPGSA,A,3,23,04,02,20,13,10,07,32,16,30,,,0.0,0.8,0.0*3E
$GPGGA,161834,5000.2479,N,00839.4463,E,1,10,0.80,123.84,M,47.863,M,,*4A
$GPRMC,161834,A,5000.2479,N,00839.4463,E,0.0000,0.000,140111,,*2A
$GPGSA,A,3,23,04,02,20,13,10,07,32,16,30,,,0.0,0.8,0.0*3E
$GPGSV,3,1,11,02,28,307,39,23,64,061,42,04,55,273,39,20,35,108,40*7E
$GPGSV,3,2,11,07,19,175,35,16,06,075,26,10,33,289,38,13,77,228,42*70
$GPGSV,3,3,11,32,10,102,35,30,09,057,33,126,30,159,31*7D
$GPGGA,161835,5000.2479,N,00839.4463,E,1,10,0.80,123.84,M,47.863,M,,*4B
$GPRMC,161835,A,5000.2479,N,00839.4463,E,0.0000,0.000,140111,,*2B
$GPGSA,A,3,23,04,02,20,13,10,07,32,16,30,,,1.6,0.8,1.2*3A
$GPGGA,161836,5000.2479,N,00839.4463,E,1,10,0.80,123.84,M,47.863,M,,*48
$GPRMC,161836,A,5000.2479,N,00839.4463,E,0.2418,96.653,140111,,*18
$GPGSA,A,3,23,04,02,20,13,10,07,32,16,30,,,0.0,0.8,0.0*3E
$GPGGA,161837,5000.2479,N,00839.4472,E,1,10,0.80,123.93,M,47.863,M,,*4F
$GPRMC,161837,A,5000.2479,N,00839.4472,E,1.7850,79.409,140111,,*11
$GPGSA,A,3,23,04,02,20,13,10,07,32,16,30,,,0.0,0.8,0.0*3E
$GPGSV,3,1,11,02,28,307,39,23,64,061,43,04,55,273,39,20,35,108,40*7F
$GPGSV,3,2,11,07,19,175,28,16,06,075,26,10,33,289,38,13,77,228,42*7C
$GPGSV,3,3,11,32,10,102,31,30,09,057,33,126,30,159,30*78
$GPGGA,161838,5000.2482,N,00839.4489,E,1,10,0.80,123.49,M,47.863,M,,*47
$GPRMC,161838,A,5000.2482,N,00839.4489,E,4.2684,82.297,140111,,*1C
$GPGSA,A,3,23,04,02,20,13,10,07,32,16,30,,,1.6,0.8,1.2*3A
$GPGGA,161839,5000.2480,N,00839.4514,E,1,10,0.80,123.78,M,47.863,M,,*43
$GPRMC,161839,A,5000.2480,N,00839.4514,E,6.9150,87.582,140111,,*1B
$GPGSA,A,3,23,04,02,20,13,10,07,32,16,30,,,0.0,0.8,0.0*3E
$GPGGA,161840,5000.2481,N,00839.4557,E,1,10,0.80,123.63,M,47.863,M,,*41
$GPRMC,161840,A,5000.2481,N,00839.4557,E,9.2802,92.030,140111,,*11
$GPGSA,A,3,23,04,02,20,13,10,07,32,16,30,,,0.0,0.8,0.0*3E
$GPGSV,3,1,11,02,28,307,35,23,64,061,43,04,55,273,39,20,35,108,40*73
$GPGSV,3,2,11,07,19,175,35,16,06,075,19,10,33,289,37,13,78,229,42*7D
$GPGSV,3,3,11,32,10,102,32,30,09,057,24,126,30,159,30*7D
$GPGGA,161841,5000.2478,N,00839.4598,E,1,10,0.80,124.12,M,47.863,M,,*44
$GPRMC,161841,A,5000.2478,N,00839.4598,E,9.5381,94.022,140111,,*17
$GPGSA,A,3,23,04,02,20,13,10,07,32,16,30,,,1.6,0.8,1.2*3A
$GPGGA,161842,5000.2479,N,00839.4633,E,1,10,0.80,123.87,M,47.863,M,,*4F
$GPRMC,161842,A,5000.2479,N,00839.4633,E,9.5163,95.143,140111,,*1E
$GPGSA,A,3,23,04,02,20,13,10,07,32,16,30,,,0.0,0.8,0.0*3E
$GPGGA,161843,5000.2476,N,00839.4674,E,1,10,0.80,124.35,M,47.863,M,,*4C
$GPRMC,161843,A,5000.2476,N,00839.4674,E,9.2564,96.259,140111,,*1C
$GPGSA,A,3,23,04,02,20,13,10,07,32,16,30,,,0.0,0.8,0.0*3E
$GPGSV,3,1,10,02,28,307,35,23,64,061,43,04,55,273,39,20,35,108,40*72
$GPGSV,3,2,10,07,19,175,35,16,06,075,23,10,33,289,37,13,78,229,41*76
$GPGSV,3,3,10,32,10,102,33,30,09,057,22*73
$GPGGA,161844,5000.2477,N,00839.4717,E,1,10,0.80,124.20,M,47.863,M,,*4A
$GPRMC,161844,A,5000.2477,N,00839.4717,E,9.0204,94.074,140111,,*12
$GPGSA,A,3,23,04,02,20,13,10,07,32,16,30,,,1.6,0.8,1.2*3A
$GPGGA,161845,5000.2474,N,00839.4750,E,1,10,0.80,124.59,M,47.863,M,,*45
$GPRMC,161845,A,5000.2474,N,00839.4750,E,8.7982,91.776,140111,,*10
$GPGSA,A,3,23,04,02,20,13,10,07,32,16,30,,,0.0,0.8,0.0*3E
$GPGGA,161846,5000.2476,N,00839.4784,E,1,10,0.80,124.34,M,47.863,M,,*46
$GPRMC,161846,A,5000.2476,N,00839.4784,E,7.0807,92.109,140111,,*11
$GPGSA,A,3,23,04,02,20,13,10,07,32,16,30,,,0.0,0.8,0.0*3E
$GPGSV,3,1,12,02,28,307,36,23,64,061,43,04,55,273,39,20,35,108,40*73
$GPGSV,3,2,12,07,19,175,29,16,06,075,23,10,33,289,37,13,78,229,41*79
$GPGSV,3,3,12,32,10,102,33,30,09,057,28,17,03,222,22,120,28,210,26*42
$GPGGA,161847,5000.2467,N,00839.4799,E,1,10,0.80,124.40,M,47.863,M,,*48
$GPRMC,161847,A,5000.2467,N,00839.4799,E,4.9195,104.274,140111,,*23
$GPGSA,A,3,23,04,02,20,13,10,07,32,16,30,,,1.6,0.8,1.2*3A
$GPGGA,161848,5000.2466,N,00839.4816,E,1,10,0.80,124.59,M,47.863,M,,*46
$GPRMC,161848,A,5000.2466,N,00839.4816,E,3.9627,119.267,140111,,*22
$GPGSA,A,3,23,04,02,20,13,10,07,32,16,30,,,0.0,0.8,0.0*3E
$GPGGA,161849,5000.2458,N,00839.4823,E,1,10,0.80,124.56,M,47.863,M,,*43
$GPRMC,161849,A,5000.2458,N,00839.4823,E,3.0744,134.770,140111,,*29
$GPGSA,A,3,23,04,02,20,13,10,07,32,16,30,,,0.0,0.8,0.0*3E
$GPGSV,3,1,12,02,28,307,36,23,64,061,44,04,55,273,39,20,35,108,31*72
$GPGSV,3,2,12,07,19,175,32,16,06,075,14,10,33,289,37,13,78,229,36*77
$GPGSV,3,3,12,32,10,102,33,30,09,057,22,17,03,222,00,120,28,210,24*4A
$GPGGA,161850,5000.2457,N,00839.4831,E,1,10,0.80,124.66,M,47.863,M,,*44
$GPRMC,161850,A,5000.2457,N,00839.4831,E,2.0018,141.050,140111,,*25
$GPGSA,A,3,23,04,02,20,13,10,07,32,16,30,,,1.6,0.8,1.2*3A
$GPGGA,161851,5000.2457,N,00839.4831,E,1,09,0.80,124.66,M,47.863,M,,*4D
$GPRMC,161851,A,5000.2457,N,00839.4831,E,0.4299,157.131,140111,,*28
$GPGSA,A,3,23,04,02,20,13,10,07,32,30,,,,0.0,0.8,0.0*39
$GPGGA,161852,5000.2457,N,00839.4831,E,1,09,0.80,124.66,M,47.863,M,,*4E
$GPRMC,161852,A,5000.2457,N,00839.4831,E,0.1562,0.000,140111,,*2D
$GPGSA,A,3,23,04,02,20,13,10,07,32,30,,,,0.0,0.8,0.0*39
$GPGSV,3,1,10,02,28,307,37,23,64,061,44,04,55,273,39,20,35,108,34*74
$GPGSV,3,2,10,07,19,175,32,10,33,289,36,13,78,229,37,32,10,102,31*72
$GPGSV,3,3,10,30,09,057,23,120,28,210,25*4C
$GPGGA,161853,5000.2457,N,00839.4840,E,1,09,0.80,124.75,M,47.863,M,,*4B
$GPRMC,161853,A,5000.2457,N,00839.4840,E,0.1562,0.000,140111,,*2A
$GPGSA,A,3,23,04,02,20,13,10,07,32,30,,,,1.6,0.8,1.3*3C
$GPGGA,161854,5000.2457,N,00839.4840,E,1,09,0.80,124.75,M,47.863,M,,*4C
$GPRMC,161854,A,5000.2457,N,00839.4840,E,0.0460,232.712,140111,,*28
$GPGSA,A,3,23,04,02,20,13,10,07,32,30,,,,0.0,0.8,0.0*39
$GPGGA,161855,5000.2457,N,00839.4840,E,1,09,0.80,124.75,M,47.863,M,,*4D
$GPRMC,161855,A,5000.2457,N,00839.4840,E,0.1562,0.000,140111,,*2C
$GPGSA,A,3,23,04,02,20,13,10,07,32,30,,,,0.0,0.8,0.0*39
$GPGSV,3,1,10,02,28,307,37,23,64,061,45,04,55,273,39,20,35,108,34*75
$GPGSV,3,2,10,07,19,175,33,10,33,289,36,13,78,229,38,32,10,102,29*75
$GPGSV,3,3,10,30,09,057,23,120,28,210,26*4F
$GPGGA,161856,5000.2456,N,00839.4838,E,1,09,0.80,126.15,M,47.863,M,,*44
$GPRMC,161856,A,5000.2456,N,00839.4838,E,0.0460,232.712,140111,,*24
$GPGSA,A,3,23,04,02,20,13,10,07,32,30,,,,1.6,0.8,1.3*3C
$GPGGA,161857,5000.2456,N,00839.4838,E,1,09,0.80,126.15,M,47.863,M,,*45
$GPRMC,161857,A,5000.2456,N,00839.4838,E,0.1562,0.000,140111,,*20
$GPGSA,A,3,23,04,02,20,13,10,07,32,30,,,,0.0,0.8,0.0*39
$GPGGA,161858,5000.2456,N,00839.4838,E,1,09,0.80,126.15,M,47.863,M,,*4A
$GPRMC,161858,A,5000.2456,N,00839.4838,E,0.0460,232.712,140111,,*2A
$GPGSA,A,3,23,04,02,20,13,10,07,32,30,,,,0.0,0.8,0.0*39
$GPGSV,3,1,10,02,28,307,38,23,64,061,45,04,55,273,39,20,35,108,34*7A
$GPGSV,3,2,10,07,19,175,34,10,33,289,36,13,78,229,38,32,10,102,30*7A
$GPGSV,3,3,10,30,09,057,23,120,28,210,24*4D
$GPGGA,161859,5000.2456,N,00839.4838,E,1,09,0.80,126.15,M,47.863,M,,*4B
$GPRMC,161859,A,5000.2456,N,00839.4838,E,0.0460,232.712,140111,,*2B
$GPGSA,A,3,23,04,02,20,13,10,07,32,30,,,,1.6,0.8,1.3*3C
$GPGGA,161900,5000.2456,N,00839.4838,E,1,09,0.80,126.15,M,47.863,M,,*46
$GPRMC,161900,A,5000.2456,N,00839.4838,E,1.2698,153.109,140111,,*28
$GPGSA,A,3,23,04,02,20,13,10,07,32,30,,,,0.0,0.8,0.0*39
$GPGGA,161901,5000.2447,N,00839.4854,E,1,09,0.80,126.22,M,47.863,M,,*49
$GPRMC,161901,A,5000.2447,N,00839.4854,E,3.7120,140.728,140111,,*27
$GPGSA,A,3,23,04,02,20,13,10,07,32,30,,,,0.0,0.8,0.0*39
$GPGSV,3,1,09,02,28,307,34,23,64,061,45,04,55,273,39,20,35,108,39*73
$GPGSV,3,2,09,07,19,175,34,10,33,289,30,13,78,229,38,32,10,102,25*70
$GPGSV,3,3,09,30,09,057,23*49
$GPGGA,161902,5000.2431,N,00839.4859,E,1,09,0.80,126.05,M,47.863,M,,*43
$GPRMC,161902,A,5000.2431,N,00839.4859,E,6.3486,156.801,140111,,*23
$GPGSA,A,3,23,04,02,20,13,10,07,32,30,,,,1.6,0.8,1.3*3C
$GPGGA,161903,5000.2408,N,00839.4864,E,1,09,0.80,125.76,M,47.863,M,,*41
$GPRMC,161903,A,5000.2408,N,00839.4864,E,8.2682,174.677,140111,,*20
$GPGSA,A,3,23,04,02,20,13,10,07,32,30,,,,0.0,0.8,0.0*39
$GPGGA,161904,5000.2389,N,00839.4860,E,1,09,0.80,126.13,M,47.863,M,,*4C
$GPRMC,161904,A,5000.2389,N,00839.4860,E,8.6174,186.581,140111,,*20
$GPGSA,A,3,23,04,02,20,13,10,07,32,30,,,,0.0,0.8,0.0*39
$GPGSV,3,1,11,02,28,307,34,23,64,061,38,04,55,273,37,20,35,108,39*7E
$GPGSV,3,2,11,07,19,175,35,16,06,075,22,10,33,289,32,13,78,229,42*70
$GPGSV,3,3,11,32,10,102,25,30,09,057,22,120,28,210,25*78
$GPGGA,161905,5000.2359,N,00839.4855,E,1,10,0.80,125.61,M,47.863,M,,*48
$GPRMC,161905,A,5000.2359,N,00839.4855,E,9.6438,186.534,140111,,*28
$GPGSA,A,3,23,04,02,20,13,10,07,32,16,30,,,1.6,0.8,1.2*3A
$GPGGA,161906,5000.2332,N,00839.4850,E,1,10,0.80,125.85,M,47.863,M,,*49
$GPRMC,161906,A,5000.2332,N,00839.4850,E,10.4871,185.089,140111,,*18
$GPGSA,A,3,23,04,02,20,13,10,07,32,16,30,,,0.0,0.8,0.0*3E
$GPGGA,161907,5000.2302,N,00839.4845,E,1,10,0.80,125.33,M,47.863,M,,*42
$GPRMC,161907,A,5000.2302,N,00839.4845,E,10.4965,183.769,140111,,*15
$GPGSA,A,3,23,04,02,20,13,10,07,32,16,30,,,0.0,0.8,0.0*3E
$GPGSV,3,1,10,02,28,307,22,23,64,061,38,04,55,273,28,20,35,108,40*78
$GPGSV,3,2,10,07,19,175,23,16,06,075,22,10,33,289,25,13,78,229,42*70
$GPGSV,3,3,10,32,10,102,26,30,09,057,23*76
$GPGGA,161908,5000.2274,N,00839.4848,E,1,10,0.80,125.67,M,47.864,M,,*46
$GPRMC,161908,A,5000.2274,N,00839.4848,E,10.8687,184.027,140111,,*12
$GPGSA,A,3,23,04,02,20,13,10,07,32,16,30,,,1.6,0.8,1.2*3A
$GPGGA,161909,5000.2244,N,00839.4843,E,1,09,1.00,125.15,M,47.864,M,,*4B
$GPRMC,161909,A,5000.2244,N,00839.4843,E,10.6703,186.495,140111,,*17
$GPGSA,A,3,23,04,02,20,13,07,32,16,30,,,,0.0,1.0,0.0*36
$GPGGA,161910,5000.2214,N,00839.4838,E,1,09,1.00,124.62,M,47.864,M,,*4B
$GPRMC,161910,A,5000.2214,N,00839.4838,E,10.6385,186.317,140111,,*11
$GPGSA,A,3,23,04,02,20,13,07,32,16,30,,,,0.0,1.0,0.0*36
$GPGSV,3,1,09,02,29,307,22,23,64,061,38,04,55,271,24,20,35,108,39*71
$GPGSV,3,2,09,07,20,175,26,16,06,075,26,13,78,229,42,32,10,102,26*71
$GPGSV,3,3,09,30,09,057,30*4B
$GPGGA,161911,5000.2180,N,00839.4832,E,1,09,1.00,124.74,M,47.864,M,,*49
$GPRMC,161911,A,5000.2180,N,00839.4832,E,12.5373,187.471,140111,,*1A
$GPGSA,A,3,23,04,02,20,13,07,32,16,30,,,,1.7,1.0,1.3*32
$GPGGA,161912,5000.2142,N,00839.4825,E,1,09,1.00,124.08,M,47.864,M,,*49
$GPRMC,161912,A,5000.2142,N,00839.4825,E,14.1236,186.543,140111,,*12
$GPGSA,A,3,23,04,02,20,13,07,32,16,30,,,,0.0,1.0,0.0*36
$GPGGA,161913,5000.2104,N,00839.4818,E,1,09,1.00,124.83,M,47.864,M,,*47
$GPRMC,161913,A,5000.2104,N,00839.4818,E,13.9684,186.616,140111,,*1E
$GPGSA,A,3,23,04,02,20,13,07,32,16,30,,,,0.0,1.0,0.0*36
$GPGSV,3,1,09,02,29,307,21,23,64,061,38,04,55,271,24,20,35,108,39*72
$GPGSV,3,2,09,07,20,175,26,16,06,075,26,13,78,229,42,32,10,102,27*70
$GPGSV,3,3,09,30,09,057,30*4B
$GPGGA,161914,5000.2066,N,00839.4812,E,1,09,1.00,124.18,M,47.864,M,,*4D
$GPRMC,161914,A,5000.2066,N,00839.4812,E,13.8133,186.691,140111,,*13
$GPGSA,A,3,23,04,02,20,13,07,32,16,30,,,,1.7,1.0,1.3*32
$GPGGA,161915,5000.2024,N,00839.4804,E,1,09,1.00,124.16,M,47.864,M,,*43
$GPRMC,161915,A,5000.2024,N,00839.4804,E,14.8731,185.848,140111,,*19
$GPGSA,A,3,23,04,02,20,13,07,32,16,30,,,,0.0,1.0,0.0*36
$GPGGA,161916,5000.1986,N,00839.4796,E,1,09,1.00,124.91,M,47.864,M,,*49
$GPRMC,161916,A,5000.1986,N,00839.4796,E,14.4996,185.709,140111,,*19
$GPGSA,A,3,23,04,02,20,13,07,32,16,30,,,,0.0,1.0,0.0*36
$GPGSV,3,1,10,02,29,307,22,23,64,061,29,04,55,271,24,20,35,108,31*71
$GPGSV,3,2,10,07,20,175,26,16,06,075,26,10,33,289,24,13,78,229,42*7A
$GPGSV,3,3,10,32,10,102,27,30,09,057,30*75
$GPGGA,161917,5000.1948,N,00839.4790,E,1,10,0.80,124.26,M,47.864,M,,*41
$GPRMC,161917,A,5000.1948,N,00839.4790,E,12.5373,187.471,140111,,*14
$GPGSA,A,3,23,04,02,20,10,13,07,32,16,30,,,1.6,0.8,1.3*3B
$GPGGA,161918,5000.1910,N,00839.4784,E,1,10,0.80,123.60,M,47.864,M,,*43
$GPRMC,161918,A,5000.1910,N,00839.4784,E,13.5973,185.469,140111,,*13
$GPGSA,A,3,23,04,02,20,10,13,07,32,16,30,,,0.0,0.8,0.0*3E
$GPGGA,161919,5000.1876,N,00839.4778,E,1,10,0.80,123.71,M,47.864,M,,*40
$GPRMC,161919,A,5000.1876,N,00839.4778,E,12.3843,185.327,140111,,*18
$GPGSA,A,3,23,04,02,20,10,13,07,32,16,30,,,0.0,0.8,0.0*3E
$GPGSV,3,1,11,02,29,307,22,23,64,061,35,04,55,271,37,20,35,108,36*78
$GPGSV,3,2,11,07,20,175,25,16,06,075,25,10,33,289,27,13,78,229,42*78
$GPGSV,3,3,11,32,10,102,00,30,09,057,30,120,28,210,31*79
$GPGGA,161920,5000.1849,N,00839.4773,E,1,09,0.80,123.96,M,47.864,M,,*4C
$GPRMC,161920,A,5000.1849,N,00839.4773,E,8.8346,191.391,140111,,*23
$GPGSA,A,3,23,04,02,20,10,13,07,16,30,,,,1.7,0.8,1.3*3B
$GPGGA,161921,5000.1831,N,00839.4760,E,1,10,0.80,124.24,M,47.864,M,,*46
$GPRMC,161921,A,5000.1831,N,00839.4760,E,5.7775,208.804,140111,,*2D
$GPGSA,A,3,23,04,02,20,10,13,07,32,16,30,,,0.0,0.8,0.0*3E
$GPGGA,161922,5000.1824,N,00839.4751,E,1,10,0.80,124.01,M,47.864,M,,*44
$GPRMC,161922,A,5000.1824,N,00839.4751,E,5.0371,224.998,140111,,*25
$GPGSA,A,3,23,04,02,20,10,13,07,32,16,30,,,0.0,0.8,0.0*3E
$GPGSV,3,1,11,02,29,307,23,23,64,061,40,04,55,271,37,20,35,108,34*79
$GPGSV,3,2,11,07,20,175,30,16,06,075,23,10,33,289,34,13,78,229,42*78
$GPGSV,3,3,11,32,10,102,23,30,09,057,22,120,28,210,30*7A
$GPGGA,161923,5000.1814,N,00839.4724,E,1,10,0.80,124.22,M,47.864,M,,*45
$GPRMC,161923,A,5000.1814,N,00839.4724,E,4.8925,249.407,140111,,*27
$GPGSA,A,3,23,04,02,20,10,13,07,32,16,30,,,1.6,0.8,1.3*3B
$GPGGA,161924,5000.1812,N,00839.4707,E,1,10,0.80,123.26,M,47.864,M,,*46
$GPRMC,161924,A,5000.1812,N,00839.4707,E,4.9234,266.460,140111,,*21
$GPGSA,A,3,23,04,02,20,10,13,07,32,16,30,,,0.0,0.8,0.0*3E
$GPGGA,161925,5000.1818,N,00839.4674,E,1,10,0.80,123.64,M,47.864,M,,*4E
$GPRMC,161925,A,5000.1818,N,00839.4674,E,7.5079,279.265,140111,,*26
$GPGSA,A,3,23,04,02,20,10,13,07,32,16,30,,,0.0,0.8,0.0*3E
$GPGSV,3,1,11,02,29,307,23,23,64,061,41,04,55,271,40,20,35,108,36*7A
$GPGSV,3,2,11,07,20,175,31,16,06,075,16,10,33,289,35,13,78,229,42*7E
$GPGSV,3,3,11,32,10,102,22,30,09,057,22,120,28,210,30*7B
$GPGGA,161926,5000.1820,N,00839.4641,E,1,10,0.80,123.26,M,47.864,M,,*46
$GPRMC,161926,A,5000.1820,N,00839.4641,E,9.0453,282.966,140111,,*23
$GPGSA,A,3,23,04,02,20,10,13,07,32,16,30,,,1.6,0.8,1.3*3B
$GPGGA,161927,5000.1820,N,00839.4590,E,1,10,0.80,123.31,M,47.864,M,,*4E
$GPRMC,161927,A,5000.1820,N,00839.4590,E,11.1886,279.037,140111,,*18
$GPGSA,A,3,23,04,02,20,10,13,07,32,16,30,,,0.0,0.8,0.0*3E
$GPGGA,161928,5000.1827,N,00839.4540,E,1,10,0.80,123.50,M,47.864,M,,*4C
$GPRMC,161928,A,5000.1827,N,00839.4540,E,12.4485,280.225,140111,,*13
$GPGSA,A,3,23,04,02,20,10,13,07,32,16,30,,,0.0,0.8,0.0*3E
$GPGSV,3,1,11,02,29,307,36,23,64,061,41,04,55,271,40,20,35,108,36*7E
$GPGSV,3,2,11,07,20,175,31,16,06,075,15,10,33,289,38,13,78,229,42*70
$GPGSV,3,3,11,32,10,102,22,30,09,057,17,120,28,210,30*7D
$GPGGA,161929,5000.1831,N,00839.4482,E,1,10,0.80,122.82,M,47.864,M,,*4B
$GPRMC,161929,A,5000.1831,N,00839.4482,E,12.9313,280.092,140111,,*11
$GPGSA,A,3,23,04,02,20,10,13,07,32,16,30,,,1.6,0.8,1.3*3B
$GPGGA,161930,5000.1834,N,00839.4432,E,1,10,0.80,123.64,M,47.864,M,,*44
$GPRMC,161930,A,5000.1834,N,00839.4432,E,13.4046,274.781,140111,,*16
$GPGSA,A,3,23,04,02,20,10,13,07,32,16,30,,,0.0,0.8,0.0*3E
$GPGGA,161931,5000.1835,N,00839.4372,E,1,10,0.80,123.60,M,47.864,M,,*43
$GPRMC,161931,A,5000.1835,N,00839.4372,E,12.9439,273.886,140111,,*1A
$GPGSA,A,3,23,04,02,20,10,13,07,32,16,30,,,0.0,0.8,0.0*3E
$GPGSV,3,1,11,02,29,307,30,23,64,061,41,04,55,271,40,20,35,108,36*78
$GPGSV,3,2,11,07,20,175,33,16,06,075,14,10,33,289,38,13,78,229,42*73
$GPGSV,3,3,11,32,10,102,28,30,09,057,18,120,28,210,31*79
$GPGGA,161932,5000.1838,N,00839.4323,E,1,10,0.80,123.02,M,47.864,M,,*4D
$GPRMC,161932,A,5000.1838,N,00839.4323,E,12.4485,280.225,140111,,*15
$GPGSA,A,3,23,04,02,20,10,13,07,32,16,30,,,1.6,0.8,1.3*3B
$GPGGA,161933,5000.1846,N,00839.4273,E,1,10,0.80,123.20,M,47.864,M,,*41
$GPRMC,161933,A,5000.1846,N,00839.4273,E,11.9058,287.028,140111,,*1B
$GPGSA,A,3,23,04,02,20,10,13,07,32,16,30,,,0.0,0.8,0.0*3E
$GPGGA,161934,5000.1860,N,00839.4225,E,1,10,0.80,123.52,M,47.864,M,,*44
$GPRMC,161934,A,5000.1860,N,00839.4225,E,10.8585,291.926,140111,,*1E
$GPGSA,A,3,23,04,02,20,10,13,07,32,16,30,,,0.0,0.8,0.0*3E
$GPGSV,3,1,11,02,29,307,38,23,64,061,36,04,55,271,40,20,35,108,36*70
$GPGSV,3,2,11,07,20,175,34,16,06,075,14,10,33,289,38,13,78,229,42*74
$GPGSV,3,3,11,32,10,102,27,30,09,057,17,120,28,210,32*7A
$GPGGA,161935,5000.1871,N,00839.4185,E,1,10,0.80,123.17,M,47.864,M,,*4D
$GPRMC,161935,A,5000.1871,N,00839.4185,E,9.9286,293.397,140111,,*29
$GPGSA,A,3,23,04,02,20,10,13,07,32,16,30,,,1.6,0.8,1.3*3B
$GPGGA,161936,5000.1877,N,00839.4151,E,1,10,0.80,123.54,M,47.864,M,,*46
$GPRMC,161936,A,5000.1877,N,00839.4151,E,9.4260,293.129,140111,,*27
$GPGSA,A,3,23,04,02,20,10,13,07,32,16,30,,,0.0,0.8,0.0*3E
$GPGGA,161937,5000.1888,N,00839.4111,E,1,10,0.80,123.19,M,47.864,M,,*4A
$GPRMC,161937,A,5000.1888,N,00839.4111,E,8.7259,288.785,140111,,*20
$GPGSA,A,3,23,04,02,20,10,13,07,32,16,30,,,0.0,0.8,0.0*3E
$GPGSV,3,1,10,02,29,307,38,23,64,061,36,04,55,271,40,20,35,108,36*71
$GPGSV,3,2,10,07,20,175,25,16,06,075,14,10,33,289,38,13,78,229,42*75
$GPGSV,3,3,10,32,10,102,27,30,09,057,21*75
$GPGGA,161938,5000.1894,N,00839.4078,E,1,10,0.80,123.57,M,47.864,M,,*4C
$GPRMC,161938,A,5000.1894,N,00839.4078,E,7.7064,287.814,140111,,*27
$GPGSA,A,3,23,04,02,20,10,13,07,32,16,30,,,1.6,0.8,1.3*3B
$GPGGA,161939,5000.1895,N,00839.4053,E,1,10,0.80,123.28,M,47.864,M,,*4D
$GPRMC,161939,A,5000.1895,N,00839.4053,E,5.7132,288.588,140111,,*29
$GPGSA,A,3,23,04,02,20,10,13,07,32,16,30,,,0.0,0.8,0.0*3E
$GPGGA,161940,5000.1900,N,00839.4037,E,1,10,0.80,123.85,M,47.864,M,,*4B
$GPRMC,161940,A,5000.1900,N,00839.4037,E,4.0122,291.475,140111,,*24
$GPGSA,A,3,23,04,02,20,10,13,07,32,16,30,,,0.0,0.8,0.0*3E
$GPGSV,3,1,11,02,29,307,38,23,64,061,37,04,55,271,41,20,35,108,36*70
$GPGSV,3,2,11,07,20,175,26,16,06,075,14,10,33,289,34,13,78,229,42*7B
$GPGSV,3,3,11,32,10,102,26,30,09,057,19,120,28,210,32*75
$GPGGA,161941,5000.1905,N,00839.4030,E,1,10,0.80,123.12,M,47.864,M,,*46
$GPRMC,161941,A,5000.1905,N,00839.4030,E,2.2658,295.079,140111,,*25
$GPGSA,A,3,23,04,02,20,10,13,07,32,16,30,,,1.6,0.8,1.3*3B
$GPGGA,161942,5000.1905,N,00839.4022,E,1,10,0.80,123.02,M,47.864,M,,*47
$GPRMC,161942,A,5000.1905,N,00839.4022,E,1.4482,284.073,140111,,*2F
$GPGSA,A,3,23,04,02,20,10,13,07,32,16,30,,,0.0,0.8,0.0*3E
$GPGGA,161943,5000.1906,N,00839.4013,E,1,10,0.80,122.93,M,47.864,M,,*4E
$GPRMC,161943,A,5000.1906,N,00839.4013,E,0.2940,316.157,140111,,*26
$GPGSA,A,3,23,04,02,20,10,13,07,32,16,30,,,0.0,0.8,0.0*3E
$GPGSV,3,1,10,02,29,307,37,23,64,061,37,04,55,271,41,20,35,108,36*7E
$GPGSV,3,2,10,07,20,175,26,16,06,075,13,10,33,289,34,13,78,229,42*7D
$GPGSV,3,3,10,32,10,102,26,30,09,057,00*77
$GPGGA,161944,5000.1902,N,00839.4012,E,1,09,1.00,123.56,M,47.864,M,,*45
$GPRMC,161944,A,5000.1902,N,00839.4012,E,0.1876,11.240,140111,,*12
$GPGSA,A,3,23,04,02,20,10,13,07,32,16,,,,1.7,1.0,1.3*30
$GPGGA,161945,5000.1902,N,00839.4012,E,1,09,1.00,123.56,M,47.864,M,,*44
$GPRMC,161945,A,5000.1902,N,00839.4012,E,0.1876,11.240,140111,,*13
$GPGSA,A,3,23,04,02,20,10,13,07,32,16,,,,0.0,1.0,0.0*34
$GPGGA,161946,5000.1902,N,00839.4012,E,1,08,1.00,123.56,M,47.864,M,,*46
$GPRMC,161946,A,5000.1902,N,00839.4012,E,0.0000,0.000,140111,,*2E
$GPGSA,A,3,23,04,02,20,10,13,07,32,,,,,0.0,1.0,0.0*33
$GPGSV,3,1,10,02,29,307,37,23,64,061,37,04,55,271,41,20,35,108,35*7D
$GPGSV,3,2,10,07,20,175,27,10,33,289,35,13,78,229,42,32,10,102,25*78
$GPGSV,3,3,10,17,02,222,19,124,31,162,16*41
$GPGGA,161947,5000.1903,N,00839.4004,E,1,08,1.00,123.47,M,47.864,M,,*41
$GPRMC,161947,A,5000.1903,N,00839.4004,E,1.2092,276.653,140111,,*22
$GPGSA,A,3,23,04,02,20,10,13,07,32,,,,,1.9,1.0,1.5*3F
$GPGGA,161948,5000.1903,N,00839.3996,E,1,08,1.00,123.37,M,47.864,M,,*4C
$GPRMC,161948,A,5000.1903,N,00839.3996,E,2.1766,276.653,140111,,*24
$GPGSA,A,3,23,04,02,20,10,13,07,32,,,,,0.0,1.0,0.0*33
$GPGGA,161949,5000.1904,N,00839.3987,E,1,08,1.00,123.27,M,47.864,M,,*4B
$GPRMC,161949,A,5000.1904,N,00839.3987,E,2.0464,257.117,140111,,*26
$GPGSA,A,3,23,04,02,20,10,13,07,32,,,,,0.0,1.0,0.0*33
$GPGSV,3,1,10,02,29,307,25,23,64,061,41,04,55,271,41,20,35,108,36*7C
$GPGSV,3,2,10,07,20,175,26,30,09,057,18,10,33,289,35,13,78,229,42*7C
$GPGSV,3,3,10,32,10,102,25,17,02,222,18*73
$GPGGA,161950,5000.1898,N,00839.3969,E,1,09,0.80,122.95,M,47.864,M,,*47
$GPRMC,161950,A,5000.1898,N,00839.3969,E,4.6788,248.050,140111,,*27
$GPGSA,A,3,23,04,02,20,10,13,07,32,30,,,,1.6,0.8,1.3*3C
$GPGGA,161951,5000.1888,N,00839.3942,E,1,09,0.80,123.16,M,47.864,M,,*44
$GPRMC,161951,A,5000.1888,N,00839.3942,E,6.6996,230.226,140111,,*21
$GPGSA,A,3,23,04,02,20,10,13,07,32,30,,,,0.0,0.8,0.0*39
$GPGGA,161952,5000.1862,N,00839.3921,E,1,09,0.80,123.21,M,47.864,M,,*42
$GPRMC,161952,A,5000.1862,N,00839.3921,E,9.8045,214.747,140111,,*21
$GPGSA,A,3,23,04,02,20,10,13,07,32,30,,,,0.0,0.8,0.0*39
$GPGSV,3,1,10,02,29,307,32,23,64,061,32,04,55,271,34,20,35,108,27*7C
$GPGSV,3,2,10,07,20,175,26,30,09,057,18,10,33,289,26,13,78,229,42*7E
$GPGSV,3,3,10,32,10,102,24,17,02,222,17*7D
$GPGGA,161953,5000.1837,N,00839.3891,E,1,09,0.80,123.17,M,47.864,M,,*4C
$GPRMC,161953,A,5000.1837,N,00839.3891,E,11.0683,211.425,140111,,*15
$GPGSA,A,3,23,04,02,20,10,13,07,32,30,,,,1.6,0.8,1.3*3C
$GPGGA,161954,5000.1815,N,00839.3869,E,1,09,0.80,123.98,M,47.864,M,,*4B
$GPRMC,161954,A,5000.1815,N,00839.3869,E,11.7364,214.010,140111,,*19
$GPGSA,A,3,23,04,02,20,10,13,07,32,30,,,,0.0,0.8,0.0*39
$GPGGA,161955,5000.1784,N,00839.3830,E,1,09,0.80,123.71,M,47.864,M,,*46
$GPRMC,161955,A,5000.1784,N,00839.3830,E,13.2129,216.587,140111,,*16
$GPGSA,A,3,23,04,02,20,10,13,07,32,30,,,,0.0,0.8,0.0*39
$GPGSV,3,1,10,02,29,307,28,23,64,061,34,04,55,271,37,20,35,108,29*7C
$GPGSV,3,2,10,07,20,175,28,30,09,057,18,10,33,289,33,13,78,229,42*74
$GPGSV,3,3,10,32,10,102,24,17,02,222,17*7D
$GPGGA,161956,5000.1748,N,00839.3789,E,1,09,0.80,124.07,M,47.864,M,,*4E
$GPRMC,161956,A,5000.1748,N,00839.3789,E,15.1273,218.723,140111,,*13
$GPGSA,A,3,23,04,02,20,10,13,07,32,30,,,,1.6,0.8,1.3*3C
$GPGGA,161957,5000.1712,N,00839.3740,E,1,10,0.80,124.33,M,47.864,M,,*4A
$GPRMC,161957,A,5000.1712,N,00839.3740,E,18.5511,219.302,140111,,*14
$GPGSA,A,3,23,04,02,20,10,13,07,32,16,30,,,0.0,0.8,0.0*3E
$GPGGA,161958,5000.1667,N,00839.3672,E,1,09,0.80,124.91,M,47.864,M,,*46
$GPRMC,161958,A,5000.1667,N,00839.3672,E,21.7086,222.569,140111,,*18
$GPGSA,A,3,23,04,02,20,10,13,07,32,30,,,,0.0,0.8,0.0*39
$GPGSV,3,1,11,02,29,307,29,23,64,061,41,04,55,271,30,20,35,108,35*74
$GPGSV,3,2,11,07,20,175,36,30,09,057,24,10,33,289,36,13,78,229,42*70
$GPGSV,3,3,11,32,10,102,14,17,02,222,16,124,31,162,29*75
$GPGGA,161959,5000.1625,N,00839.3605,E,1,09,0.80,124.85,M,47.864,M,,*44
$GPRMC,161959,A,5000.1625,N,00839.3605,E,21.7168,224.913,140111,,*19
$GPGSA,A,3,23,04,02,20,10,13,07,32,30,,,,1.6,0.8,1.3*3C
$GPGGA,162000,5000.1584,N,00839.3539,E,1,09,0.80,124.79,M,47.864,M,,*45
$GPRMC,162000,A,5000.1584,N,00839.3539,E,21.5047,227.851,140111,,*11
$GPGSA,A,3,23,04,02,20,10,13,07,32,30,,,,0.0,0.8,0.0*39
$GPGGA,162001,5000.1545,N,00839.3472,E,1,09,0.80,125.50,M,47.864,M,,*4D
$GPRMC,162001,A,5000.1545,N,00839.3472,E,20.1907,230.237,140111,,*17
$GPGSA,A,3,23,04,02,20,10,13,07,32,30,,,,0.0,0.8,0.0*39
$GPGSV,3,1,10,02,29,307,27,23,64,061,41,04,55,271,32,20,35,108,40*7B
$GPGSV,3,2,10,07,20,175,23,30,09,057,24,10,33,289,35,13,78,229,41*75
$GPGSV,3,3,10,32,10,102,27,124,31,162,26*4A
$GPGGA,162002,5000.1519,N,00839.3408,E,1,09,0.80,125.70,M,47.864,M,,*48
$GPRMC,162002,A,5000.1519,N,00839.3408,E,17.5313,231.851,140111,,*14
$GPGSA,A,3,23,04,02,20,10,13,07,32,30,,,,1.6,0.8,1.3*3C
$GPGGA,162003,5000.1495,N,00839.3361,E,1,08,1.00,125.46,M,47.864,M,,*49
$GPRMC,162003,A,5000.1495,N,00839.3361,E,14.7277,237.783,140111,,*1C
$GPGSA,A,3,23,04,02,20,10,13,07,32,,,,,0.0,1.0,0.0*33
$GPGGA,162004,5000.1483,N,00839.3308,E,1,09,0.80,126.02,M,47.864,M,,*4D
$GPRMC,162004,A,5000.1483,N,00839.3308,E,12.4133,248.854,140111,,*18
$GPGSA,A,3,23,04,02,20,10,13,07,32,30,,,,0.0,0.8,0.0*39
$GPGSV,3,1,10,02,29,307,36,23,64,061,41,04,55,271,38,20,35,108,40*71
$GPGSV,3,2,10,07,20,175,38,30,09,057,22,10,33,289,35,13,78,229,42*7A
$GPGSV,3,3,10,32,10,102,29,124,31,162,30*43
$GPGGA,162005,5000.1475,N,00839.3256,E,1,09,0.80,125.94,M,47.864,M,,*43
$GPRMC,162005,A,5000.1475,N,00839.3256,E,10.5519,258.072,140111,,*18
$GPGSA,A,3,23,04,02,20,10,13,07,32,30,,,,1.6,0.8,1.3*3C
$GPGGA,162006,5000.1470,N,00839.3212,E,1,10,0.80,126.73,M,47.864,M,,*47
$GPRMC,162006,A,5000.1470,N,00839.3212,E,9.8762,267.214,140111,,*2B
$GPGSA,A,3,23,04,02,20,10,13,16,07,32,30,,,0.0,0.8,0.0*3E
$GPGGA,162007,5000.1474,N,00839.3170,E,1,10,0.80,126.25,M,47.864,M,,*46
$GPRMC,162007,A,5000.1474,N,00839.3170,E,11.0041,279.718,140111,,*18
$GPGSA,A,3,23,04,02,20,10,13,16,07,32,30,,,0.0,0.8,0.0*3E
$GPGSV,3,1,10,02,29,307,36,23,64,061,41,04,55,271,39,20,35,108,34*73
$GPGSV,3,2,10,07,20,175,37,30,09,057,24,10,33,289,35,13,78,229,42*73
$GPGSV,3,3,10,32,10,102,28,16,06,075,20*70
$GPGGA,162008,5000.1481,N,00839.3113,E,1,10,0.80,126.34,M,47.864,M,,*46
$GPRMC,162008,A,5000.1481,N,00839.3113,E,12.1899,287.524,140111,,*1B
$GPGSA,A,3,23,04,02,20,10,13,16,07,32,30,,,1.6,0.8,1.3*3B
$GPGGA,162009,5000.1489,N,00839.3063,E,1,10,0.80,126.52,M,47.864,M,,*49
$GPRMC,162009,A,5000.1489,N,00839.3063,E,12.3819,286.624,140111,,*1C
$GPGSA,A,3,23,04,02,20,10,13,16,07,32,30,,,0.0,0.8,0.0*3E
$GPGGA,162010,5000.1496,N,00839.3013,E,1,10,0.80,126.71,M,47.864,M,,*49
$GPRMC,162010,A,5000.1496,N,00839.3013,E,11.6972,279.692,140111,,*1A
$GPGSA,A,3,23,04,02,20,10,13,16,07,32,30,,,0.0,0.8,0.0*3E
$GPGSV,3,1,11,02,29,307,36,23,64,061,41,04,55,271,40,20,35,108,34*7C
$GPGSV,3,2,11,07,20,175,37,30,09,057,25,10,33,289,35,13,78,229,42*73
$GPGSV,3,3,11,32,10,102,26,16,06,075,00,124,31,162,32*7C
$GPGGA,162011,5000.1488,N,00839.2961,E,1,09,0.80,126.63,M,47.864,M,,*41
$GPRMC,162011,A,5000.1488,N,00839.2961,E,10.9824,259.673,140111,,*18
$GPGSA,A,3,23,04,02,20,10,13,07,32,30,,,,1.6,0.8,1.3*3C
$GPGGA,162012,5000.1471,N,00839.2924,E,1,09,0.80,126.62,M,47.864,M,,*44
$GPRMC,162012,A,5000.1471,N,00839.2924,E,10.6044,234.201,140111,,*17
$GPGSA,A,3,23,04,02,20,10,13,07,32,30,,,,0.0,0.8,0.0*39
$GPGGA,162013,5000.1446,N,00839.2903,E,1,09,0.80,126.67,M,47.864,M,,*41
$GPRMC,162013,A,5000.1446,N,00839.2903,E,10.5243,211.468,140111,,*1F
$GPGSA,A,3,23,04,02,20,10,13,07,32,30,,,,0.0,0.8,0.0*39
$GPGSV,3,1,10,02,29,307,30,23,64,061,36,04,55,271,39,20,35,108,39*78
$GPGSV,3,2,10,07,20,175,35,30,09,057,30,10,33,289,35,13,78,229,42*74
$GPGSV,3,3,10,32,10,102,30,124,31,162,31*4A
$GPGGA,162014,5000.1415,N,00839.2888,E,1,09,0.80,127.45,M,47.864,M,,*43
$GPRMC,162014,A,5000.1415,N,00839.2888,E,11.2742,191.653,140111,,*1F
$GPGSA,A,3,23,04,02,20,10,13,07,32,30,,,,1.6,0.8,1.3*3C
$GPGGA,162015,5000.1382,N,00839.2873,E,1,09,0.80,127.47,M,47.864,M,,*4D
$GPRMC,162015,A,5000.1382,N,00839.2873,E,11.8173,193.677,140111,,*19
$GPGSA,A,3,23,04,02,20,10,13,07,32,30,,,,0.0,0.8,0.0*39
$GPGGA,162016,5000.1353,N,00839.2852,E,1,09,0.80,126.75,M,47.864,M,,*41
$GPRMC,162016,A,5000.1353,N,00839.2852,E,12.5483,209.385,140111,,*19
$GPGSA,A,3,23,04,02,20,10,13,07,32,30,,,,0.0,0.8,0.0*39
$GPGSV,3,1,10,02,29,307,32,23,63,061,37,04,55,271,34,20,35,108,36*7E
$GPGSV,3,2,10,07,20,175,30,30,09,057,31,10,33,289,35,13,78,229,42*70
$GPGSV,3,3,10,32,10,102,00,124,31,162,29*40
$GPGGA,162017,5000.1322,N,00839.2796,E,1,08,1.00,126.28,M,47.864,M,,*41
$GPRMC,162017,A,5000.1322,N,00839.2796,E,15.1885,227.724,140111,,*13
$GPGSA,A,3,23,04,02,20,10,13,07,30,,,,,1.7,1.0,1.4*32
$GPGGA,162018,5000.1292,N,00839.2731,E,1,09,0.80,127.12,M,47.864,M,,*49
$GPRMC,162018,A,5000.1292,N,00839.2731,E,19.6142,238.195,140111,,*10
$GPGSA,A,3,23,04,02,20,10,13,07,32,30,,,,0.0,0.8,0.0*39
$GPGGA,162019,5000.1263,N,00839.2650,E,1,09,0.80,126.36,M,47.864,M,,*47
$GPRMC,162019,A,5000.1263,N,00839.2650,E,21.6058,239.943,140111,,*1A
$GPGSA,A,3,23,04,02,20,10,13,07,32,30,,,,0.0,0.8,0.0*39
$GPGSV,3,1,11,02,29,307,32,23,63,061,38,04,55,271,38,20,35,108,41*7C
$GPGSV,3,2,11,07,20,175,32,30,09,057,23,10,33,289,34,13,78,229,42*71
$GPGSV,3,3,11,32,10,102,00,16,06,075,22,124,31,162,32*78
$GPGGA,162020,5000.1234,N,00839.2568,E,1,09,0.80,127.01,M,47.864,M,,*42
$GPRMC,162020,A,5000.1234,N,00839.2568,E,22.5133,239.985,140111,,*1C
$GPGSA,A,3,23,04,02,20,10,13,16,07,30,,,,1.6,0.8,1.3*3A
$GPGGA,162021,5000.1201,N,00839.2477,E,1,09,0.80,126.79,M,47.864,M,,*44
$GPRMC,162021,A,5000.1201,N,00839.2477,E,23.6141,241.395,140111,,*17
$GPGSA,A,3,23,04,02,20,10,13,16,07,30,,,,0.0,0.8,0.0*3F
$GPGGA,162022,5000.1166,N,00839.2378,E,1,10,0.80,127.11,M,47.864,M,,*4A
$GPRMC,162022,A,5000.1166,N,00839.2378,E,24.7196,241.704,140111,,*1E
$GPGSA,A,3,23,04,02,20,10,13,16,07,32,30,,,0.0,0.8,0.0*3E
$GPGSV,3,1,11,02,29,307,32,23,63,061,37,04,55,271,38,20,35,108,40*72
$GPGSV,3,2,11,07,20,175,33,30,09,057,21,10,33,289,33,13,78,229,42*75
$GPGSV,3,3,11,32,10,102,31,16,06,075,22,124,31,162,29*70
$GPGGA,162023,5000.1134,N,00839.2287,E,1,10,0.80,126.89,M,47.864,M,,*4D
$GPRMC,162023,A,5000.1134,N,00839.2287,E,25.7017,241.372,140111,,*15
$GPGSA,A,3,23,04,02,20,10,13,16,07,32,30,,,1.6,0.8,1.3*3B
$GPGGA,162024,5000.1095,N,00839.2187,E,1,08,1.60,126.44,M,47.864,M,,*44
$GPRMC,162024,A,5000.1095,N,00839.2187,E,26.4894,241.670,140111,,*1F
$GPGSA,A,3,23,04,02,20,10,13,32,30,,,,,0.0,1.6,0.0*31
$GPGGA,162025,5000.1060,N,00839.2079,E,1,08,1.60,126.67,M,47.864,M,,*4E
$GPRMC,162025,A,5000.1060,N,00839.2079,E,27.3959,240.767,140111,,*14
$GPGSA,A,3,23,04,02,20,10,13,32,30,,,,,0.0,1.6,0.0*31
$GPGSV,3,1,09,02,29,307,32,23,63,061,37,04,55,271,39,20,35,108,40*7A
$GPGSV,3,2,09,30,09,057,21,10,33,289,33,13,78,229,42,16,06,075,14*7C
$GPGSV,3,3,09,17,02,222,25*41
$GPGGA,162026,5000.1020,N,00839.1980,E,1,08,1.80,126.22,M,47.864,M,,*4A
$GPRMC,162026,A,5000.1020,N,00839.1980,E,27.3491,238.407,140111,,*1C
$GPGSA,A,3,23,04,02,20,10,13,16,30,,,,,2.7,1.8,1.9*34
$GPGGA,162027,5000.0977,N,00839.1878,E,1,07,2.00,126.41,M,47.864,M,,*46
$GPRMC,162027,A,5000.0977,N,00839.1878,E,27.3717,237.527,140111,,*10
$GPGSA,A,3,23,04,02,20,10,13,30,,,,,,0.0,2.0,0.0*35
$GPGGA,162028,5000.0941,N,00839.1787,E,1,06,3.40,126.83,M,47.864,M,,*49
$GPRMC,162028,A,5000.0941,N,00839.1787,E,26.1943,237.362,140111,,*1E
$GPGSA,A,3,23,04,02,10,13,30,,,,,,,0.0,3.4,0.0*32
$GPGSV,3,1,09,02,29,307,32,23,63,061,38,04,55,271,39,20,35,108,00*71
$GPGSV,3,2,09,07,20,175,12,30,09,057,22,10,33,289,33,13,78,229,42*7C
$GPGSV,3,3,09,17,02,222,23*47
$GPGGA,162029,5000.0901,N,00839.1695,E,1,07,1.00,126.48,M,47.864,M,,*4E
$GPRMC,162029,A,5000.0901,N,00839.1695,E,25.3098,238.174,140111,,*1D
$GPGSA,A,3,23,04,02,10,13,07,30,,,,,,1.9,1.0,1.7*3D
$GPGGA,162030,5000.0865,N,00839.1604,E,1,08,1.00,126.90,M,47.864,M,,*47
$GPRMC,162030,A,5000.0865,N,00839.1604,E,25.3098,238.174,140111,,*1E
$GPGSA,A,3,23,04,02,20,10,13,07,30,,,,,0.0,1.0,0.0*31
$GPGGA,162031,5000.0829,N,00839.1512,E,1,08,1.00,127.31,M,47.864,M,,*40
$GPRMC,162031,A,5000.0829,N,00839.1512,E,24.9329,237.482,140111,,*12
$GPGSA,A,3,23,04,02,20,10,13,07,30,,,,,0.0,1.0,0.0*31
$GPGSV,3,1,09,02,29,307,32,23,63,061,39,04,55,271,39,20,35,108,42*76
$GPGSV,3,2,09,07,20,175,29,30,09,057,22,10,33,289,33,13,78,229,42*74
$GPGSV,3,3,09,124,31,162,32*71
$GPGGA,162032,5000.0789,N,00839.1421,E,1,08,1.00,126.96,M,47.864,M,,*4B
$GPRMC,162032,A,5000.0789,N,00839.1421,E,24.6157,237.442,140111,,*1D
$GPGSA,A,3,23,04,02,20,10,13,07,30,,,,,1.7,1.0,1.4*32
$GPGGA,162033,5000.0753,N,00839.1329,E,1,08,1.00,127.38,M,47.864,M,,*47
$GPRMC,162033,A,5000.0753,N,00839.1329,E,23.9812,237.358,140111,,*18
$GPGSA,A,3,23,04,02,20,10,13,07,30,,,,,0.0,1.0,0.0*31
$GPGGA,162034,5000.0719,N,00839.1255,E,1,08,1.00,127.36,M,47.864,M,,*4A
$GPRMC,162034,A,5000.0719,N,00839.1255,E,21.8986,237.001,140111,,*1B
$GPGSA,A,3,23,04,02,20,10,13,07,30,,,,,0.0,1.0,0.0*31
$GPGSV,3,1,09,02,29,307,33,23,63,061,39,04,55,271,39,20,35,108,41*74
$GPGSV,3,2,09,07,20,175,28,30,09,057,23,10,33,289,32,13,78,229,42*75
$GPGSV,3,3,09,124,31,162,29*7B
$GPGGA,162035,5000.0690,N,00839.1182,E,1,08,1.00,128.10,M,47.865,M,,*48
$GPRMC,162035,A,5000.0690,N,00839.1182,E,18.6951,237.163,140111,,*18
$GPGSA,A,3,23,04,02,20,10,13,07,30,,,,,1.7,1.0,1.4*32
$GPGGA,162036,5000.0667,N,00839.1127,E,1,08,1.00,127.76,M,47.865,M,,*43
$GPRMC,162036,A,5000.0667,N,00839.1127,E,14.5020,237.687,140111,,*11
$GPGSA,A,3,23,04,02,20,10,13,07,30,,,,,0.0,1.0,0.0*31
$GPGGA,162037,5000.0650,N,00839.1082,E,1,08,1.00,127.65,M,47.865,M,,*4A
$GPRMC,162037,A,5000.0650,N,00839.1082,E,11.3828,237.481,140111,,*1D
$GPGSA,A,3,23,04,02,20,10,13,07,30,,,,,0.0,1.0,0.0*31
$GPGSV,3,1,10,02,29,307,33,23,63,061,39,04,55,271,40,20,35,108,41*72
$GPGSV,3,2,10,07,20,175,28,30,09,057,24,10,33,289,32,13,78,229,42*7A
$GPGSV,3,3,10,32,10,102,18,124,31,162,32*43
$GPGGA,162038,5000.0637,N,00839.1053,E,1,09,0.80,128.50,M,47.865,M,,*49
$GPRMC,162038,A,5000.0637,N,00839.1053,E,8.7235,238.280,140111,,*2D
$GPGSA,A,3,23,04,02,20,10,13,07,32,30,,,,1.6,0.8,1.3*3C
$GPGGA,162039,5000.0624,N,00839.1018,E,1,09,0.80,127.85,M,47.865,M,,*42
$GPRMC,162039,A,5000.0624,N,00839.1018,E,8.0529,239.012,140111,,*24
$GPGSA,A,3,23,04,02,20,10,13,07,32,30,,,,0.0,0.8,0.0*39
$GPGGA,162040,5000.0610,N,00839.0989,E,1,09,0.80,128.70,M,47.865,M,,*4E
$GPRMC,162040,A,5000.0610,N,00839.0989,E,7.5334,241.020,140111,,*23
$GPGSA,A,3,23,04,02,20,10,13,07,32,30,,,,0.0,0.8,0.0*39
$GPGSV,3,1,11,02,29,307,33,23,63,061,39,04,55,271,40,20,35,108,41*73
$GPGSV,3,2,11,07,20,175,33,30,09,057,24,10,33,289,32,13,78,229,42*71
$GPGSV,3,3,11,32,10,102,22,17,02,222,22,124,31,162,34*7B
$GPGGA,162041,5000.0598,N,00839.0953,E,1,09,0.80,128.06,M,47.865,M,,*4A
$GPRMC,162041,A,5000.0598,N,00839.0953,E,8.7133,241.045,140111,,*2D
$GPGSA,A,3,23,04,02,20,10,13,07,32,30,,,,1.6,0.8,1.3*3C
$GPGGA,162042,5000.0584,N,00839.0917,E,1,09,0.80,128.81,M,47.865,M,,*4B
$GPRMC,162042,A,5000.0584,N,00839.0917,E,10.4114,239.508,140111,,*1F
$GPGSA,A,3,23,04,02,20,10,13,07,32,30,,,,0.0,0.8,0.0*39
$GPGGA,162043,5000.0568,N,00839.0871,E,1,09,0.80,128.70,M,47.865,M,,*47
$GPRMC,162043,A,5000.0568,N,00839.0871,E,10.5286,241.035,140111,,*10
$GPGSA,A,3,23,04,02,20,10,13,07,32,30,,,,0.0,0.8,0.0*39
$GPGSV,3,1,12,02,29,307,31,23,63,061,39,04,55,271,40,20,35,108,38*7C
$GPGSV,3,2,12,07,20,175,33,30,09,057,24,10,33,289,31,13,78,229,42*71
$GPGSV,3,3,12,32,10,102,29,17,02,222,22,16,06,075,22,124,31,162,34*40
$GPGGA,162044,5000.0560,N,00839.0828,E,1,10,0.80,128.72,M,47.865,M,,*4E
$GPRMC,162044,A,5000.0560,N,00839.0828,E,11.3444,248.844,140111,,*1B
$GPGSA,A,3,23,04,02,20,10,13,07,32,30,16,,,1.4,0.8,1.1*3B
$GPGGA,162045,5000.0551,N,00839.0784,E,1,10,0.80,128.74,M,47.865,M,,*42
$GPRMC,162045,A,5000.0551,N,00839.0784,E,11.5017,255.881,140111,,*10
$GPGSA,A,3,23,04,02,20,10,13,07,32,30,16,,,0.0,0.8,0.0*3E
$GPGGA,162046,5000.0536,N,00839.0730,E,1,10,0.80,128.54,M,47.865,M,,*4D
$GPRMC,162046,A,5000.0536,N,00839.0730,E,11.2951,246.729,140111,,*1E
$GPGSA,A,3,23,04,02,20,10,13,07,32,30,16,,,0.0,0.8,0.0*3E
$GPGSV,3,1,12,02,29,307,34,23,63,061,40,04,56,270,39,20,34,108,38*7A
$GPGSV,3,2,12,07,20,175,34,30,10,057,25,10,34,289,32,13,79,229,42*7A
$GPGSV,3,3,12,32,10,102,29,17,02,222,32,16,06,075,20,124,31,162,30*47
$GPGGA,162047,5000.0511,N,00839.0700,E,1,10,0.80,128.49,M,47.865,M,,*46
$GPRMC,162047,A,5000.0511,N,00839.0700,E,10.4611,219.011,140111,,*13
$GPGSA,A,3,23,04,02,20,10,13,07,32,30,16,,,1.4,0.8,1.1*3B
$GPGGA,162048,5000.0488,N,00839.0705,E,1,10,0.80,128.20,M,47.865,M,,*42
$GPRMC,162048,A,5000.0488,N,00839.0705,E,9.8780,179.393,140111,,*29
$GPGSA,A,3,23,04,02,20,10,13,07,32,30,16,,,0.0,0.8,0.0*3E
$GPGGA,162049,5000.0459,N,00839.0725,E,1,10,0.80,128.73,M,47.865,M,,*4B
$GPRMC,162049,A,5000.0459,N,00839.0725,E,11.2662,146.044,140111,,*1D
$GPGSA,A,3,23,04,02,20,10,13,07,32,30,16,,,0.0,0.8,0.0*3E
$GPGSV,3,1,11,02,29,307,33,23,63,061,44,04,56,270,39,20,34,108,38*7A
$GPGSV,3,2,11,07,20,175,30,30,10,057,32,10,34,289,33,13,79,229,32*7D
$GPGSV,3,3,11,32,10,102,35,16,06,075,20,124,31,162,23*7C
$GPGGA,162050,5000.0444,N,00839.0773,E,1,10,0.80,128.41,M,47.865,M,,*4D
$GPRMC,162050,A,5000.0444,N,00839.0773,E,12.6923,119.423,140111,,*18
$GPGSA,A,3,23,04,02,20,10,13,07,32,30,16,,,1.6,0.8,1.3*3B
$GPGGA,162051,5000.0421,N,00839.0828,E,1,10,0.80,128.06,M,47.865,M,,*4D
$GPRMC,162051,A,5000.0421,N,00839.0828,E,14.7658,118.792,140111,,*17
$GPGSA,A,3,23,04,02,20,10,13,07,32,30,16,,,0.0,0.8,0.0*3E
$GPGGA,162052,5000.0390,N,00839.0881,E,1,09,0.80,128.98,M,47.865,M,,*4F
$GPRMC,162052,A,5000.0390,N,00839.0881,E,17.9756,129.319,140111,,*1D
$GPGSA,A,3,23,04,02,20,10,13,07,32,30,,,,0.0,0.8,0.0*39
$GPGSV,3,1,10,02,29,307,34,23,63,061,45,04,56,270,39,20,34,108,37*72
$GPGSV,3,2,10,07,20,175,29,30,10,057,27,10,34,289,35,13,79,229,35*71
$GPGSV,3,3,10,32,10,102,29,16,06,075,00*73
$GPGGA,162053,5000.0348,N,00839.0943,E,1,09,0.80,127.70,M,47.865,M,,*4D
$GPRMC,162053,A,5000.0348,N,00839.0943,E,21.0150,136.502,140111,,*18
$GPGSA,A,3,23,04,02,20,10,13,07,32,30,,,,1.7,0.8,1.3*3D
$GPGGA,162054,5000.0305,N,00839.1002,E,1,09,0.80,127.82,M,47.865,M,,*43
$GPRMC,162054,A,5000.0305,N,00839.1002,E,21.7584,137.870,140111,,*18
$GPGSA,A,3,23,04,02,20,10,13,07,32,30,,,,0.0,0.8,0.0*39
$GPGGA,162055,5000.0254,N,00839.1069,E,1,09,0.80,127.91,M,47.865,M,,*48
$GPRMC,162055,A,5000.0254,N,00839.1069,E,23.0536,137.929,140111,,*10
$GPGSA,A,3,23,04,02,20,10,13,07,32,30,,,,0.0,0.8,0.0*39
$GPGSV,3,1,10,02,29,307,35,23,63,061,44,04,56,270,39,20,34,108,38*7D
$GPGSV,3,2,10,07,20,175,21,30,10,057,30,10,34,289,33,13,79,229,36*7A
$GPGSV,3,3,10,32,10,102,22,126,30,159,34*47
$GPGGA,162056,5000.0203,N,00839.1136,E,1,09,0.80,128.00,M,47.865,M,,*45
$GPRMC,162056,A,5000.0203,N,00839.1136,E,24.6926,138.922,140111,,*12
$GPGSA,A,3,23,04,02,20,10,13,07,32,30,,,,1.7,0.8,1.3*3D
$GPGGA,162057,5000.0152,N,00839.1211,E,1,09,0.80,128.18,M,47.865,M,,*4C
$GPRMC,162057,A,5000.0152,N,00839.1211,E,25.6346,139.547,140111,,*11
$GPGSA,A,3,23,04,02,20,10,13,07,32,30,,,,0.0,0.8,0.0*39
$GPGGA,162058,5000.0097,N,00839.1277,E,1,09,0.80,128.90,M,47.865,M,,*4B
$GPRMC,162058,A,5000.0097,N,00839.1277,E,25.7603,138.262,140111,,*12
$GPGSA,A,3,23,04,02,20,10,13,07,32,30,,,,0.0,0.8,0.0*39
$GPGSV,3,1,11,02,29,307,35,23,63,061,44,04,56,270,40,20,34,108,39*73
$GPGSV,3,2,11,07,20,175,23,30,10,057,24,10,34,289,32,13,79,229,36*7D
$GPGSV,3,3,11,32,10,102,21,16,06,075,19,126,30,159,34*7E
$GPGGA,162059,5000.0045,N,00839.1352,E,1,10,0.80,129.08,M,47.865,M,,*4B
$GPRMC,162059,A,5000.0045,N,00839.1352,E,25.2224,139.356,140111,,*19
$GPGSA,A,3,23,04,02,20,10,13,07,32,16,30,,,1.6,0.8,1.3*3B
$GPGGA,162100,4959.9991,N,00839.1419,E,1,10,0.80,128.41,M,47.865,M,,*4F
$GPRMC,162100,A,4959.9991,N,00839.1419,E,25.2824,140.293,140111,,*1D
$GPGSA,A,3,23,04,02,20,10,13,07,32,16,30,,,0.0,0.8,0.0*3E
$GPGGA,162101,4959.9936,N,00839.1485,E,1,10,0.80,129.13,M,47.865,M,,*40
$GPRMC,162101,A,4959.9936,N,00839.1485,E,25.0064,142.108,140111,,*19
$GPGSA,A,3,23,04,02,20,10,13,07,32,16,30,,,0.0,0.8,0.0*3E
$GPGSV,3,1,12,02,29,307,35,23,63,061,43,04,56,270,40,20,34,108,39*77
$GPGSV,3,2,12,07,20,175,34,30,10,057,32,10,34,289,32,13,79,229,37*7E
$GPGSV,3,3,12,32,10,102,24,16,06,075,30,17,02,222,24,126,30,159,32*45
$GPGGA,162102,4959.9878,N,00839.1550,E,1,10,0.80,129.08,M,47.865,M,,*4B
$GPRMC,162102,A,4959.9878,N,00839.1550,E,24.2531,142.768,140111,,*1E
$GPGSA,A,3,23,04,02,20,10,13,07,32,16,30,,,1.6,0.8,1.3*3B
$GPGGA,162103,4959.9827,N,00839.1609,E,1,09,0.80,129.07,M,47.865,M,,*48
$GPRMC,162103,A,4959.9827,N,00839.1609,E,23.6289,143.696,140111,,*1C
$GPGSA,A,3,23,04,02,20,10,13,07,32,30,,,,0.0,0.8,0.0*39
$GPGGA,162104,4959.9769,N,00839.1666,E,1,09,0.80,128.93,M,47.865,M,,*4F
$GPRMC,162104,A,4959.9769,N,00839.1666,E,23.5284,145.777,140111,,*11
$GPGSA,A,3,23,04,02,20,10,13,07,32,30,,,,0.0,0.8,0.0*39
$GPGSV,3,1,10,02,29,307,34,23,63,061,37,04,56,270,39,20,34,108,34*74
$GPGSV,3,2,10,07,20,175,35,30,10,057,13,10,34,289,30,13,79,229,37*7C
$GPGSV,3,3,10,32,10,102,22,126,30,159,34*47
$GPGGA,162105,4959.9716,N,00839.1725,E,1,09,0.80,128.16,M,47.865,M,,*4D
$GPRMC,162105,A,4959.9716,N,00839.1725,E,23.8998,147.278,140111,,*1D
$GPGSA,A,3,23,04,02,20,10,13,07,32,30,,,,1.7,0.8,1.3*3D
$GPGGA,162106,4959.9658,N,00839.1774,E,1,09,0.80,127.92,M,47.865,M,,*42
$GPRMC,162106,A,4959.9658,N,00839.1774,E,24.1848,147.035,140111,,*18
$GPGSA,A,3,23,04,02,20,10,13,07,32,30,,,,0.0,0.8,0.0*39
$GPGGA,162107,4959.9600,N,00839.1840,E,1,10,0.80,127.88,M,47.865,M,,*45
$GPRMC,162107,A,4959.9600,N,00839.1840,E,24.1039,145.326,140111,,*11
$GPGSA,A,3,23,04,02,20,10,13,07,32,16,30,,,0.0,0.8,0.0*3E
$GPGSV,3,1,11,02,29,307,34,23,63,061,38,04,56,270,39,20,34,108,34*7A
$GPGSV,3,2,11,07,20,175,36,30,10,057,24,10,34,289,30,13,79,229,37*7A
$GPGSV,3,3,11,32,10,102,25,16,06,075,26,126,30,159,33*71
$GPGGA,162108,4959.9550,N,00839.1898,E,1,10,0.80,127.87,M,47.865,M,,*46
$GPRMC,162108,A,4959.9550,N,00839.1898,E,23.3366,143.678,140111,,*19
$GPGSA,A,3,23,04,02,20,10,13,07,32,16,30,,,1.6,0.8,1.3*3B
$GPGGA,162109,4959.9499,N,00839.1957,E,1,10,0.80,127.86,M,47.865,M,,*40
$GPRMC,162109,A,4959.9499,N,00839.1957,E,22.1737,144.314,140111,,*15
$GPGSA,A,3,23,04,02,20,10,13,07,32,16,30,,,0.0,0.8,0.0*3E
$GPGGA,162110,4959.9454,N,00839.2000,E,1,10,0.80,127.02,M,47.865,M,,*4D
$GPRMC,162110,A,4959.9454,N,00839.2000,E,19.8600,145.940,140111,,*1A
$GPGSA,A,3,23,04,02,20,10,13,07,32,16,30,,,0.0,0.8,0.0*3E
$GPGSV,3,1,11,02,29,307,34,23,63,061,38,04,56,270,39,20,34,108,34*7A
$GPGSV,3,2,11,07,20,175,36,30,10,057,15,10,34,289,24,13,79,229,38*72
$GPGSV,3,3,11,32,10,102,00,16,06,075,19,126,30,159,32*7B
$GPGGA,162111,4959.9413,N,00839.2044,E,1,09,0.80,126.95,M,47.865,M,,*48
$GPRMC,162111,A,4959.9413,N,00839.2044,E,16.1705,147.298,140111,,*16
$GPGSA,A,3,23,04,02,20,10,13,07,16,30,,,,1.7,0.8,1.3*3B
$GPGGA,162112,4959.9381,N,00839.2064,E,1,09,0.80,126.71,M,47.865,M,,*4F
$GPRMC,162112,A,4959.9381,N,00839.2064,E,13.2050,154.139,140111,,*10
$GPGSA,A,3,23,04,02,20,10,13,07,16,30,,,,0.0,0.8,0.0*3F
$GPGGA,162113,4959.9342,N,00839.2074,E,1,09,0.80,126.26,M,47.865,M,,*42
$GPRMC,162113,A,4959.9342,N,00839.2074,E,12.1830,173.923,140111,,*15
$GPGSA,A,3,23,04,02,20,10,13,07,16,30,,,,0.0,0.8,0.0*3F
$GPGSV,3,1,10,02,29,307,34,23,63,061,38,04,56,270,39,20,34,108,39*76
$GPGSV,3,2,10,07,20,175,36,30,10,057,29,10,34,289,32,13,79,229,39*7A
$GPGSV,3,3,10,16,06,075,28,126,30,159,28*40
$GPGGA,162114,4959.9308,N,00839.2059,E,1,09,0.80,126.27,M,47.865,M,,*45
$GPRMC,162114,A,4959.9308,N,00839.2059,E,12.2110,199.278,140111,,*1A
$GPGSA,A,3,23,04,02,20,10,13,07,16,30,,,,1.6,0.8,1.3*3A
$GPGGA,162115,4959.9283,N,00839.2029,E,1,08,1.00,126.23,M,47.865,M,,*4D
$GPRMC,162115,A,4959.9283,N,00839.2029,E,12.5594,220.816,140111,,*12
$GPGSA,A,3,23,04,02,20,10,13,07,30,,,,,0.0,1.0,0.0*31
$GPGGA,162116,4959.9260,N,00839.1975,E,1,08,1.00,125.89,M,47.865,M,,*43
$GPRMC,162116,A,4959.9260,N,00839.1975,E,13.8024,239.314,140111,,*1C
$GPGSA,A,3,23,04,02,20,10,13,07,30,,,,,0.0,1.0,0.0*31
$GPGSV,3,1,09,02,29,307,34,23,63,061,39,04,56,270,38,20,34,108,39*7E
$GPGSV,3,2,09,07,21,175,32,30,10,057,22,10,34,289,32,13,79,229,40*72
$GPGSV,3,3,09,126,30,159,24*7D
$GPGGA,162117,4959.9245,N,00839.1921,E,1,08,1.00,125.68,M,47.865,M,,*4B
$GPRMC,162117,A,4959.9245,N,00839.1921,E,15.4173,242.093,140111,,*12
$GPGSA,A,3,23,04,02,20,10,13,07,30,,,,,1.7,1.0,1.4*32
$GPGGA,162118,4959.9222,N,00839.1858,E,1,08,1.00,125.25,M,47.865,M,,*43
$GPRMC,162118,A,4959.9222,N,00839.1858,E,16.5404,243.966,140111,,*16
$GPGSA,A,3,23,04,02,20,10,13,07,30,,,,,0.0,1.0,0.0*31
$GPGGA,162119,4959.9196,N,00839.1794,E,1,08,1.00,125.45,M,47.865,M,,*47
$GPRMC,162119,A,4959.9196,N,00839.1794,E,17.0425,242.929,140111,,*19
$GPGSA,A,3,23,04,02,20,10,13,07,30,,,,,0.0,1.0,0.0*31
$GPGSV,3,1,09,02,29,307,34,23,63,061,38,04,56,270,39,20,34,108,40*70
$GPGSV,3,2,09,07,21,175,32,30,10,057,19,10,34,289,32,13,79,229,41*7B
$GPGSV,3,3,09,126,30,159,36*7E
$GPGGA,162120,4959.9174,N,00839.1731,E,1,08,1.00,125.02,M,47.865,M,,*4D
$GPRMC,162120,A,4959.9174,N,00839.1731,E,17.5046,241.976,140111,,*1D
$GPGSA,A,3,23,04,02,20,10,13,07,30,,,,,1.7,1.0,1.4*32
$GPGGA,162121,4959.9155,N,00839.1668,E,1,09,0.80,125.35,M,47.865,M,,*4E
$GPRMC,162121,A,4959.9155,N,00839.1668,E,17.5046,241.976,140111,,*12
$GPGSA,A,3,23,04,02,20,10,13,07,32,30,,,,0.0,0.8,0.0*39
$GPGGA,162122,4959.9129,N,00839.1596,E,1,08,1.60,125.46,M,47.865,M,,*4E
$GPRMC,162122,A,4959.9129,N,00839.1596,E,17.6989,241.059,140111,,*15
$GPGSA,A,3,23,04,02,20,10,13,32,30,,,,,0.0,1.6,0.0*31
$GPGSV,2,1,08,02,29,307,33,23,63,061,38,04,56,270,39,20,34,108,40*77
$GPGSV,2,2,08,30,10,057,27,10,34,289,32,13,79,229,41,32,09,102,32*7A
$GPGGA,162123,4959.9099,N,00839.1532,E,1,08,1.60,124.89,M,47.865,M,,*49
$GPRMC,162123,A,4959.9099,N,00839.1532,E,18.2268,238.847,140111,,*16
$GPGSA,A,3,23,04,02,20,10,13,32,30,,,,,2.2,1.6,1.6*36
$GPGGA,162124,4959.9072,N,00839.1467,E,1,09,0.80,125.10,M,47.865,M,,*45
$GPRMC,162124,A,4959.9072,N,00839.1467,E,18.7250,234.604,140111,,*1E
$GPGSA,A,3,23,04,02,20,10,13,07,32,30,,,,0.0,0.8,0.0*39
$GPGGA,162125,4959.9042,N,00839.1403,E,1,09,0.80,124.53,M,47.865,M,,*43
$GPRMC,162125,A,4959.9042,N,00839.1403,E,19.1064,232.200,140111,,*1A
$GPGSA,A,3,23,04,02,20,10,13,07,32,30,,,,0.0,0.8,0.0*39
$GPGSV,2,1,08,02,29,307,27,23,63,061,39,04,56,270,39,20,34,108,37*73
$GPGSV,2,2,08,30,10,057,27,10,34,289,32,13,79,229,41,32,09,102,28*71
$GPGGA,162126,4959.9004,N,00839.1346,E,1,08,1.60,123.94,M,47.865,M,,*46
$GPRMC,162126,A,4959.9004,N,00839.1346,E,18.7408,230.270,140111,,*11
$GPGSA,A,3,23,04,02,20,10,13,32,30,,,,,2.2,1.6,1.6*36
$GPGGA,162127,4959.8970,N,00839.1280,E,1,10,0.80,124.01,M,47.865,M,,*4A
$GPRMC,162127,A,4959.8970,N,00839.1280,E,18.0870,228.051,140111,,*1C
$GPGSA,A,3,23,04,02,20,10,13,07,16,32,30,,,0.0,0.8,0.0*3E
$GPGGA,162128,4959.8943,N,00839.1225,E,1,10,0.80,124.31,M,47.865,M,,*49
$GPRMC,162128,A,4959.8943,N,00839.1225,E,17.5688,228.584,140111,,*12
$GPGSA,A,3,23,04,02,20,10,13,07,16,32,30,,,0.0,0.8,0.0*3E
$GPGSV,3,1,10,02,29,307,28,23,63,061,40,04,56,270,34,20,34,108,34*74
$GPGSV,3,2,10,07,21,175,15,30,10,057,27,10,34,289,33,13,79,229,41*7A
$GPGSV,3,3,10,32,09,102,20,16,06,073,18*7D
$GPGGA,162129,4959.8908,N,00839.1176,E,1,10,0.80,124.57,M,47.865,M,,*42
$GPRMC,162129,A,4959.8908,N,00839.1176,E,17.4081,227.991,140111,,*10
$GPGSA,A,3,23,04,02,20,10,13,07,16,32,30,,,1.6,0.8,1.3*3B
$GPGGA,162130,4959.8877,N,00839.1120,E,1,10,0.80,124.11,M,47.865,M,,*42
$GPRMC,162130,A,4959.8877,N,00839.1120,E,17.2165,229.742,140111,,*11
$GPGSA,A,3,23,04,02,20,10,13,07,16,32,30,,,0.0,0.8,0.0*3E
$GPGGA,162131,4959.8851,N,00839.1055,E,1,09,0.80,124.31,M,47.865,M,,*4E
$GPRMC,162131,A,4959.8851,N,00839.1055,E,16.6161,232.785,140111,,*17
$GPGSA,A,3,23,04,02,20,10,13,07,16,30,,,,0.0,0.8,0.0*3F
$GPGSV,3,1,10,02,29,307,33,23,63,061,40,04,56,270,37,20,34,108,31*78
$GPGSV,3,2,10,07,21,175,32,30,10,057,26,10,34,289,33,13,79,229,41*7E
$GPGSV,3,3,10,32,09,102,00,126,30,159,33*48
$GPGGA,162132,4959.8831,N,00839.1001,E,1,08,1.00,124.74,M,47.865,M,,*43
$GPRMC,162132,A,4959.8831,N,00839.1001,E,15.9061,244.099,140111,,*15
$GPGSA,A,3,23,04,02,20,10,13,07,30,,,,,1.7,1.0,1.4*32
$GPGGA,162133,4959.8825,N,00839.0932,E,1,08,1.00,124.47,M,47.865,M,,*4F
$GPRMC,162133,A,4959.8825,N,00839.0932,E,15.9961,263.259,140111,,*1B
$GPGSA,A,3,23,04,02,20,10,13,07,30,,,,,0.0,1.0,0.0*31
$GPGGA,162134,4959.8834,N,00839.0858,E,1,09,0.80,124.37,M,47.865,M,,*4A
$GPRMC,162134,A,4959.8834,N,00839.0858,E,16.3352,280.572,140111,,*11
$GPGSA,A,3,23,04,02,20,10,13,07,16,30,,,,0.0,0.8,0.0*3F
$GPGSV,3,1,10,02,29,307,35,23,63,061,35,04,56,270,40,20,34,108,34*79
$GPGSV,3,2,10,07,21,175,34,30,10,057,26,10,34,289,38,13,79,229,41*73
$GPGSV,3,3,10,16,06,073,14,126,30,159,31*41
$GPGGA,162135,4959.8854,N,00839.0794,E,1,09,0.80,123.85,M,47.865,M,,*4C
$GPRMC,162135,A,4959.8854,N,00839.0794,E,17.2855,296.199,140111,,*13
$GPGSA,A,3,23,04,02,20,10,13,07,16,30,,,,1.6,0.8,1.3*3A
$GPGGA,162136,4959.8886,N,00839.0725,E,1,09,0.80,122.74,M,47.865,M,,*45
$GPRMC,162136,A,4959.8886,N,00839.0725,E,19.4641,308.474,140111,,*16
$GPGSA,A,3,23,04,02,20,10,13,07,16,30,,,,0.0,0.8,0.0*3F
$GPGGA,162137,4959.8925,N,00839.0663,E,1,09,0.80,123.25,M,47.865,M,,*4A
$GPRMC,162137,A,4959.8925,N,00839.0663,E,21.6312,313.593,140111,,*14
$GPGSA,A,3,23,04,02,20,10,13,07,16,30,,,,0.0,0.8,0.0*3F
$GPGSV,3,1,10,02,29,307,35,23,63,061,39,04,56,270,42,20,34,108,34*77
$GPGSV,3,2,10,07,21,175,14,30,10,057,20,10,34,289,39,13,79,229,41*76
$GPGSV,3,3,10,16,06,073,14,126,30,159,31*41
$GPGGA,162138,4959.8969,N,00839.0587,E,1,09,0.80,122.94,M,47.865,M,,*4F
$GPRMC,162138,A,4959.8969,N,00839.0587,E,22.3211,312.764,140111,,*15
$GPGSA,A,3,23,04,02,20,10,13,07,16,30,,,,1.6,0.8,1.3*3A
$GPGGA,162139,4959.9004,N,00839.0526,E,1,08,1.80,122.69,M,47.865,M,,*44
$GPRMC,162139,A,4959.9004,N,00839.0526,E,21.2378,313.130,140111,,*16
$GPGSA,A,3,23,04,02,20,10,13,16,30,,,,,0.0,1.8,0.0*39
$GPGGA,162140,4959.9047,N,00839.0466,E,1,08,1.80,122.57,M,47.865,M,,*45
$GPRMC,162140,A,4959.9047,N,00839.0466,E,19.2117,319.238,140111,,*1B
$GPGSA,A,3,23,04,02,20,10,13,16,30,,,,,0.0,1.8,0.0*39
$GPGSV,3,1,10,02,29,307,35,23,63,061,39,04,56,270,42,20,34,108,32*71
$GPGSV,3,2,10,07,21,175,25,30,10,057,20,10,34,289,37,13,79,229,41*7A
$GPGSV,3,3,10,16,06,073,13,126,30,159,29*4F
$GPGGA,162141,4959.9088,N,00839.0431,E,1,09,0.80,122.74,M,47.865,M,,*44
$GPRMC,162141,A,4959.9088,N,00839.0431,E,18.1096,333.061,140111,,*17
$GPGSA,A,3,23,04,02,20,10,13,07,16,30,,,,1.6,0.8,1.3*3A
$GPGGA,162142,4959.9139,N,00839.0415,E,1,08,1.00,122.59,M,47.865,M,,*4D
$GPRMC,162142,A,4959.9139,N,00839.0415,E,18.4832,352.057,140111,,*18
$GPGSA,A,3,23,04,02,20,10,13,07,30,,,,,0.0,1.0,0.0*31
$GPGGA,162143,4959.9192,N,00839.0433,E,1,07,1.20,122.20,M,47.865,M,,*4A
$GPRMC,162143,A,4959.9192,N,00839.0433,E,19.3980,13.591,140111,,*2B
$GPGSA,A,3,23,04,02,20,10,13,07,,,,,,0.0,1.2,0.0*30
$GPGSV,3,1,09,02,29,307,40,23,63,061,39,04,56,270,29,20,34,108,32*76
$GPGSV,3,2,09,07,21,175,31,10,34,289,37,13,79,229,40,17,02,220,24*76
$GPGSV,3,3,09,126,30,159,28*71
$GPGGA,162144,4959.9238,N,00839.0483,E,1,07,1.20,122.83,M,47.865,M,,*4C
$GPRMC,162144,A,4959.9238,N,00839.0483,E,20.9728,33.214,140111,,*20
$GPGSA,A,3,23,04,02,20,10,13,07,,,,,,2.3,1.2,1.9*39
$GPGGA,162145,4959.9287,N,00839.0551,E,1,09,0.80,123.02,M,47.865,M,,*4A
$GPRMC,162145,A,4959.9287,N,00839.0551,E,25.7261,44.597,140111,,*24
$GPGSA,A,3,23,04,02,20,10,13,07,32,30,,,,0.0,0.8,0.0*39
$GPGGA,162146,4959.9343,N,00839.0637,E,1,09,0.80,123.54,M,47.865,M,,*40
$GPRMC,162146,A,4959.9343,N,00839.0637,E,28.3047,45.545,140111,,*2C
$GPGSA,A,3,23,04,02,20,10,13,07,32,30,,,,0.0,0.8,0.0*39
$GPGSV,3,1,10,02,29,307,30,23,63,061,40,04,56,270,38,20,34,108,31*74
$GPGSV,3,2,10,07,21,175,24,32,09,102,19,10,34,289,36,13,79,231,40*73
$GPGSV,3,3,10,17,02,220,27,30,10,055,28*71
$GPGGA,162147,4959.9402,N,00839.0732,E,1,09,0.80,123.51,M,47.865,M,,*42
$GPRMC,162147,A,4959.9402,N,00839.0732,E,29.6427,46.535,140111,,*29
$GPGSA,A,3,23,04,02,20,10,13,07,32,30,,,,1.6,0.8,1.3*3C
$GPGGA,162148,4959.9460,N,00839.0828,E,1,09,0.80,123.48,M,47.865,M,,*45
$GPRMC,162148,A,4959.9460,N,00839.0828,E,32.2867,47.741,140111,,*20
$GPGSA,A,3,23,04,02,20,10,13,07,32,30,,,,0.0,0.8,0.0*39
$GPGGA,162149,4959.9522,N,00839.0941,E,1,09,0.80,123.02,M,47.865,M,,*43
$GPRMC,162149,A,4959.9522,N,00839.0941,E,34.6111,47.684,140111,,*2A
$GPGSA,A,3,23,04,02,20,10,13,07,32,30,,,,0.0,0.8,0.0*39
$GPGSV,3,1,10,02,29,307,31,23,63,061,40,04,56,270,40,20,34,108,31*7A
$GPGSV,3,2,10,07,21,175,26,32,09,102,18,10,34,289,36,13,79,231,40*70
$GPGSV,3,3,10,17,02,220,26,30,10,055,30*79
$GPGGA,162150,4959.9596,N,00839.1047,E,1,09,0.80,123.35,M,47.865,M,,*4E
$GPRMC,162150,A,4959.9596,N,00839.1047,E,37.5103,45.861,140111,,*27
$GPGSA,A,3,23,04,02,20,10,13,07,32,30,,,,1.6,0.8,1.3*3C
$GPGGA,162151,4959.9668,N,00839.1171,E,1,09,0.80,122.47,M,47.865,M,,*4D
$GPRMC,162151,A,4959.9668,N,00839.1171,E,38.3846,47.715,140111,,*2F
$GPGSA,A,3,23,04,02,20,10,13,07,32,30,,,,0.0,0.8,0.0*39
$GPGGA,162152,4959.9736,N,00839.1302,E,1,09,0.80,122.33,M,47.865,M,,*41
$GPRMC,162152,A,4959.9736,N,00839.1302,E,39.8847,49.479,140111,,*2C
$GPGSA,A,3,23,04,02,20,10,13,07,32,30,,,,0.0,0.8,0.0*39
$GPGSV,3,1,09,02,29,307,30,23,63,061,40,04,56,270,40,20,34,108,22*71
$GPGSV,3,2,09,07,21,175,23,32,09,102,17,10,34,289,43,13,79,231,40*70
$GPGSV,3,3,09,30,10,055,27*47
$GPGGA,162153,4959.9808,N,00839.1442,E,1,09,0.80,121.65,M,47.865,M,,*41
$GPRMC,162153,A,4959.9808,N,00839.1442,E,41.4246,52.094,140111,,*29
$GPGSA,A,3,23,04,02,20,10,13,07,32,30,,,,1.7,0.8,1.3*3D
$GPGGA,162154,4959.9878,N,00839.1590,E,1,09,0.80,122.46,M,47.865,M,,*4D
$GPRMC,162154,A,4959.9878,N,00839.1590,E,42.6475,53.690,140111,,*23
$GPGSA,A,3,23,04,02,20,10,13,07,32,30,,,,0.0,0.8,0.0*39
$GPGGA,162155,4959.9950,N,00839.1730,E,1,08,1.00,121.78,M,47.865,M,,*49
$GPRMC,162155,A,4959.9950,N,00839.1730,E,41.9322,53.359,140111,,*28
$GPGSA,A,3,23,04,02,20,10,13,07,30,,,,,0.0,1.0,0.0*31
$GPGSV,2,1,08,02,29,307,32,23,63,061,42,04,56,270,40,20,34,108,31*73
$GPGSV,2,2,08,10,34,289,41,13,79,231,41,30,10,055,35,120,28,210,15*42
$GPGGA,162156,5000.0016,N,00839.1886,E,1,07,2.00,121.93,M,47.865,M,,*47
$GPRMC,162156,A,5000.0016,N,00839.1886,E,43.9022,54.815,140111,,*2A
$GPGSA,A,3,23,04,02,20,10,13,30,,,,,,2.9,2.0,2.1*3D
$GPGGA,162157,5000.0081,N,00839.2050,E,1,07,2.00,122.17,M,47.865,M,,*47
$GPRMC,162157,A,5000.0081,N,00839.2050,E,45.3153,57.875,140111,,*2B
$GPGSA,A,3,23,04,02,20,10,13,30,,,,,,0.0,2.0,0.0*35
$GPGGA,162158,5000.0150,N,00839.2214,E,1,07,2.00,123.18,M,47.865,M,,*49
$GPRMC,162158,A,5000.0150,N,00839.2214,E,46.0922,58.992,140111,,*22
$GPGSA,A,3,23,04,02,20,10,13,30,,,,,,0.0,2.0,0.0*35
$GPGSV,2,1,08,02,29,307,34,23,63,061,42,04,56,270,39,20,34,108,31*7B
$GPGSV,2,2,08,10,34,289,41,13,79,231,40,30,10,055,36,120,28,210,30*47
$GPGGA,162159,5000.0215,N,00839.2395,E,1,07,2.00,123.62,M,47.865,M,,*4F
$GPRMC,162159,A,5000.0215,N,00839.2395,E,46.7309,60.403,140111,,*23
$GPGSA,A,3,23,04,02,20,10,13,30,,,,,,2.9,2.0,2.1*3D
$GPGGA,162200,5000.0275,N,00839.2574,E,1,10,0.80,124.69,M,47.865,M,,*4F
$GPRMC,162200,A,5000.0275,N,00839.2574,E,47.7413,61.105,140111,,*2C
$GPGSA,A,3,23,04,02,20,10,13,16,07,32,30,,,0.0,0.8,0.0*3E
$GPGGA,162201,5000.0339,N,00839.2753,E,1,10,0.80,126.53,M,47.865,M,,*4B
$GPRMC,162201,A,5000.0339,N,00839.2753,E,48.2940,62.113,140111,,*26
$GPGSA,A,3,23,04,02,20,10,13,16,07,32,30,,,0.0,0.8,0.0*3E
$GPGSV,3,1,11,02,29,307,36,23,63,061,41,04,56,270,39,20,34,108,36*74
$GPGSV,3,2,11,16,07,073,28,07,21,175,30,10,34,289,41,13,79,231,40*7A
$GPGSV,3,3,11,32,09,102,34,30,10,055,36,120,28,210,27*7D
$GPGGA,162202,5000.0398,N,00839.2941,E,1,10,0.80,127.70,M,47.865,M,,*4E
$GPRMC,162202,A,5000.0398,N,00839.2941,E,47.4271,63.660,140111,,*21
$GPGSA,A,3,23,04,02,20,10,13,16,07,32,30,,,1.6,0.8,1.3*3B
$GPGGA,162203,5000.0451,N,00839.3119,E,1,10,0.80,128.64,M,47.865,M,,*43
$GPRMC,162203,A,5000.0451,N,00839.3119,E,45.8402,64.456,140111,,*2A
$GPGSA,A,3,23,04,02,20,10,13,16,07,32,30,,,0.0,0.8,0.0*3E
$GPGGA,162204,5000.0500,N,00839.3287,E,1,10,0.80,130.12,M,47.865,M,,*4D
$GPRMC,162204,A,5000.0500,N,00839.3287,E,42.1165,65.710,140111,,*26
$GPGSA,A,3,23,04,02,20,10,13,16,07,32,30,,,0.0,0.8,0.0*3E
$GPGSV,3,1,11,02,29,307,40,23,63,061,41,04,56,270,34,20,34,108,36*78
$GPGSV,3,2,11,16,07,073,30,07,21,175,27,10,34,289,40,13,79,231,39*7A
$GPGSV,3,3,11,32,09,102,33,30,10,055,36,120,28,210,24*79
$GPGGA,162205,5000.0539,N,00839.3437,E,1,10,0.80,131.92,M,47.865,M,,*42
$GPRMC,162205,A,5000.0539,N,00839.3437,E,37.7253,66.882,140111,,*25
$GPGSA,A,3,23,04,02,20,10,13,16,07,32,30,,,1.6,0.8,1.3*3B
$GPGGA,162206,5000.0575,N,00839.3578,E,1,10,0.80,132.85,M,47.865,M,,*46
$GPRMC,162206,A,5000.0575,N,00839.3578,E,34.4757,67.426,140111,,*26
$GPGSA,A,3,23,04,02,20,10,13,16,07,32,30,,,0.0,0.8,0.0*3E
$GPGGA,162207,5000.0609,N,00839.3703,E,1,10,0.80,132.82,M,47.865,M,,*46
$GPRMC,162207,A,5000.0609,N,00839.3703,E,32.1836,68.626,140111,,*27
$GPGSA,A,3,23,04,02,20,10,13,16,07,32,30,,,0.0,0.8,0.0*3E
$GPGSV,3,1,11,02,29,307,41,23,63,061,42,04,56,270,34,20,34,108,35*79
$GPGSV,3,2,11,16,07,073,31,07,21,175,26,10,34,289,40,13,79,231,39*7A
$GPGSV,3,3,11,32,09,102,29,30,10,055,36,120,28,210,28*7E
$GPGGA,162208,5000.0641,N,00839.3834,E,1,10,0.80,134.28,M,47.865,M,,*48
$GPRMC,162208,A,5000.0641,N,00839.3834,E,30.3299,69.356,140111,,*23
$GPGSA,A,3,23,04,02,20,10,13,16,07,32,30,,,1.6,0.8,1.3*3B
