$GPGGA,132207,4940.9151,N,01052.7290,E,1,07,1.30,296.4,M,47.453,M,,*75
$GPRMC,132207,A,4940.9151,N,01052.7290,E,0.0000,0.000,050507,,*20
$GPGSA,A,3,25,13,27,23,02,04,20,,,,,,2.3,1.3,1.9*3C
$PGRME,0.00,M,0.00,M,8.86,M*18
$GPGSV,3,1,11,25,61,094,20,13,81,027,28,27,41,181,19,23,49,064,27*7B
$GPGSV,3,2,11,02,37,298,35,04,52,243,34,16,14,053,00,08,14,191,00*7A
$GPGSV,3,3,11,10,06,297,00,44,07,250,00,20,14,118,25*4A
$GPGGA,132208,4940.9151,N,01052.7290,E,1,07,1.30,296.4,M,47.453,M,,*7A
$GPRMC,132208,A,4940.9151,N,01052.7290,E,0.0000,0.000,050507,,*2F
$GPGSA,A,3,25,13,27,23,02,04,20,,,,,,2.3,1.3,1.9*3C
$PGRME,0.00,M,0.00,M,8.86,M*18
$GPGSV,3,1,11,25,61,094,23,13,81,027,28,27,41,181,18,23,49,064,27*79
$GPGSV,3,2,11,02,37,298,35,04,52,243,34,16,14,053,00,08,14,191,00*7A
$GPGSV,3,3,11,10,06,297,00,44,07,250,00,20,14,119,25*4B
$GPGGA,132209,4940.9151,N,01052.7290,E,1,07,1.30,296.4,M,47.453,M,,*7B
$GPRMC,132209,A,4940.9151,N,01052.7290,E,0.0000,0.000,050507,,*2E
$GPGSA,A,3,25,13,27,23,02,04,20,,,,,,2.3,1.3,1.9*3C
$PGRME,0.00,M,0.00,M,8.86,M*18
$GPGSV,3,1,11,25,61,094,24,13,81,027,28,27,41,181,19,23,49,064,27*7F
$GPGSV,3,2,11,02,37,298,35,04,52,243,34,16,14,053,00,08,14,191,00*7A
$GPGSV,3,3,11,10,06,297,00,44,07,250,00,20,14,119,24*4A
$GPGGA,132210,4940.9151,N,01052.7290,E,1,07,1.30,296.4,M,47.453,M,,*73
$GPRMC,132210,A,4940.9151,N,01052.7290,E,0.0000,0.000,050507,,*26
$GPGSA,A,3,25,13,27,23,02,04,20,,,,,,2.3,1.3,1.9*3C
$PGRME,0.00,M,0.00,M,8.86,M*18
$GPGSV,3,1,11,25,61,094,23,13,81,027,29,27,41,181,19,23,49,064,28*76
$GPGSV,3,2,11,02,37,298,34,04,52,243,34,16,14,053,00,08,14,191,00*7B
$GPGSV,3,3,11,10,06,297,00,44,07,250,00,20,14,119,24*4A
$GPGGA,132211,4940.9151,N,01052.7290,E,1,07,1.30,296.4,M,47.453,M,,*72
$GPRMC,132211,A,4940.9151,N,01052.7290,E,0.0000,0.000,050507,,*27
$GPGSA,A,3,25,13,27,23,02,04,20,,,,,,2.3,1.3,1.9*3C
$PGRME,0.00,M,0.00,M,8.86,M*18
$GPGSV,3,1,11,25,61,094,22,13,81,027,29,27,41,181,18,23,49,064,27*79
$GPGSV,3,2,11,02,37,298,35,04,52,243,35,16,14,053,00,08,14,191,00*7B
$GPGSV,3,3,11,10,06,297,00,44,07,250,00,20,14,119,22*4C
$GPGGA,132212,4940.9151,N,01052.7290,E,1,07,1.30,296.4,M,47.453,M,,*71
$GPRMC,132212,A,4940.9151,N,01052.7290,E,0.0000,0.000,050507,,*24
$GPGSA,A,3,25,13,27,23,02,04,20,,,,,,2.3,1.3,1.9*3C
$PGRME,0.00,M,0.00,M,8.86,M*18
$GPGSV,3,1,11,25,61,094,21,13,81,027,29,27,41,181,17,23,49,064,27*75
$GPGSV,3,2,11,02,37,298,35,04,52,243,35,16,14,053,00,08,14,191,00*7B
$GPGSV,3,3,11,10,06,297,00,44,07,250,00,20,14,119,21*4F
$GPGGA,132213,4940.9151,N,01052.7290,E,1,07,1.30,296.4,M,47.453,M,,*70
$GPRMC,132213,A,4940.9151,N,01052.7290,E,0.0000,0.000,050507,,*25
$GPGSA,A,3,25,13,27,23,02,04,20,,,,,,2.3,1.3,1.9*3C
$PGRME,0.00,M,0.00,M,8.86,M*18
$GPGSV,3,1,11,25,61,094,21,13,81,027,30,27,41,181,16,23,49,064,26*7D
$GPGSV,3,2,11,02,37,298,36,04,52,243,35,16,14,053,00,08,14,191,00*78
$GPGSV,3,3,11,10,06,297,00,44,07,250,00,20,14,119,20*4E
$GPGGA,132214,4940.9151,N,01052.7290,E,1,07,1.30,296.4,M,47.453,M,,*77
$GPRMC,132214,A,4940.9151,N,01052.7290,E,0.0000,0.000,050507,,*22
$GPGSA,A,3,25,13,27,23,02,04,20,,,,,,2.3,1.3,1.9*3C
$PGRME,0.00,M,0.00,M,8.86,M*18
$GPGSV,3,1,11,25,61,094,20,13,81,027,30,27,41,181,17,23,49,064,26*7D
$GPGSV,3,2,11,02,37,298,34,04,52,243,33,16,14,053,00,08,14,191,00*7C
$GPGSV,3,3,11,10,06,297,00,44,07,250,00,20,14,119,22*4C
$GPGGA,132215,4940.9151,N,01052.7290,E,1,07,1.30,296.4,M,47.453,M,,*76
$GPRMC,132215,A,4940.9151,N,01052.7290,E,0.0000,0.000,050507,,*23
$GPGSA,A,3,25,13,27,23,02,04,20,,,,,,2.3,1.3,1.9*3C
$PGRME,0.00,M,0.00,M,8.86,M*18
$GPGSV,3,1,11,25,61,094,21,13,81,027,30,27,41,181,17,23,49,064,26*7C
$GPGSV,3,2,11,02,37,298,34,04,52,243,33,16,14,053,00,08,14,191,00*7C
$GPGSV,3,3,11,10,06,297,00,44,07,250,00,20,14,119,24*4A
$GPGGA,132216,4940.9151,N,01052.7290,E,1,07,1.30,296.4,M,47.453,M,,*75
$GPRMC,132216,A,4940.9151,N,01052.7290,E,0.0000,0.000,050507,,*20
$GPGSA,A,3,25,13,27,23,02,04,20,,,,,,2.3,1.3,1.9*3C
$PGRME,0.00,M,0.00,M,8.86,M*18
$GPGSV,3,1,11,25,61,094,23,13,81,027,30,27,41,181,19,23,49,064,27*71
$GPGSV,3,2,11,02,37,298,34,04,52,243,33,16,14,053,00,08,14,191,00*7C
$GPGSV,3,3,11,10,06,297,00,44,07,250,00,20,14,119,23*4D
$GPGGA,132217,4940.9151,N,01052.7290,E,1,07,1.30,296.4,M,47.453,M,,*74
$GPRMC,132217,A,4940.9151,N,01052.7290,E,0.0000,0.000,050507,,*21
$GPGSA,A,3,25,13,27,23,02,04,20,,,,,,2.3,1.3,1.9*3C
$PGRME,0.00,M,0.00,M,8.86,M*18
$GPGSV,3,1,11,25,61,094,24,13,81,027,30,27,41,181,19,23,49,064,28*79
$GPGSV,3,2,11,02,37,298,35,04,52,243,33,16,14,053,00,08,14,191,00*7D
$GPGSV,3,3,11,10,06,297,00,44,07,250,00,20,14,119,24*4A
$GPGGA,132218,4940.9151,N,01052.7290,E,1,07,1.30,296.4,M,47.453,M,,*7B
$GPRMC,132218,A,4940.9151,N,01052.7290,E,0.0000,0.000,050507,,*2E
$GPGSA,A,3,25,13,27,23,02,04,20,,,,,,2.3,1.3,1.9*3C
$PGRME,0.00,M,0.00,M,8.86,M*18
$GPGSV,3,1,11,25,61,094,25,13,81,027,30,27,41,181,19,23,49,064,28*78
$GPGSV,3,2,11,02,37,298,34,04,52,243,32,16,14,053,00,08,14,191,00*7D
$GPGSV,3,3,11,10,06,297,00,44,07,250,00,20,14,119,23*4D
$GPGGA,132219,4940.9151,N,01052.7290,E,1,07,1.30,296.4,M,47.453,M,,*7A
$GPRMC,132219,A,4940.9151,N,01052.7290,E,0.0000,0.000,050507,,*2F
$GPGSA,A,3,25,13,27,23,02,04,20,,,,,,2.3,1.3,1.9*3C
$PGRME,0.00,M,0.00,M,8.86,M*18
$GPGSV,3,1,11,25,61,094,24,13,81,027,30,27,41,181,20,23,49,064,29*72
$GPGSV,3,2,11,02,37,298,34,04,52,243,31,16,14,053,00,08,14,191,00*7E
$GPGSV,3,3,11,10,06,297,00,44,07,250,00,20,14,119,24*4A
$GPGGA,132220,4940.9151,N,01052.7290,E,1,07,1.30,296.4,M,47.453,M,,*70
$GPRMC,132220,A,4940.9151,N,01052.7290,E,0.0000,0.000,050507,,*25
$GPGSA,A,3,25,13,27,23,02,04,20,,,,,,2.3,1.3,1.9*3C
$PGRME,0.00,M,0.00,M,8.86,M*18
$GPGSV,3,1,11,25,61,094,25,13,81,027,29,27,41,181,19,23,49,064,28*70
$GPGSV,3,2,11,02,37,298,33,04,52,243,32,16,14,053,00,08,14,191,00*7A
$GPGSV,3,3,11,10,06,297,00,44,07,250,00,20,14,119,24*4A
$GPGGA,132221,4940.9151,N,01052.7290,E,1,07,1.30,296.4,M,47.453,M,,*71
$GPRMC,132221,A,4940.9151,N,01052.7290,E,0.0000,0.000,050507,,*24
$GPGSA,A,3,25,13,27,23,02,04,20,,,,,,2.3,1.3,1.9*3C
$PGRME,0.00,M,0.00,M,8.86,M*18
$GPGSV,3,1,11,25,61,094,25,13,81,027,29,27,41,181,19,23,49,064,29*71
$GPGSV,3,2,11,02,37,297,34,04,52,243,33,16,14,053,00,08,14,191,00*73
$GPGSV,3,3,11,10,06,297,00,44,07,250,00,20,14,119,25*4B
$GPGGA,132222,4940.9151,N,01052.7290,E,1,07,1.30,296.4,M,47.453,M,,*72
$GPRMC,132222,A,4940.9151,N,01052.7290,E,0.0000,0.000,050507,,*27
$GPGSA,A,3,25,13,27,23,02,04,20,,,,,,2.3,1.3,1.9*3C
$PGRME,0.00,M,0.00,M,8.86,M*18
$GPGSV,3,1,11,25,61,094,24,13,81,027,29,27,41,181,20,23,49,064,29*7A
$GPGSV,3,2,11,02,37,297,34,04,52,243,33,16,14,053,00,08,14,191,00*73
$GPGSV,3,3,11,10,06,297,00,44,07,250,00,20,14,119,25*4B
$GPGGA,132223,4940.9151,N,01052.7290,E,1,07,1.30,296.4,M,47.453,M,,*73
$GPRMC,132223,A,4940.9151,N,01052.7290,E,0.0000,0.000,050507,,*26
$GPGSA,A,3,25,13,27,23,02,04,20,,,,,,2.3,1.3,1.9*3C
$PGRME,0.00,M,0.00,M,8.86,M*18
$GPGSV,3,1,11,25,61,094,23,13,81,027,30,27,41,181,20,23,49,064,30*7D
$GPGSV,3,2,11,02,37,297,34,04,52,243,32,16,14,053,00,08,14,191,00*72
$GPGSV,3,3,11,10,06,297,00,44,07,250,00,20,14,119,25*4B
$GPGGA,132224,4940.9151,N,01052.7290,E,1,07,1.30,296.4,M,47.453,M,,*74
$GPRMC,132224,A,4940.9151,N,01052.7290,E,0.0000,0.000,050507,,*21
$GPGSA,A,3,25,13,27,23,02,04,20,,,,,,2.3,1.3,1.9*3C
$PGRME,0.00,M,0.00,M,8.86,M*18
$GPGSV,3,1,11,25,61,094,23,13,81,027,28,27,41,181,20,23,49,064,29*7C
$GPGSV,3,2,11,02,37,297,33,04,52,243,32,16,14,053,00,08,14,191,00*75
$GPGSV,3,3,11,10,06,297,00,44,07,250,00,20,14,119,24*4A
$GPGGA,132225,4940.9151,N,01052.7290,E,1,07,1.30,296.4,M,47.453,M,,*75
$GPRMC,132225,A,4940.9151,N,01052.7290,E,0.0000,0.000,050507,,*20
$GPGSA,A,3,25,13,27,23,02,04,20,,,,,,2.3,1.3,1.9*3C
$PGRME,0.00,M,0.00,M,8.86,M*18
$GPGSV,3,1,11,25,61,094,24,13,81,027,29,27,41,181,19,23,49,064,30*78
$GPGSV,3,2,11,02,37,297,33,04,52,243,33,16,14,053,00,08,14,191,00*74
$GPGSV,3,3,11,10,06,297,00,44,07,250,00,20,14,119,24*4A
$GPGGA,132226,4940.9151,N,01052.7290,E,1,07,1.30,296.4,M,47.453,M,,*76
$GPRMC,132226,A,4940.9151,N,01052.7290,E,0.0000,0.000,050507,,*23
$GPGSA,A,3,25,13,27,23,02,04,20,,,,,,2.3,1.3,1.9*3C
$PGRME,0.00,M,0.00,M,8.86,M*18
$GPGSV,3,1,11,25,61,094,24,13,81,027,29,27,41,181,19,23,49,064,30*78
$GPGSV,3,2,11,02,37,297,33,04,52,243,33,16,14,053,00,08,14,191,00*74
$GPGSV,3,3,11,10,06,297,00,44,07,250,00,20,14,119,25*4B
$GPGGA,132227,4940.9151,N,01052.7290,E,1,07,1.30,296.4,M,47.453,M,,*77
$GPRMC,132227,A,4940.9151,N,01052.7290,E,0.0000,0.000,050507,,*22
$GPGSA,A,3,25,13,27,23,02,04,20,,,,,,2.3,1.3,1.9*3C
$PGRME,0.00,M,0.00,M,8.86,M*18
$GPGSV,3,1,11,25,61,094,23,13,81,027,29,27,41,181,19,23,49,064,30*7F
$GPGSV,3,2,11,02,37,297,33,04,52,243,33,16,14,053,00,08,14,191,00*74
$GPGSV,3,3,11,10,06,297,00,44,07,250,00,20,14,119,25*4B
$GPGGA,132228,4940.9151,N,01052.7290,E,1,07,1.30,296.4,M,47.453,M,,*78
$GPRMC,132228,A,4940.9151,N,01052.7290,E,0.0000,0.000,050507,,*2D
$GPGSA,A,3,25,13,27,23,02,04,20,,,,,,2.3,1.3,1.9*3C
$PGRME,0.00,M,0.00,M,8.86,M*18
$GPGSV,3,1,11,25,61,094,23,13,81,027,30,27,41,181,18,23,49,064,31*77
$GPGSV,3,2,11,02,37,297,33,04,52,243,34,16,14,053,00,08,14,191,00*73
$GPGSV,3,3,11,10,06,297,00,44,07,250,00,20,14,119,24*4A
$GPGGA,132229,4940.9151,N,01052.7290,E,1,07,1.30,296.4,M,47.453,M,,*79
$GPRMC,132229,A,4940.9151,N,01052.7290,E,0.0000,0.000,050507,,*2C
$GPGSA,A,3,25,13,27,23,02,04,20,,,,,,2.3,1.3,1.9*3C
$PGRME,0.00,M,0.00,M,8.86,M*18
$GPGSV,3,1,11,25,61,094,22,13,81,027,30,27,41,181,17,23,49,064,32*7A
$GPGSV,3,2,11,02,37,297,32,04,52,243,33,16,14,053,00,08,14,191,00*75
$GPGSV,3,3,11,10,07,297,00,44,07,250,00,20,14,119,23*4C
$GPGGA,132230,4940.9151,N,01052.7290,E,1,07,1.30,296.4,M,47.453,M,,*71
$GPRMC,132230,A,4940.9151,N,01052.7290,E,0.0000,0.000,050507,,*24
$GPGSA,A,3,25,13,27,23,02,04,20,,,,,,2.3,1.3,1.9*3C
$PGRME,0.00,M,0.00,M,8.86,M*18
$GPGSV,3,1,11,25,61,094,24,13,81,027,30,27,41,181,17,23,49,064,31*7F
$GPGSV,3,2,11,02,37,297,32,04,52,243,33,16,14,053,00,08,14,191,00*75
$GPGSV,3,3,11,10,07,297,00,44,07,250,00,20,14,119,24*4B
$GPGGA,132231,4940.9151,N,01052.7290,E,1,07,1.30,296.4,M,47.453,M,,*70
$GPRMC,132231,A,4940.9151,N,01052.7290,E,0.0000,0.000,050507,,*25
$GPGSA,A,3,25,13,27,23,02,04,20,,,,,,2.3,1.3,1.9*3C
$PGRME,0.00,M,0.00,M,8.86,M*18
$GPGSV,3,1,11,25,61,094,24,13,81,028,30,27,41,181,17,23,49,064,31*70
$GPGSV,3,2,11,02,37,297,33,04,52,243,33,16,14,053,00,08,14,191,00*74
$GPGSV,3,3,11,10,07,297,00,44,07,250,00,20,14,119,25*4A
$GPGGA,132232,4940.9151,N,01052.7290,E,1,07,1.30,296.4,M,47.453,M,,*73
$GPRMC,132232,A,4940.9151,N,01052.7290,E,0.0000,0.000,050507,,*26
$GPGSA,A,3,25,13,27,23,02,04,20,,,,,,2.3,1.3,1.9*3C
$PGRME,0.00,M,0.00,M,8.86,M*18
$GPGSV,3,1,11,25,61,094,25,13,81,028,31,27,41,181,17,23,49,064,30*71
$GPGSV,3,2,11,02,37,297,33,04,52,243,33,16,14,053,00,08,14,191,00*74
$GPGSV,3,3,11,10,07,297,00,44,07,250,00,20,14,119,25*4A
$GPGGA,132233,4940.9151,N,01052.7290,E,1,07,1.30,296.4,M,47.453,M,,*72
$GPRMC,132233,A,4940.9151,N,01052.7290,E,0.0000,0.000,050507,,*27
$GPGSA,A,3,25,13,27,23,02,04,20,,,,,,2.3,1.3,1.9*3C
$PGRME,0.00,M,0.00,M,8.86,M*18
$GPGSV,3,1,11,25,61,094,26,13,81,028,30,27,41,181,17,23,49,064,31*72
$GPGSV,3,2,11,02,37,297,32,04,52,243,33,16,14,053,00,08,14,191,00*75
$GPGSV,3,3,11,10,07,297,00,42,07,250,00,20,14,119,25*4C
$GPGGA,132234,4940.9155,N,01052.7291,E,1,07,1.30,295.8,M,47.453,M,,*7F
$GPRMC,132234,A,4940.9155,N,01052.7291,E,0.0000,0.000,050507,,*25
$GPGSA,A,3,25,13,27,23,02,04,20,,,,,,2.3,1.3,1.9*3C
$PGRME,0.00,M,0.00,M,8.86,M*18
$GPGSV,3,1,11,25,61,094,26,13,81,028,29,27,41,181,16,23,49,064,32*78
$GPGSV,3,2,11,02,37,297,33,04,52,243,34,16,14,053,00,08,14,191,00*73
$GPGSV,3,3,11,10,07,297,00,42,07,250,00,20,14,119,25*4C
$GPGGA,132235,4940.9155,N,01052.7291,E,1,07,1.30,295.8,M,47.453,M,,*7E
$GPRMC,132235,A,4940.9155,N,01052.7291,E,0.0000,0.000,050507,,*24
$GPGSA,A,3,25,13,27,23,02,04,20,,,,,,2.3,1.3,1.9*3C
$PGRME,0.00,M,0.00,M,8.86,M*18
$GPGSV,3,1,11,25,61,094,26,13,81,028,29,27,41,181,16,23,49,064,31*7B
$GPGSV,3,2,11,02,37,297,32,04,52,243,34,16,14,053,00,08,14,191,00*72
$GPGSV,3,3,11,10,07,297,00,42,07,250,00,20,14,119,24*4D
$GPGGA,132236,4940.9152,N,01052.7291,E,1,07,1.30,295.0,M,47.453,M,,*72
$GPRMC,132236,A,4940.9152,N,01052.7291,E,0.0000,0.000,050507,,*20
$GPGSA,A,3,25,13,27,23,02,04,20,,,,,,2.3,1.3,1.9*3C
$PGRME,0.00,M,0.00,M,8.86,M*18
$GPGSV,3,1,11,25,61,094,24,13,81,028,30,27,41,181,17,23,49,064,31*70
$GPGSV,3,2,11,02,37,297,32,04,52,243,34,16,14,053,00,08,14,191,00*72
$GPGSV,3,3,11,10,07,297,00,42,07,250,00,20,14,119,24*4D
$GPGGA,132237,4940.9152,N,01052.7291,E,1,07,1.30,295.0,M,47.453,M,,*73
$GPRMC,132237,A,4940.9152,N,01052.7291,E,0.0000,0.000,050507,,*21
$GPGSA,A,3,25,13,27,23,02,04,20,,,,,,2.3,1.3,1.9*3C
$PGRME,0.00,M,0.00,M,8.86,M*18
$GPGSV,3,1,11,25,61,094,25,13,81,028,29,27,41,181,16,23,49,064,31*78
$GPGSV,3,2,11,02,37,297,32,04,52,243,34,16,14,053,00,08,14,191,00*72
$GPGSV,3,3,11,10,07,297,00,42,07,250,00,20,14,119,24*4D
$GPGGA,132238,4940.9152,N,01052.7291,E,1,07,1.30,295.0,M,47.453,M,,*7C
$GPRMC,132238,A,4940.9152,N,01052.7291,E,0.0000,0.000,050507,,*2E
$GPGSA,A,3,25,13,27,23,02,04,20,,,,,,2.3,1.3,1.9*3C
$PGRME,0.00,M,0.00,M,8.86,M*18
$GPGSV,3,1,11,25,61,094,25,13,81,028,29,27,41,181,15,23,49,064,33*79
$GPGSV,3,2,11,02,37,297,32,04,52,243,33,16,14,053,00,08,14,191,00*75
$GPGSV,3,3,11,10,07,297,00,42,07,250,00,20,14,119,24*4D
$GPGGA,132239,4940.9152,N,01052.7291,E,1,07,1.30,295.0,M,47.453,M,,*7D
$GPRMC,132239,A,4940.9152,N,01052.7291,E,0.0000,0.000,050507,,*2F
$GPGSA,A,3,25,13,27,23,02,04,20,,,,,,2.3,1.3,1.9*3C
$PGRME,0.00,M,0.00,M,8.86,M*18
$GPGSV,3,1,11,25,61,094,25,13,81,028,29,27,41,181,15,23,49,064,32*78
$GPGSV,3,2,11,02,37,297,34,04,52,243,34,16,14,053,00,08,14,191,00*74
$GPGSV,3,3,11,10,07,297,00,42,07,250,00,20,14,119,23*4A
$GPGGA,132240,4940.9152,N,01052.7291,E,1,07,1.30,295.0,M,47.453,M,,*73
$GPRMC,132240,A,4940.9152,N,01052.7291,E,0.0000,0.000,050507,,*21
$GPGSA,A,3,25,13,27,23,02,04,20,,,,,,2.3,1.3,1.9*3C
$PGRME,0.00,M,0.00,M,8.86,M*18
$GPGSV,3,1,11,25,61,094,25,13,81,028,30,27,41,181,16,23,49,064,32*73
$GPGSV,3,2,11,02,37,297,35,04,52,243,33,16,14,053,00,08,14,191,00*72
$GPGSV,3,3,11,10,07,297,00,42,07,250,00,20,14,119,23*4A
$GPGGA,132241,4940.9152,N,01052.7291,E,1,07,1.30,295.0,M,47.453,M,,*72
$GPRMC,132241,A,4940.9152,N,01052.7291,E,0.0000,0.000,050507,,*20
$GPGSA,A,3,25,13,27,23,02,04,20,,,,,,2.3,1.3,1.9*3C
$PGRME,0.00,M,0.00,M,8.86,M*18
$GPGSV,3,1,11,25,61,094,24,13,81,028,29,27,41,181,15,23,49,064,32*79
$GPGSV,3,2,11,02,37,297,35,04,52,243,33,16,14,053,00,08,14,191,00*72
$GPGSV,3,3,11,10,07,297,00,42,07,250,00,20,14,119,24*4D
$GPGGA,132242,4940.9152,N,01052.7291,E,1,07,1.30,295.0,M,47.453,M,,*71
$GPRMC,132242,A,4940.9152,N,01052.7291,E,0.0000,0.000,050507,,*23
$GPGSA,A,3,25,13,27,23,02,04,20,,,,,,2.3,1.3,1.9*3C
$PGRME,0.00,M,0.00,M,8.86,M*18
$GPGSV,3,1,11,25,61,094,25,13,81,028,29,27,41,181,14,23,49,064,30*7B
$GPGSV,3,2,11,02,37,297,34,04,52,243,34,16,14,053,00,08,14,191,00*74
$GPGSV,3,3,11,10,07,297,00,42,07,250,00,20,14,119,23*4A
$GPGGA,132243,4940.9152,N,01052.7291,E,1,07,1.30,295.0,M,47.453,M,,*70
$GPRMC,132243,A,4940.9152,N,01052.7291,E,0.0000,0.000,050507,,*22
$GPGSA,A,3,25,13,27,23,02,04,20,,,,,,2.3,1.3,1.9*3C
$PGRME,0.00,M,0.00,M,8.86,M*18
$GPGSV,3,1,11,25,61,093,26,13,81,028,28,27,41,181,14,23,49,064,30*7E
$GPGSV,3,2,11,02,37,297,34,04,52,243,34,16,14,053,00,08,14,191,00*74
$GPGSV,3,3,11,10,07,297,00,42,07,250,00,20,14,119,24*4D
$GPGGA,132244,4940.9152,N,01052.7291,E,1,07,1.30,295.0,M,47.453,M,,*77
$GPRMC,132244,A,4940.9152,N,01052.7291,E,0.0000,0.000,050507,,*25
$GPGSA,A,3,25,13,27,23,02,04,20,,,,,,2.3,1.3,1.9*3C
$PGRME,0.00,M,0.00,M,8.86,M*18
$GPGSV,3,1,11,25,61,093,26,13,81,028,27,27,41,181,13,23,49,064,30*76
$GPGSV,3,2,11,02,37,297,34,04,52,243,33,16,14,053,00,08,14,191,00*73
$GPGSV,3,3,11,10,07,297,00,42,07,250,00,20,14,119,24*4D
$GPGGA,132245,4940.9152,N,01052.7291,E,1,07,1.30,295.0,M,47.453,M,,*76
$GPRMC,132245,A,4940.9152,N,01052.7291,E,0.0000,0.000,050507,,*24
$GPGSA,A,3,25,13,27,23,02,04,20,,,,,,2.3,1.3,1.9*3C
$PGRME,0.00,M,0.00,M,8.86,M*18
$GPGSV,3,1,11,25,61,093,25,13,81,028,27,27,41,181,13,23,49,064,30*75
$GPGSV,3,2,11,02,37,297,34,04,52,243,33,16,14,053,00,08,14,191,00*73
$GPGSV,3,3,11,10,07,297,00,42,07,250,00,20,14,119,25*4C
$GPGGA,132246,4940.9152,N,01052.7291,E,1,07,1.30,295.0,M,47.453,M,,*75
$GPRMC,132246,A,4940.9152,N,01052.7291,E,0.0000,0.000,050507,,*27
$GPGSA,A,3,25,13,27,23,02,04,20,,,,,,2.3,1.3,1.9*3C
$PGRME,0.00,M,0.00,M,8.86,M*18
$GPGSV,3,1,11,25,61,093,23,13,81,028,28,27,41,181,12,23,49,064,29*75
$GPGSV,3,2,11,02,37,297,34,04,52,243,32,16,14,053,00,08,14,191,00*72
$GPGSV,3,3,11,10,07,297,00,42,07,250,00,20,14,119,25*4C
$GPGGA,132247,4940.9152,N,01052.7291,E,1,07,1.30,295.0,M,47.453,M,,*74
$GPRMC,132247,A,4940.9152,N,01052.7291,E,0.0000,0.000,050507,,*26
$GPGSA,A,3,25,13,27,23,02,04,20,,,,,,2.3,1.3,1.9*3C
$PGRME,0.00,M,0.00,M,8.86,M*18
$GPGSV,3,1,11,25,61,093,21,13,81,028,29,27,41,181,12,23,49,064,29*76
$GPGSV,3,2,11,02,37,297,35,04,52,243,32,16,14,053,00,08,14,191,00*73
$GPGSV,3,3,11,10,07,297,00,42,07,250,00,20,14,119,26*4F
$GPGGA,132248,4940.9152,N,01052.7291,E,1,07,1.30,295.0,M,47.453,M,,*7B
$GPRMC,132248,A,4940.9152,N,01052.7291,E,0.0000,0.000,050507,,*29
$GPGSA,A,3,25,13,27,23,02,04,20,,,,,,2.3,1.3,1.9*3C
$PGRME,0.00,M,0.00,M,8.86,M*18
$GPGSV,3,1,11,25,61,093,21,13,81,028,29,27,41,181,13,23,49,064,28*76
$GPGSV,3,2,11,02,37,297,35,04,52,243,32,16,14,053,00,08,14,191,00*73
$GPGSV,3,3,11,10,07,297,00,42,07,250,00,20,14,119,26*4F
$GPGGA,132249,4940.9152,N,01052.7291,E,1,07,1.30,295.0,M,47.453,M,,*7A
$GPRMC,132249,A,4940.9152,N,01052.7291,E,0.0000,0.000,050507,,*28
$GPGSA,A,3,25,13,27,23,02,04,20,,,,,,2.3,1.3,1.9*3C
$PGRME,0.00,M,0.00,M,8.86,M*18
$GPGSV,3,1,11,25,61,093,19,13,81,028,30,27,41,181,12,23,49,064,29*75
$GPGSV,3,2,11,02,37,297,33,04,52,243,31,16,14,053,00,08,14,191,00*76
$GPGSV,3,3,11,10,07,297,00,42,07,250,00,20,14,119,25*4C
$GPGGA,132250,4940.9152,N,01052.7291,E,1,07,1.30,295.0,M,47.453,M,,*72
$GPRMC,132250,A,4940.9152,N,01052.7291,E,0.0000,0.000,050507,,*20
$GPGSA,A,3,25,13,27,23,02,04,20,,,,,,2.3,1.3,1.9*3C
$PGRME,0.00,M,0.00,M,8.86,M*18
$GPGSV,3,1,11,25,61,093,20,13,81,028,28,27,41,181,12,23,49,064,30*7E
$GPGSV,3,2,11,02,37,297,33,04,52,243,30,16,14,053,00,08,14,191,00*77
$GPGSV,3,3,11,10,07,297,00,42,07,250,00,20,14,119,25*4C
$GPGGA,132251,4940.9152,N,01052.7291,E,1,07,1.30,295.0,M,47.453,M,,*73
$GPRMC,132251,A,4940.9152,N,01052.7291,E,0.0000,0.000,050507,,*21
$GPGSA,A,3,25,13,27,23,02,04,20,,,,,,2.3,1.3,1.9*3C
$PGRME,0.00,M,0.00,M,8.86,M*18
$GPGSV,3,1,11,25,61,093,21,13,81,028,27,27,41,181,13,23,49,064,32*73
$GPGSV,3,2,11,02,37,297,33,04,52,243,30,16,14,053,00,08,14,191,00*77
$GPGSV,3,3,11,10,07,297,00,42,07,250,00,20,14,119,25*4C
$GPGGA,132252,4940.9152,N,01052.7291,E,1,07,1.30,295.0,M,47.453,M,,*70
$GPRMC,132252,A,4940.9152,N,01052.7291,E,0.0000,0.000,050507,,*22
$GPGSA,A,3,25,13,27,23,02,04,20,,,,,,2.3,1.3,1.9*3C
$PGRME,0.00,M,0.00,M,8.86,M*18
$GPGSV,3,1,11,25,61,093,21,13,81,028,27,27,41,181,13,23,49,064,32*73
$GPGSV,3,2,11,02,37,297,34,04,52,243,30,16,14,053,00,08,14,191,00*70
$GPGSV,3,3,11,10,07,297,00,42,07,250,00,20,14,119,25*4C
$GPGGA,132253,4940.9152,N,01052.7291,E,1,07,1.30,295.0,M,47.453,M,,*71
$GPRMC,132253,A,4940.9152,N,01052.7291,E,0.0000,0.000,050507,,*23
$GPGSA,A,3,25,13,27,23,02,04,20,,,,,,2.3,1.3,1.9*3C
$PGRME,0.00,M,0.00,M,8.86,M*18
$GPGSV,3,1,11,25,61,093,22,13,81,028,27,27,41,181,14,23,49,064,32*77
$GPGSV,3,2,11,02,37,297,33,04,52,243,31,16,14,053,00,08,14,191,00*76
$GPGSV,3,3,11,10,07,297,00,42,07,250,00,20,14,119,24*4D
$GPGGA,132254,4940.9152,N,01052.7291,E,1,07,1.30,295.0,M,47.453,M,,*76
$GPRMC,132254,A,4940.9152,N,01052.7291,E,0.0000,0.000,050507,,*24
$GPGSA,A,3,25,13,27,23,02,04,20,,,,,,2.3,1.3,1.9*3C
$PGRME,0.00,M,0.00,M,8.86,M*18
$GPGSV,3,1,11,25,61,093,22,13,81,028,27,27,41,181,14,23,49,064,32*77
$GPGSV,3,2,11,02,37,297,33,04,52,242,32,16,14,053,00,08,14,191,00*74
$GPGSV,3,3,11,10,07,297,00,42,07,250,00,20,14,119,24*4D
$GPGGA,132255,4940.9152,N,01052.7291,E,1,07,1.30,295.0,M,47.453,M,,*77
$GPRMC,132255,A,4940.9152,N,01052.7291,E,0.0000,0.000,050507,,*25
$GPGSA,A,3,25,13,27,23,02,04,20,,,,,,2.3,1.3,1.9*3C
$PGRME,0.00,M,0.00,M,8.86,M*18
$GPGSV,3,1,11,25,61,093,21,13,81,028,29,27,41,181,14,23,49,064,32*7A
$GPGSV,3,2,11,02,37,297,33,04,52,242,31,16,14,053,00,08,14,191,00*77
$GPGSV,3,3,11,10,07,297,00,42,07,250,00,20,14,119,23*4A
$GPGGA,132256,4940.9152,N,01052.7291,E,1,07,1.30,295.0,M,47.453,M,,*74
$GPRMC,132256,A,4940.9152,N,01052.7291,E,0.0000,0.000,050507,,*26
$GPGSA,A,3,25,13,27,23,02,04,20,,,,,,2.3,1.3,1.9*3C
$PGRME,0.00,M,0.00,M,8.86,M*18
$GPGSV,3,1,11,25,61,093,21,13,81,028,29,27,41,181,13,23,49,064,32*7D
$GPGSV,3,2,11,02,37,297,33,04,52,242,32,16,14,053,00,08,14,191,00*74
$GPGSV,3,3,11,10,07,297,00,42,07,250,00,20,14,119,22*4B
$GPGGA,132257,4940.9152,N,01052.7291,E,1,07,1.30,295.0,M,47.453,M,,*75
$GPRMC,132257,A,4940.9152,N,01052.7291,E,0.0000,0.000,050507,,*27
$GPGSA,A,3,25,13,27,23,02,04,20,,,,,,2.3,1.3,1.9*3C
$PGRME,0.00,M,0.00,M,8.86,M*18
$GPGSV,3,1,11,25,61,093,21,13,81,028,29,27,41,181,14,23,49,064,31*79
$GPGSV,3,2,11,02,37,297,33,04,52,242,32,16,14,053,00,08,14,191,00*74
$GPGSV,3,3,11,10,07,297,00,42,07,250,00,20,14,119,24*4D
$GPGGA,132258,4940.9152,N,01052.7291,E,1,07,1.30,295.0,M,47.453,M,,*7A
$GPRMC,132258,A,4940.9152,N,01052.7291,E,0.0000,0.000,050507,,*28
$GPGSA,A,3,25,13,27,23,02,04,20,,,,,,2.3,1.3,1.9*3C
$PGRME,0.00,M,0.00,M,8.86,M*18
$GPGSV,3,1,11,25,61,093,23,13,81,028,28,27,41,181,15,23,49,064,30*7A
$GPGSV,3,2,11,02,37,297,34,04,52,242,32,16,14,053,00,08,14,191,00*73
$GPGSV,3,3,11,10,07,297,00,42,07,250,00,20,14,119,24*4D
$GPGGA,132259,4940.9152,N,01052.7291,E,1,07,1.30,295.0,M,47.453,M,,*7B
$GPRMC,132259,A,4940.9152,N,01052.7291,E,0.0000,0.000,050507,,*29
$GPGSA,A,3,25,13,27,23,02,04,20,,,,,,2.3,1.3,1.9*3C
$GPGSV,3,1,11,25,61,093,23,13,81,028,28,27,41,181,15,23,49,064,30*7A
$GPGSV,3,2,11,02,37,297,34,04,52,242,32,16,14,053,00,08,14,191,00*73
$GPGSV,3,3,11,10,07,297,00,42,07,250,00,20,14,119,24*4D
$GPGGA,132300,4940.9152,N,01052.7291,E,1,07,1.30,295.0,M,47.453,M,,*76
$GPRMC,132300,A,4940.9152,N,01052.7291,E,0.0000,0.000,050507,,*24
$GPGSA,A,3,25,13,27,23,02,04,20,,,,,,2.3,1.3,1.9*3C
$GPGSV,3,1,11,25,61,093,23,13,81,028,27,27,41,181,15,23,49,064,28*7C
$GPGSV,3,2,11,02,37,297,34,04,52,242,32,16,14,053,00,08,14,191,00*73
$GPGSV,3,3,11,10,07,297,00,42,07,250,00,20,14,119,23*4A
$GPGGA,132301,4940.9152,N,01052.7291,E,1,07,1.30,295.0,M,47.453,M,,*77
$GPRMC,132301,A,4940.9152,N,01052.7291,E,0.0000,0.000,050507,,*25
$GPGSA,A,3,25,13,27,23,02,04,20,,,,,,2.3,1.3,1.9*3C
$GPGSV,3,1,11,25,61,093,21,13,81,028,28,27,41,181,14,23,49,064,28*70
$GPGSV,3,2,11,02,37,297,34,04,52,242,32,16,14,053,00,08,14,191,00*73
$GPGSV,3,3,11,10,07,297,00,42,07,250,00,20,14,119,22*4B
$GPGGA,132302,4940.9152,N,01052.7291,E,1,07,1.30,295.0,M,47.453,M,,*74
$GPRMC,132302,A,4940.9152,N,01052.7291,E,0.0000,0.000,050507,,*26
$GPGSA,A,3,25,13,27,23,02,04,20,,,,,,2.3,1.3,1.9*3C
$PGRME,0.00,M,0.00,M,8.86,M*18
$GPGSV,3,1,11,25,61,093,22,13,81,029,29,27,41,181,14,23,49,064,28*73
$GPGSV,3,2,11,02,37,297,34,04,52,242,32,16,14,053,00,08,14,191,00*73
$GPGSV,3,3,11,10,07,297,00,42,07,250,00,20,14,119,23*4A
$GPGGA,132303,4940.9152,N,01052.7291,E,1,07,1.30,295.0,M,47.453,M,,*75
$GPRMC,132303,A,4940.9152,N,01052.7291,E,0.0000,0.000,050507,,*27
$GPGSA,A,3,25,13,27,23,02,04,20,,,,,,2.3,1.3,1.9*3C
$GPGSV,3,1,11,25,61,093,22,13,81,029,28,27,41,181,14,23,49,064,28*72
$GPGSV,3,2,11,02,37,297,34,04,52,242,33,16,14,053,00,08,14,191,00*72
$GPGSV,3,3,11,10,07,297,00,42,07,250,00,20,14,119,24*4D
$GPGGA,132304,4940.9152,N,01052.7291,E,1,07,1.30,295.0,M,47.453,M,,*72
$GPRMC,132304,A,4940.9152,N,01052.7291,E,0.0000,0.000,050507,,*20
$GPGSA,A,3,25,13,27,23,02,04,20,,,,,,2.3,1.3,1.9*3C
$PGRME,0.00,M,0.00,M,8.86,M*18
$GPGSV,3,1,11,25,61,093,23,13,81,029,27,27,41,181,15,23,49,064,28*7D
$GPGSV,3,2,11,02,37,297,34,04,52,242,33,16,14,053,00,08,14,191,00*72
$GPGSV,3,3,11,10,07,297,00,42,07,250,00,20,14,119,24*4D
$GPGGA,132305,4940.9152,N,01052.7291,E,1,07,1.30,295.0,M,47.453,M,,*73
$GPRMC,132305,A,4940.9152,N,01052.7291,E,0.0000,0.000,050507,,*21
$GPGSA,A,3,25,13,27,23,02,04,20,,,,,,2.3,1.3,1.9*3C
$GPGSV,3,1,11,25,61,093,23,13,81,029,27,27,41,181,15,23,49,064,28*7D
$GPGSV,3,2,11,02,37,297,35,04,52,242,33,16,14,053,00,08,14,191,00*73
$GPGSV,3,3,11,10,07,297,00,42,07,250,00,20,14,119,23*4A
$GPGGA,132306,4940.9152,N,01052.7291,E,1,07,1.30,295.0,M,47.453,M,,*70
$GPRMC,132306,A,4940.9152,N,01052.7291,E,0.0000,0.000,050507,,*22
$GPGSA,A,3,25,13,27,23,02,04,20,,,,,,2.3,1.3,1.9*3C
$PGRME,0.00,M,0.00,M,8.86,M*18
$GPGSV,3,1,11,25,61,093,24,13,81,029,27,27,41,181,14,23,49,064,28*7B
$GPGSV,3,2,11,02,37,297,35,04,52,242,33,16,14,052,00,08,14,191,00*72
$GPGSV,3,3,11,10,07,297,00,42,07,250,00,20,14,119,22*4B
$GPGGA,132307,4940.9152,N,01052.7291,E,1,07,1.30,295.0,M,47.453,M,,*71
$GPRMC,132307,A,4940.9152,N,01052.7291,E,0.0000,0.000,050507,,*23
$GPGSA,A,3,25,13,27,23,02,04,20,,,,,,2.3,1.3,1.9*3C
$GPGSV,3,1,11,25,61,093,24,13,81,029,27,27,41,181,14,23,49,064,29*7A
$GPGSV,3,2,11,02,37,297,35,04,52,242,33,16,14,052,00,08,14,191,00*72
$GPGSV,3,3,11,10,07,297,00,42,07,250,00,20,14,119,22*4B
$GPGGA,132308,4940.9152,N,01052.7291,E,1,07,1.30,295.0,M,47.453,M,,*7E
$GPRMC,132308,A,4940.9152,N,01052.7291,E,0.0000,0.000,050507,,*2C
$GPGSA,A,3,25,13,27,23,02,04,20,,,,,,2.3,1.3,1.9*3C
$PGRME,0.00,M,0.00,M,8.86,M*18
$GPGSV,3,1,11,25,61,093,25,13,81,029,27,27,41,181,13,23,49,064,30*74
$GPGSV,3,2,11,02,37,297,35,04,52,242,33,16,14,052,00,08,14,191,00*72
$GPGSV,3,3,11,10,07,297,00,42,07,250,00,20,14,119,22*4B
$GPGGA,132309,4940.9152,N,01052.7291,E,1,07,1.30,295.0,M,47.453,M,,*7F
$GPRMC,132309,A,4940.9152,N,01052.7291,E,0.0000,0.000,050507,,*2D
$GPGSA,A,3,25,13,27,23,02,04,20,,,,,,2.3,1.3,1.9*3C
$PGRME,0.00,M,0.00,M,8.86,M*18
$GPGSV,3,1,11,25,61,093,25,13,81,029,27,27,41,181,14,23,49,064,29*7B
$GPGSV,3,2,11,02,37,297,36,04,52,242,33,16,14,052,00,08,14,191,00*71
$GPGSV,3,3,11,10,07,297,00,42,07,250,00,20,14,119,22*4B
$GPGGA,132310,4940.9152,N,01052.7291,E,1,07,1.30,295.0,M,47.453,M,,*77
$GPRMC,132310,A,4940.9152,N,01052.7291,E,0.0000,0.000,050507,,*25
$GPGSA,A,3,25,13,27,23,02,04,20,,,,,,2.3,1.3,1.9*3C
$GPGSV,3,1,11,25,61,093,26,13,81,029,28,27,41,181,14,23,49,064,30*7F
$GPGSV,3,2,11,02,37,297,37,04,52,242,34,16,14,052,00,08,14,191,00*77
$GPGSV,3,3,11,10,07,297,00,42,07,250,00,20,14,119,21*48
$GPGGA,132311,4940.9152,N,01052.7291,E,1,07,1.30,295.0,M,47.453,M,,*76
$GPRMC,132311,A,4940.9152,N,01052.7291,E,0.0000,0.000,050507,,*24
$GPGSA,A,3,25,13,27,23,02,04,20,,,,,,2.3,1.3,1.9*3C
$PGRME,0.00,M,0.00,M,8.86,M*18
$GPGSV,3,1,11,25,61,093,25,13,81,029,27,27,41,181,14,23,49,064,31*72
$GPGSV,3,2,11,02,37,297,35,04,52,242,34,16,14,052,00,08,14,191,00*75
$GPGSV,3,3,11,10,07,297,00,42,07,250,00,20,14,119,21*48
$GPGGA,132312,4940.9152,N,01052.7291,E,1,07,1.30,295.0,M,47.453,M,,*75
$GPRMC,132312,A,4940.9152,N,01052.7291,E,0.0000,0.000,050507,,*27
$GPGSA,A,3,25,13,27,23,02,04,20,,,,,,2.3,1.3,1.9*3C
$GPGSV,3,1,11,25,61,093,23,13,81,029,28,27,41,181,14,23,49,064,31*7B
$GPGSV,3,2,11,02,37,297,35,04,52,242,34,16,14,052,00,08,14,191,00*75
$GPGSV,3,3,11,10,07,297,00,42,07,250,00,20,14,119,22*4B
$GPGGA,132313,4940.9152,N,01052.7291,E,1,07,1.30,295.0,M,47.453,M,,*74
$GPRMC,132313,A,4940.9152,N,01052.7291,E,0.0000,0.000,050507,,*26
$GPGSA,A,3,25,13,27,23,02,04,20,,,,,,2.3,1.3,1.9*3C
$GPGSV,3,1,11,25,61,093,22,13,81,029,28,27,41,181,14,23,48,064,30*7A
$GPGSV,3,2,11,02,37,297,35,04,52,242,34,16,14,052,00,08,14,191,00*75
$GPGSV,3,3,11,10,07,297,00,42,07,250,00,20,14,119,21*48
$GPGGA,132314,4940.9152,N,01052.7291,E,1,07,1.30,295.0,M,47.453,M,,*73
$GPRMC,132314,A,4940.9152,N,01052.7291,E,0.0000,0.000,050507,,*21
$GPGSA,A,3,25,13,27,23,02,04,20,,,,,,2.3,1.3,1.9*3C
$PGRME,0.00,M,0.00,M,8.86,M*18
$GPGSV,3,1,11,25,61,093,25,13,81,029,29,27,41,181,15,23,48,064,32*7F
$GPGSV,3,2,11,02,37,297,35,04,52,242,35,16,14,052,00,08,14,191,00*74
$GPGSV,3,3,11,10,07,297,00,42,07,250,00,20,14,119,20*49
$GPGGA,132315,4940.9152,N,01052.7291,E,1,07,1.30,295.0,M,47.453,M,,*72
$GPRMC,132315,A,4940.9152,N,01052.7291,E,0.0000,0.000,050507,,*20
$GPGSA,A,3,25,13,27,23,02,04,20,,,,,,2.3,1.3,1.9*3C
$PGRME,0.00,M,0.00,M,8.86,M*18
$GPGSV,3,1,11,25,61,093,25,13,81,029,29,27,41,181,16,23,48,064,33*7D
$GPGSV,3,2,11,02,37,297,35,04,52,242,36,16,14,052,00,08,14,191,00*77
$GPGSV,3,3,11,10,07,297,00,42,07,250,00,20,14,119,19*43
$GPGGA,132316,4940.9152,N,01052.7291,E,1,07,1.30,295.0,M,47.453,M,,*71
$GPRMC,132316,A,4940.9152,N,01052.7291,E,0.0000,0.000,050507,,*23
$GPGSA,A,3,25,13,27,23,02,04,20,,,,,,2.3,1.3,1.9*3C
$PGRME,0.00,M,0.00,M,8.86,M*18
$GPGSV,3,1,11,25,61,093,26,13,81,029,28,27,41,181,16,23,48,064,32*7E
$GPGSV,3,2,11,02,37,297,36,04,52,242,36,16,14,052,00,08,14,191,00*74
$GPGSV,3,3,11,10,07,297,00,42,07,250,00,20,14,119,20*49
$GPGGA,132317,4940.9152,N,01052.7291,E,1,07,1.30,295.0,M,47.453,M,,*70
$GPRMC,132317,A,4940.9152,N,01052.7291,E,0.0000,0.000,050507,,*22
$GPGSA,A,3,25,13,27,23,02,04,20,,,,,,2.3,1.3,1.9*3C
$PGRME,0.00,M,0.00,M,8.86,M*18
$GPGSV,3,1,11,25,61,093,26,13,81,029,27,27,41,181,16,23,48,064,32*71
$GPGSV,3,2,11,02,37,297,35,04,52,242,37,16,14,052,00,08,14,191,00*76
$GPGSV,3,3,11,10,07,297,00,42,07,250,00,20,14,119,21*48
$GPGGA,132318,4940.9152,N,01052.7291,E,1,07,1.30,295.0,M,47.453,M,,*7F
$GPRMC,132318,A,4940.9152,N,01052.7291,E,0.0000,0.000,050507,,*2D
$GPGSA,A,3,25,13,27,23,02,04,20,,,,,,2.3,1.3,1.9*3C
$PGRME,0.00,M,0.00,M,8.86,M*18
$GPGSV,3,1,11,25,61,093,26,13,81,029,27,27,41,181,16,23,48,064,32*71
$GPGSV,3,2,11,02,37,297,35,04,52,242,36,16,14,052,00,08,14,191,00*77
$GPGSV,3,3,11,10,07,297,00,42,07,250,00,20,14,119,22*4B
$GPGGA,132319,4940.9152,N,01052.7291,E,1,07,1.30,295.0,M,47.453,M,,*7E
$GPRMC,132319,A,4940.9152,N,01052.7291,E,0.0000,0.000,050507,,*2C
$GPGSA,A,3,25,13,27,23,02,04,20,,,,,,2.3,1.3,1.9*3C
$PGRME,0.00,M,0.00,M,8.86,M*18
$GPGSV,3,1,11,25,61,093,25,13,81,029,27,27,41,181,16,23,48,064,31*71
$GPGSV,3,2,11,02,37,297,33,04,52,242,35,16,14,052,00,08,14,191,00*72
$GPGSV,3,3,11,10,07,297,00,42,07,250,00,20,14,119,21*48
$GPGGA,132320,4940.9152,N,01052.7291,E,1,07,1.30,295.0,M,47.453,M,,*74
$GPRMC,132320,A,4940.9152,N,01052.7291,E,0.0000,0.000,050507,,*26
$GPGSA,A,3,25,13,27,23,02,04,20,,,,,,2.3,1.3,1.9*3C
$PGRME,0.00,M,0.00,M,8.86,M*18
$GPGSV,3,1,11,25,61,093,25,13,81,029,29,27,41,181,17,23,48,064,32*7D
$GPGSV,3,2,11,02,37,297,34,04,52,242,35,16,14,052,00,08,14,191,00*75
$GPGSV,3,3,11,10,07,297,00,42,07,250,00,20,14,119,21*48
$GPGGA,132321,4940.9152,N,01052.7291,E,1,07,1.30,295.0,M,47.453,M,,*75
$GPRMC,132321,A,4940.9152,N,01052.7291,E,0.0000,0.000,050507,,*27
$GPGSA,A,3,25,13,27,23,02,04,20,,,,,,2.3,1.3,1.9*3C
$PGRME,0.00,M,0.00,M,8.86,M*18
$GPGSV,3,1,11,25,61,093,24,13,81,029,27,27,41,181,16,23,48,064,30*71
$GPGSV,3,2,11,02,37,297,34,04,52,242,35,16,14,052,00,08,14,191,00*75
$GPGSV,3,3,11,10,07,297,00,42,07,250,00,20,14,119,21*48
$GPGGA,132322,4940.9152,N,01052.7291,E,1,07,1.30,295.0,M,47.453,M,,*76
$GPRMC,132322,A,4940.9152,N,01052.7291,E,0.0000,0.000,050507,,*24
$GPGSA,A,3,25,13,27,23,02,04,20,,,,,,2.6,1.7,1.9*3D
$PGRME,0.00,M,0.00,M,8.86,M*18
$GPGSV,3,1,11,25,61,093,24,13,81,029,26,27,41,181,14,23,48,064,30*72
$GPGSV,3,2,11,02,37,297,34,04,52,242,35,16,14,052,00,08,14,191,00*75
$GPGSV,3,3,11,10,07,297,00,50,07,250,00,20,14,119,21*4B
$GPGGA,132323,4940.9152,N,01052.7291,E,1,06,1.70,295.0,M,47.453,M,,*72
$GPRMC,132323,A,4940.9152,N,01052.7291,E,0.0000,0.000,050507,,*25
$GPGSA,A,3,25,13,23,02,04,20,,,,,,,2.6,1.7,1.9*38
$PGRME,0.00,M,0.00,M,10.02,M*2D
$GPGSV,3,1,11,25,61,093,19,13,81,029,26,27,41,181,11,23,48,064,33*7A
$GPGSV,3,2,11,02,37,297,34,04,52,242,32,16,14,052,00,08,14,191,00*72
$GPGSV,3,3,11,10,07,297,00,50,07,250,00,20,14,119,20*4A
$GPGGA,132324,4940.9152,N,01052.7291,E,1,06,1.70,295.0,M,47.453,M,,*75
$GPRMC,132324,A,4940.9152,N,01052.7291,E,0.7230,191.710,050507,,*2B
$GPGSA,A,3,25,13,23,02,04,20,,,,,,,2.3,1.3,1.9*39
$PGRME,0.00,M,0.00,M,10.02,M*2D
$GPGSV,3,1,11,25,61,093,18,13,81,029,27,27,41,181,08,23,48,064,33*72
$GPGSV,3,2,11,02,37,297,31,04,52,242,29,16,14,052,00,08,14,191,00*7D
$GPGSV,3,3,11,10,07,297,00,50,07,250,00,20,14,119,18*41
$GPGGA,132325,4940.9152,N,01052.7291,E,1,07,1.30,295.0,M,47.453,M,,*71
$GPRMC,132325,A,4940.9152,N,01052.7291,E,0.0000,0.000,050507,,*23
$GPGSA,A,3,25,13,27,23,02,04,20,,,,,,2.3,1.3,1.9*3C
$PGRME,0.00,M,0.00,M,8.86,M*18
$GPGSV,3,1,11,25,61,093,20,13,81,029,27,27,41,181,11,23,48,064,36*74
$GPGSV,3,2,11,02,37,297,35,04,52,242,33,16,14,052,00,08,14,191,00*72
$GPGSV,3,3,11,10,07,297,00,50,07,250,00,20,14,119,19*40
$GPGGA,132326,4940.9152,N,01052.7291,E,1,07,1.30,295.0,M,47.453,M,,*72
$GPRMC,132326,A,4940.9152,N,01052.7291,E,0.0000,0.000,050507,,*20
$GPGSA,A,3,25,13,27,23,02,04,20,,,,,,2.3,1.3,1.9*3C
$PGRME,0.00,M,0.00,M,8.86,M*18
$GPGSV,3,1,11,25,61,093,22,13,81,029,28,27,41,181,13,23,48,064,35*78
$GPGSV,3,2,11,02,37,297,34,04,52,242,34,16,14,052,00,08,14,191,00*74
$GPGSV,3,3,11,10,07,297,00,50,07,250,00,20,14,119,18*41
$GPGGA,132327,4940.9152,N,01052.7291,E,1,07,1.30,295.0,M,47.453,M,,*73
$GPRMC,132327,A,4940.9152,N,01052.7291,E,0.0000,0.000,050507,,*21
$GPGSA,A,3,25,13,27,23,02,04,20,,,,,,2.3,1.3,1.9*3C
$PGRME,0.00,M,0.00,M,8.86,M*18
$GPGSV,3,1,11,25,61,093,24,13,81,029,29,27,41,181,15,23,48,064,33*7F
$GPGSV,3,2,11,02,37,297,32,04,52,242,34,16,14,052,00,08,14,191,00*72
$GPGSV,3,3,11,10,07,297,00,50,07,250,00,20,14,119,19*40
$GPGGA,132328,4940.9152,N,01052.7283,E,1,07,1.30,294.9,M,47.453,M,,*77
$GPRMC,132328,A,4940.9152,N,01052.7283,E,0.0000,0.000,050507,,*2D
$GPGSA,A,3,25,13,27,23,02,04,20,,,,,,2.3,1.3,1.9*3C
$PGRME,0.00,M,0.00,M,8.86,M*18
$GPGSV,3,1,11,25,61,093,24,13,81,029,29,27,41,181,14,23,48,064,33*7E
$GPGSV,3,2,11,02,37,297,32,04,52,242,34,16,14,052,00,08,15,191,00*73
$GPGSV,3,3,11,10,07,297,00,50,07,250,00,20,14,119,18*41
$GPGGA,132329,4940.9152,N,01052.7283,E,1,07,1.30,294.9,M,47.453,M,,*76
$GPRMC,132329,A,4940.9152,N,01052.7283,E,0.0000,0.000,050507,,*2C
$GPGSA,A,3,25,13,27,23,02,04,20,,,,,,2.3,1.3,1.9*3C
$PGRME,0.00,M,0.00,M,8.86,M*18
$GPGSV,3,1,11,25,61,093,21,13,81,029,29,27,41,181,15,23,48,064,31*78
$GPGSV,3,2,11,02,37,297,34,04,52,242,35,16,14,052,00,08,15,191,00*74
$GPGSV,3,3,11,10,07,297,00,50,07,250,00,20,14,119,18*41
$GPGGA,132330,4940.9152,N,01052.7283,E,1,07,1.30,294.9,M,47.453,M,,*7E
$GPRMC,132330,A,4940.9152,N,01052.7283,E,0.0000,0.000,050507,,*24
$GPGSA,A,3,25,13,27,23,02,04,20,,,,,,2.3,1.3,1.9*3C
$PGRME,0.00,M,0.00,M,8.86,M*18
$GPGSV,3,1,11,25,61,093,21,13,81,029,30,27,41,181,15,23,48,064,32*73
$GPGSV,3,2,11,02,37,297,32,04,52,242,35,16,14,052,00,08,15,191,00*72
$GPGSV,3,3,11,10,07,297,00,50,07,250,00,20,14,119,16*4F
$GPGGA,132331,4940.9152,N,01052.7283,E,1,07,1.30,294.9,M,47.453,M,,*7F
$GPRMC,132331,A,4940.9152,N,01052.7283,E,0.7923,234.623,050507,,*28
$GPGSA,A,3,25,13,27,23,02,04,20,,,,,,2.3,1.3,1.9*3C
$PGRME,0.00,M,0.00,M,8.86,M*18
$GPGSV,3,1,11,25,61,093,23,13,81,029,31,27,41,181,21,23,48,064,32*77
$GPGSV,3,2,11,02,37,297,33,04,52,242,33,16,14,052,00,08,15,191,00*75
$GPGSV,3,3,11,10,07,297,00,50,07,250,00,20,14,119,15*4C
$GPGGA,132332,4940.9152,N,01052.7283,E,1,07,1.30,294.9,M,47.453,M,,*7C
$GPRMC,132332,A,4940.9152,N,01052.7283,E,1.2706,216.518,050507,,*2D
$GPGSA,A,3,25,13,27,23,02,04,20,,,,,,2.3,1.3,1.9*3C
$PGRME,0.00,M,0.00,M,8.86,M*18
$GPGSV,3,1,11,25,61,093,24,13,81,029,33,27,41,181,16,23,48,064,25*70
$GPGSV,3,2,11,02,37,297,36,04,52,242,30,16,14,052,00,08,15,191,00*73
$GPGSV,3,3,11,10,07,297,00,50,07,250,00,20,14,119,13*4A
$GPGGA,132333,4940.9152,N,01052.7283,E,1,07,1.30,294.9,M,47.453,M,,*7D
$GPRMC,132333,A,4940.9152,N,01052.7283,E,2.5604,219.532,050507,,*2C
$GPGSA,A,3,25,13,27,23,02,04,20,,,,,,2.3,1.3,1.9*3C
$PGRME,0.00,M,0.00,M,8.86,M*18
$GPGSV,3,1,11,25,61,093,29,13,81,029,35,27,41,181,21,23,48,064,38*73
$GPGSV,3,2,11,02,37,297,32,04,52,242,21,16,14,052,00,08,15,191,00*77
$GPGSV,3,3,11,10,07,297,00,50,07,250,00,20,14,119,15*4C
$GPGGA,132334,4940.9146,N,01052.7274,E,1,07,1.30,294.7,M,47.453,M,,*79
$GPRMC,132334,A,4940.9146,N,01052.7274,E,4.0116,239.536,050507,,*27
$GPGSA,A,3,25,13,27,23,02,04,20,,,,,,4.2,1.6,3.9*3C
$PGRME,0.00,M,0.00,M,8.86,M*18
$GPGSV,3,1,11,25,61,093,38,13,81,030,29,27,41,181,19,23,48,064,27*73
$GPGSV,3,2,11,02,37,297,26,04,52,242,16,16,14,052,00,08,15,191,00*76
$GPGSV,3,3,11,10,07,297,00,50,07,250,00,20,14,119,11*48
$GPGGA,132335,4940.9143,N,01052.7256,E,1,05,1.60,295.1,M,47.453,M,,*7D
$GPRMC,132335,A,4940.9143,N,01052.7256,E,3.9993,262.445,050507,,*23
$GPGSA,A,3,25,13,27,23,02,,,,,,,,2.3,1.3,1.9*3A
$PGRME,0.00,M,0.00,M,16.18,M*20
$GPGSV,3,1,11,25,61,093,46,13,81,030,22,27,41,181,20,23,48,064,33*7E
$GPGSV,3,2,11,02,37,297,20,04,52,242,21,16,14,052,00,08,15,191,00*74
$GPGSV,3,3,11,10,07,297,00,50,07,250,00,20,14,119,13*4A
$GPGGA,132336,4940.9145,N,01052.7239,E,1,07,1.30,294.8,M,47.453,M,,*7E
$GPRMC,132336,A,4940.9145,N,01052.7239,E,2.7221,280.957,050507,,*20
$GPGSA,A,3,25,13,27,23,02,04,20,,,,,,3.9,1.4,3.6*3D
$PGRME,0.00,M,0.00,M,8.86,M*18
$GPGSV,3,1,11,25,61,093,52,13,81,030,22,27,41,181,21,23,48,064,43*7D
$GPGSV,3,2,11,02,37,297,23,04,52,242,32,16,14,052,00,08,15,191,00*75
$GPGSV,3,3,11,10,07,297,00,50,07,250,00,20,14,119,08*40
$GPGGA,132337,4940.9146,N,01052.7231,E,1,06,1.40,294.7,M,47.453,M,,*7D
$GPRMC,132337,A,4940.9146,N,01052.7231,E,1.9098,304.638,050507,,*2C
$GPGSA,A,3,25,13,27,23,02,04,,,,,,,2.3,1.3,1.9*3E
$PGRME,0.00,M,0.00,M,15.03,M*29
$GPGSV,3,1,11,25,61,093,45,13,81,030,20,27,41,181,20,23,48,064,41*7A
$GPGSV,3,2,11,02,37,297,21,04,52,242,34,16,14,052,00,08,15,191,00*71
$GPGSV,3,3,11,10,07,297,00,50,07,250,00,20,14,119,12*4B
$GPGGA,132338,4940.9149,N,01052.7231,E,1,07,1.30,295.5,M,47.453,M,,*78
$GPRMC,132338,A,4940.9149,N,01052.7231,E,0.9320,69.608,050507,,*16
$GPGSA,A,3,25,13,27,23,02,04,20,,,,,,2.3,1.3,1.9*3C
$PGRME,0.00,M,0.00,M,8.86,M*18
$GPGSV,3,1,11,25,61,093,42,13,81,030,23,27,41,181,15,23,48,064,42*7B
$GPGSV,3,2,11,02,37,297,16,04,52,242,36,16,14,052,00,08,15,191,00*77
$GPGSV,3,3,11,10,07,297,00,50,07,250,00,20,14,119,17*4E
$GPGGA,132339,4940.9141,N,01052.7238,E,1,07,1.30,295.4,M,47.453,M,,*79
$GPRMC,132339,A,4940.9141,N,01052.7238,E,4.9100,136.536,050507,,*27
$GPGSA,A,3,25,13,27,23,02,04,20,,,,,,2.6,1.7,1.9*3D
$PGRME,0.00,M,0.00,M,8.86,M*18
$GPGSV,3,1,11,25,61,093,44,13,81,030,20,27,41,181,13,23,48,064,45*7F
$GPGSV,3,2,11,02,37,297,13,04,52,242,36,16,14,052,00,08,15,191,00*72
$GPGSV,3,3,11,10,07,297,00,50,07,250,00,20,14,119,16*4F
$GPGGA,132340,4940.9127,N,01052.7259,E,1,06,1.70,296.3,M,47.453,M,,*71
$GPRMC,132340,A,4940.9127,N,01052.7259,E,9.7720,140.195,050507,,*25
$GPGSA,A,3,25,13,23,02,04,20,,,,,,,2.3,1.3,1.9*39
$PGRME,0.00,M,0.00,M,10.02,M*2D
$GPGSV,3,1,11,25,61,093,44,13,81,030,19,27,41,181,14,23,48,064,39*79
$GPGSV,3,2,11,02,37,297,15,04,52,242,35,16,14,052,00,08,15,191,00*77
$GPGSV,3,3,11,10,07,297,00,50,07,250,00,20,14,119,16*4F
$GPGGA,132341,4940.9102,N,01052.7289,E,1,07,1.30,295.0,M,47.453,M,,*7F
$GPRMC,132341,A,4940.9102,N,01052.7289,E,10.9996,141.086,050507,,*19
$GPGSA,A,3,25,13,27,23,02,04,20,,,,,,3.9,1.4,3.6*3D
$PGRME,0.00,M,0.00,M,8.86,M*18
$GPGSV,3,1,11,25,61,093,44,13,81,030,20,27,41,181,14,23,48,064,35*7F
$GPGSV,3,2,11,02,37,297,17,04,52,242,31,16,14,052,00,08,15,191,00*71
$GPGSV,3,3,11,10,07,297,00,50,07,250,00,20,14,119,10*49
$GPGGA,132342,4940.9071,N,01052.7323,E,1,06,1.40,295.9,M,47.453,M,,*77
$GPRMC,132342,A,4940.9071,N,01052.7323,E,14.3439,140.787,050507,,*1F
$GPGSA,A,3,25,13,27,23,02,04,,,,,,,4.1,2.4,3.3*36
$PGRME,0.00,M,0.00,M,15.03,M*29
$GPGSV,3,1,11,25,61,093,44,13,81,030,19,27,41,181,13,23,48,064,34*73
$GPGSV,3,2,11,02,37,297,16,04,52,242,34,16,14,052,00,08,15,191,00*75
$GPGSV,3,3,11,10,07,297,00,50,07,250,00,20,14,119,13*4A
$GPGGA,132343,4940.9024,N,01052.7371,E,1,06,2.40,296.8,M,47.453,M,,*70
$GPRMC,132343,A,4940.9024,N,01052.7371,E,17.7499,139.562,050507,,*13
$GPGSA,A,3,25,13,27,23,04,20,,,,,,,2.6,1.7,1.9*3F
$PGRME,0.00,M,0.00,M,15.80,M*22
$GPGSV,3,1,11,25,61,093,42,13,81,030,20,27,41,181,11,23,48,064,31*78
$GPGSV,3,2,11,02,37,297,17,04,52,242,41,16,14,052,00,08,15,191,00*76
$GPGSV,3,3,11,10,07,297,00,50,07,250,00,20,14,119,20*4A
$GPGGA,132344,4940.8973,N,01052.7419,E,1,06,1.70,296.8,M,47.453,M,,*74
$GPRMC,132344,A,4940.8973,N,01052.7419,E,17.6544,139.297,050507,,*1A
$GPGSA,A,3,25,13,23,02,04,20,,,,,,,2.6,1.7,1.9*38
$PGRME,0.00,M,0.00,M,10.02,M*2D
$GPGSV,3,1,11,25,61,093,41,13,81,030,20,27,41,181,09,23,48,064,30*73
$GPGSV,3,2,11,02,37,297,16,04,52,242,41,16,14,052,00,08,15,191,00*77
$GPGSV,3,3,11,10,07,297,00,50,07,250,00,20,14,119,25*4F
$GPGGA,132345,4940.8930,N,01052.7468,E,1,06,1.70,297.1,M,47.453,M,,*7C
$GPRMC,132345,A,4940.8930,N,01052.7468,E,17.7154,138.491,050507,,*1F
$GPGSA,A,3,25,13,23,02,04,20,,,,,,,2.6,1.7,1.9*38
$PGRME,0.00,M,0.00,M,10.02,M*2D
$GPGSV,3,1,11,25,61,093,41,13,81,030,21,27,41,181,09,23,48,064,30*72
$GPGSV,3,2,11,02,37,297,16,04,52,242,39,16,14,052,00,08,15,191,00*78
$GPGSV,3,3,11,10,07,297,00,50,07,250,00,20,14,119,22*48
$GPGGA,132346,4940.8892,N,01052.7511,E,1,06,1.70,296.5,M,47.453,M,,*7C
$GPRMC,132346,A,4940.8892,N,01052.7511,E,16.2889,138.947,050507,,*11
$GPGSA,A,3,25,13,23,02,04,20,,,,,,,2.6,1.7,1.9*38
$PGRME,0.00,M,0.00,M,10.02,M*2D
$GPGSV,3,1,11,25,61,092,37,13,81,030,19,27,41,181,09,23,48,064,29*71
$GPGSV,3,2,11,02,37,297,15,04,52,242,28,16,14,052,00,08,15,191,00*7B
$GPGSV,3,3,11,10,07,297,00,50,07,250,00,20,14,119,19*40
$GPGGA,132347,4940.8865,N,01052.7556,E,1,06,1.70,295.5,M,47.453,M,,*75
$GPRMC,132347,A,4940.8865,N,01052.7556,E,17.2215,140.560,050507,,*13
$GPGSA,A,3,25,13,23,02,04,20,,,,,,,5.8,3.8,4.3*33
$PGRME,0.00,M,0.00,M,10.02,M*2D
$GPGSV,3,1,11,25,61,092,37,13,81,030,21,27,41,181,08,23,48,064,28*7A
$GPGSV,3,2,11,02,37,297,09,04,52,242,31,16,14,052,00,08,15,191,00*7E
$GPGSV,3,3,11,10,07,297,00,50,07,250,00,20,14,119,23*49
$GPGGA,132348,4940.8827,N,01052.7599,E,1,05,3.80,294.9,M,47.453,M,,*7C
$GPRMC,132348,A,4940.8827,N,01052.7599,E,16.5336,140.510,050507,,*18
$GPGSA,A,3,25,13,23,04,20,,,,,,,,2.6,1.7,1.9*3A
$PGRME,0.00,M,0.00,M,22.35,M*28
$GPGSV,3,1,11,25,61,092,40,13,81,030,20,27,42,181,07,23,48,064,26*79
$GPGSV,3,2,11,02,37,297,12,04,52,242,36,16,14,052,00,08,15,191,00*73
$GPGSV,3,3,11,10,07,297,00,50,07,250,00,20,14,119,24*4E
$GPGGA,132349,4940.8788,N,01052.7640,E,1,06,1.70,295.8,M,47.453,M,,*7E
$GPRMC,132349,A,4940.8788,N,01052.7640,E,14.7216,140.104,050507,,*16
$GPGSA,A,3,25,13,23,02,04,20,,,,,,,2.6,1.7,1.9*38
$PGRME,0.00,M,0.00,M,10.02,M*2D
$GPGSV,3,1,11,25,61,092,43,13,81,030,21,27,42,181,07,23,48,064,29*74
$GPGSV,3,2,11,02,37,297,16,04,52,242,37,16,14,052,00,08,15,191,00*76
$GPGSV,3,3,11,10,07,297,00,50,07,250,00,20,14,119,20*4A
$GPGGA,132350,4940.8759,N,01052.7678,E,1,06,1.70,293.9,M,47.453,M,,*76
$GPRMC,132350,A,4940.8759,N,01052.7678,E,10.8342,137.176,050507,,*17
$GPGSA,A,3,25,13,23,02,04,20,,,,,,,2.3,1.3,1.9*39
$PGRME,0.00,M,0.00,M,10.02,M*2D
$GPGSV,3,1,11,25,61,092,43,13,81,030,21,27,42,181,11,23,48,064,35*7E
$GPGSV,3,2,11,02,37,297,16,04,52,242,30,16,14,052,00,08,15,191,00*71
$GPGSV,3,3,11,10,07,297,00,50,07,250,00,20,14,119,13*4A
$GPGGA,132351,4940.8745,N,01052.7709,E,1,07,1.30,293.5,M,47.453,M,,*74
$GPRMC,132351,A,4940.8745,N,01052.7709,E,6.6255,122.508,050507,,*2B
$GPGSA,A,3,25,13,27,23,02,04,20,,,,,,3.9,1.4,3.6*3D
$PGRME,0.00,M,0.00,M,8.86,M*18
$GPGSV,3,1,11,25,61,092,51,13,81,030,21,27,42,181,21,23,48,064,43*7F
$GPGSV,3,2,11,02,37,297,25,04,52,242,33,16,14,052,00,08,15,191,00*72
$GPGSV,3,3,11,10,07,297,00,50,07,250,00,20,14,119,08*40
$GPGGA,132352,4940.8736,N,01052.7724,E,1,06,1.40,293.6,M,47.453,M,,*79
$GPRMC,132352,A,4940.8736,N,01052.7724,E,4.7160,99.244,050507,,*1B
$GPGSA,A,3,25,13,27,23,02,04,,,,,,,3.9,1.4,3.6*3F
$PGRME,0.00,M,0.00,M,15.03,M*29
$GPGSV,3,1,11,25,61,092,52,13,81,030,20,27,42,181,17,23,48,064,46*7D
$GPGSV,3,2,11,02,37,297,19,04,52,242,27,16,14,052,00,08,15,191,00*78
$GPGSV,3,3,11,10,07,297,00,50,07,250,00,20,14,119,05*4D
$GPGGA,132353,4940.8738,N,01052.7740,E,1,06,1.40,294.6,M,47.453,M,,*73
$GPRMC,132353,A,4940.8738,N,01052.7740,E,5.5579,76.794,050507,,*10
$GPGSA,A,3,25,13,27,23,02,04,,,,,,,3.9,1.4,3.6*3F
$PGRME,0.00,M,0.00,M,15.03,M*29
$GPGSV,3,1,11,25,61,092,42,13,81,030,26,27,42,181,19,23,48,064,37*72
$GPGSV,3,2,11,02,37,297,17,04,52,242,22,16,14,052,00,08,15,191,00*73
$GPGSV,3,3,11,10,07,297,00,50,07,250,00,20,14,119,00*48
$GPGGA,132354,4940.8750,N,01052.7768,E,1,06,1.40,295.2,M,47.453,M,,*75
$GPRMC,132354,A,4940.8750,N,01052.7768,E,9.0752,49.144,050507,,*16
$GPGSA,A,3,25,13,27,23,02,04,,,,,,,3.9,1.4,3.6*3F
$PGRME,0.00,M,0.00,M,15.03,M*29
$GPGSV,3,1,11,25,61,092,41,13,81,030,29,27,42,181,17,23,48,064,40*70
$GPGSV,3,2,11,02,37,297,27,04,52,242,19,16,14,052,00,08,15,191,00*78
$GPGSV,3,3,11,10,07,297,00,50,07,250,00,20,14,119,00*48
$GPGGA,132355,4940.8775,N,01052.7799,E,1,06,1.40,295.3,M,47.453,M,,*7C
$GPRMC,132355,A,4940.8775,N,01052.7799,E,9.8878,37.181,050507,,*11
$GPGSA,A,3,25,13,27,23,02,04,,,,,,,3.9,1.4,3.6*3F
$PGRME,0.00,M,0.00,M,15.03,M*29
$GPGSV,3,1,11,25,61,092,40,13,81,030,33,27,42,181,19,23,48,064,43*77
$GPGSV,3,2,11,02,37,297,29,04,52,242,20,16,14,052,00,08,15,191,00*7C
$GPGSV,3,3,11,10,07,297,00,50,07,250,00,20,14,119,00*48
$GPGGA,132356,4940.8800,N,01052.7823,E,1,06,1.40,293.9,M,47.453,M,,*70
$GPRMC,132356,A,4940.8800,N,01052.7823,E,11.6644,25.416,050507,,*2F
$GPGSA,A,3,25,13,27,23,02,04,,,,,,,6.0,2.4,5.5*35
$PGRME,0.00,M,0.00,M,15.03,M*29
$GPGSV,3,1,11,25,61,092,43,13,81,030,35,27,42,181,20,23,48,064,41*7A
$GPGSV,3,2,11,02,37,297,19,04,52,242,23,16,14,052,00,08,15,191,00*7C
$GPGSV,3,3,11,10,07,297,00,50,07,250,00,20,14,119,00*48
$GPGGA,132357,4940.8834,N,01052.7840,E,1,05,2.40,292.5,M,47.453,M,,*7E
$GPRMC,132357,A,4940.8834,N,01052.7840,E,14.1291,18.381,050507,,*25
$GPGSA,A,3,25,13,27,23,04,,,,,,,,5.4,2.5,4.7*32
$PGRME,0.00,M,0.00,M,23.12,M*2C
$GPGSV,3,1,11,25,61,092,42,13,81,030,36,27,42,181,12,23,48,064,45*7D
$GPGSV,3,2,11,02,37,297,19,04,52,242,27,16,14,052,00,08,15,191,00*78
$GPGSV,3,3,11,10,07,297,00,50,07,250,00,20,14,119,00*48
$GPGGA,132358,4940.8879,N,01052.7859,E,1,05,2.50,292.0,M,47.453,M,,*74
$GPRMC,132358,A,4940.8879,N,01052.7859,E,17.7258,17.048,050507,,*22
$GPGSA,A,3,25,13,23,02,04,,,,,,,,5.4,2.5,4.7*35
$PGRME,0.00,M,0.00,M,20.81,M*25
$GPGSV,3,1,11,25,61,092,43,13,81,030,34,27,42,181,08,23,48,064,44*74
$GPGSV,3,2,11,02,37,297,17,04,52,242,24,16,14,052,00,08,15,191,00*75
$GPGSV,3,3,11,10,07,297,00,50,07,250,00,20,14,119,00*48
$GPGGA,132359,4940.8931,N,01052.7888,E,1,05,2.50,291.7,M,47.452,M,,*71
$GPRMC,132359,A,4940.8931,N,01052.7888,E,20.5752,17.566,050507,,*22
$GPGSA,A,3,25,13,23,02,04,,,,,,,,5.4,2.5,4.7*35
$PGRME,0.00,M,0.00,M,20.81,M*25
$GPGSV,3,1,11,25,61,092,43,13,81,030,34,27,42,181,05,23,48,064,42*7F
$GPGSV,3,2,11,02,37,297,21,04,52,242,25,16,14,052,00,08,15,191,00*71
$GPGSV,3,3,11,10,07,297,00,50,07,250,00,20,14,119,00*48
$GPGGA,132400,4940.8991,N,01052.7911,E,1,05,2.50,291.5,M,47.452,M,,*73
$GPRMC,132400,A,4940.8991,N,01052.7911,E,21.3849,17.189,050507,,*25
$GPGSA,A,3,25,13,23,02,04,,,,,,,,5.4,2.5,4.7*35
$PGRME,0.00,M,0.00,M,20.81,M*25
$GPGSV,3,1,11,25,61,092,43,13,81,030,33,27,42,181,00,23,48,064,37*7F
$GPGSV,3,2,11,02,37,297,25,04,52,242,26,16,14,052,00,08,15,191,00*76
$GPGSV,3,3,11,10,07,297,00,50,07,250,00,20,14,119,00*48
$GPGGA,132401,4940.9051,N,01052.7933,E,1,05,2.50,291.2,M,47.452,M,,*71
$GPRMC,132401,A,4940.9051,N,01052.7933,E,21.2376,14.101,050507,,*25
$GPGSA,A,3,25,13,23,02,04,,,,,,,,5.4,2.5,4.7*35
$PGRME,0.00,M,0.00,M,20.81,M*25
$GPGSV,3,1,11,25,61,092,44,13,81,030,33,27,42,181,00,23,48,064,30*7F
$GPGSV,3,2,11,02,37,297,26,04,52,242,24,16,14,052,00,08,15,191,00*77
$GPGSV,3,3,11,10,07,297,00,50,07,250,00,20,14,119,00*48
$GPGGA,132402,4940.9111,N,01052.7955,E,1,05,2.50,291.0,M,47.452,M,,*75
$GPRMC,132402,A,4940.9111,N,01052.7955,E,21.2762,10.916,050507,,*28
$GPGSA,A,3,25,13,23,02,04,,,,,,,,5.4,2.5,4.7*35
$PGRME,0.00,M,0.00,M,20.81,M*25
$GPGSV,3,1,11,25,61,092,47,13,81,030,31,27,42,181,00,23,48,064,27*78
$GPGSV,3,2,11,02,37,297,20,04,52,242,26,16,14,052,00,08,15,191,00*73
$GPGSV,3,3,11,10,07,297,00,50,07,250,00,20,14,119,00*48
$GPGGA,132403,4940.9175,N,01052.7969,E,1,05,2.50,291.3,M,47.452,M,,*7A
$GPRMC,132403,A,4940.9175,N,01052.7969,E,22.8725,8.189,050507,,*19
$GPGSA,A,3,25,13,23,02,04,,,,,,,,5.4,2.5,4.7*35
$PGRME,0.00,M,0.00,M,20.81,M*25
$GPGSV,3,1,11,25,61,092,52,13,81,030,31,27,42,181,10,23,48,064,26*7C
$GPGSV,3,2,11,02,37,297,15,04,52,242,27,16,14,052,00,08,15,191,00*74
$GPGSV,3,3,11,10,07,297,00,50,07,250,00,20,14,119,00*48
$GPGGA,132404,4940.9232,N,01052.7982,E,1,05,2.50,291.6,M,47.452,M,,*7D
$GPRMC,132404,A,4940.9232,N,01052.7982,E,23.4459,7.788,050507,,*16
$GPGSA,A,3,25,13,23,02,04,,,,,,,,5.4,2.5,4.7*35
$PGRME,0.00,M,0.00,M,20.81,M*25
$GPGSV,3,1,11,25,61,092,52,13,81,030,31,27,42,181,14,23,48,064,26*78
$GPGSV,3,2,11,02,37,297,14,04,52,242,30,16,14,052,00,08,15,191,00*73
$GPGSV,3,3,11,10,07,297,00,50,07,250,00,20,14,119,00*48
$GPGGA,132405,4940.9297,N,01052.7988,E,1,05,2.50,291.9,M,47.452,M,,*76
$GPRMC,132405,A,4940.9297,N,01052.7988,E,23.9961,7.326,050507,,*19
$GPGSA,A,3,25,13,23,02,04,,,,,,,,6.0,2.4,5.5*30
$PGRME,0.00,M,0.00,M,20.81,M*25
$GPGSV,3,1,11,25,61,092,52,13,81,031,31,27,42,181,15,23,48,064,30*7F
$GPGSV,3,2,11,02,37,297,11,04,52,242,32,16,14,052,00,08,15,191,00*74
$GPGSV,3,3,11,10,07,297,00,50,07,250,00,20,14,119,00*48
$GPGGA,132406,4940.9370,N,01052.7995,E,1,05,2.40,292.2,M,47.452,M,,*78
$GPRMC,132406,A,4940.9370,N,01052.7995,E,24.8003,2.914,050507,,*1B
$GPGSA,A,3,25,13,27,23,04,,,,,,,,3.9,1.4,3.6*3D
$PGRME,0.00,M,0.00,M,23.12,M*2C
$GPGSV,3,1,11,25,61,092,49,13,81,031,30,27,42,181,15,23,48,064,26*73
$GPGSV,3,2,11,02,37,297,14,04,52,242,34,16,14,052,00,08,15,191,00*77
$GPGSV,3,3,11,10,07,297,00,50,07,250,00,20,14,119,00*48
$GPGGA,132407,4940.9442,N,01052.8003,E,1,06,1.40,292.6,M,47.452,M,,*72
$GPRMC,132407,A,4940.9442,N,01052.8003,E,24.8859,359.489,050507,,*16
$GPGSA,A,3,25,13,27,23,02,04,,,,,,,5.0,1.9,4.6*3A
$PGRME,0.00,M,0.00,M,15.03,M*29
$GPGSV,3,1,11,25,61,092,40,13,81,031,32,27,42,181,15,23,48,064,19*74
$GPGSV,3,2,11,02,37,297,20,04,52,242,38,16,14,052,00,08,15,191,00*7C
$GPGSV,3,3,11,10,07,297,00,50,07,250,00,20,14,119,00*48
$GPGGA,132408,4940.9512,N,01052.8002,E,1,05,1.90,292.1,M,47.452,M,,*71
$GPRMC,132408,A,4940.9512,N,01052.8002,E,25.2703,358.364,050507,,*12
$GPGSA,A,3,25,13,27,02,04,,,,,,,,3.9,1.4,3.6*3E
$PGRME,0.00,M,0.00,M,19.27,M*23
$GPGSV,3,1,11,25,61,092,43,13,81,031,33,27,42,181,15,23,48,064,28*74
$GPGSV,3,2,11,02,37,297,22,04,52,242,38,16,14,052,00,08,15,191,00*7E
$GPGSV,3,3,11,10,07,297,00,50,07,250,00,20,14,119,00*48
$GPGGA,132409,4940.9586,N,01052.7993,E,1,06,1.40,292.3,M,47.452,M,,*7F
$GPRMC,132409,A,4940.9586,N,01052.7993,E,24.8178,357.385,050507,,*11
$GPGSA,A,3,25,13,27,23,02,04,,,,,,,3.9,1.4,3.6*3F
$PGRME,0.00,M,0.00,M,15.03,M*29
$GPGSV,3,1,11,25,61,092,44,13,81,031,36,27,42,181,16,23,48,064,30*7C
$GPGSV,3,2,11,02,37,297,19,04,52,242,38,16,14,052,00,08,15,191,00*76
$GPGSV,3,3,11,10,07,297,00,50,07,250,00,20,14,119,00*48
$GPGGA,132410,4940.9656,N,01052.7993,E,1,06,1.40,291.8,M,47.452,M,,*71
$GPRMC,132410,A,4940.9656,N,01052.7993,E,24.8942,353.085,050507,,*11
$GPGSA,A,3,25,13,27,23,02,04,,,,,,,3.9,1.4,3.6*3F
$PGRME,0.00,M,0.00,M,15.03,M*29
$GPGSV,3,1,11,25,61,092,43,13,81,031,34,27,42,181,16,23,48,064,34*7D
$GPGSV,3,2,11,02,37,297,13,04,52,242,41,16,14,052,00,08,15,191,00*72
$GPGSV,3,3,11,10,07,297,00,47,07,250,00,20,14,119,00*4E
$GPGGA,132411,4940.9723,N,01052.7974,E,1,06,1.40,291.7,M,47.452,M,,*75
$GPRMC,132411,A,4940.9723,N,01052.7974,E,25.1353,349.885,050507,,*1B
$GPGSA,A,3,25,13,27,23,02,04,,,,,,,5.3,2.5,4.7*37
$PGRME,0.00,M,0.00,M,15.03,M*29
$GPGSV,3,1,11,25,61,092,43,13,81,031,33,27,42,181,11,23,48,064,33*7A
$GPGSV,3,2,11,02,37,297,13,04,52,242,40,16,14,052,00,08,15,191,00*73
$GPGSV,3,3,11,10,07,297,00,47,07,250,00,20,14,119,00*4E
$GPGGA,132412,4940.9795,N,01052.7959,E,1,05,2.50,289.5,M,47.453,M,,*7F
$GPRMC,132412,A,4940.9795,N,01052.7959,E,25.5834,348.843,050507,,*1F
$GPGSA,A,3,25,13,23,02,04,,,,,,,,6.7,2.8,6.1*3C
$PGRME,0.00,M,0.00,M,20.42,M*2A
$GPGSV,3,1,11,25,61,092,38,13,81,031,32,27,42,181,06,23,48,064,27*74
$GPGSV,3,2,11,02,37,297,14,04,52,242,38,16,14,052,00,08,15,191,00*7B
$GPGSV,3,3,11,10,07,297,00,47,07,250,00,20,13,119,00*49
$GPGGA,132413,4940.9871,N,01052.7934,E,1,04,2.80,289.4,M,47.453,M,,*7D
$GPRMC,132413,A,4940.9871,N,01052.7934,E,26.6262,346.928,050507,,*1B
$GPGSA,A,3,25,13,02,04,,,,,,,,,7.3,4.7,5.5*36
$PGRME,0.00,M,0.00,M,25.82,M*23
$GPGSV,3,1,11,25,61,092,36,13,81,031,32,27,42,181,04,23,48,064,31*7F
$GPGSV,3,2,11,02,37,297,10,04,52,242,36,16,14,052,00,08,15,191,00*71
$GPGSV,3,3,11,10,07,297,00,47,07,250,00,20,13,119,00*49
$GPGGA,132414,4940.9951,N,01052.7900,E,1,04,4.70,290.0,M,47.453,M,,*7B
$GPRMC,132414,A,4940.9951,N,01052.7900,E,26.8227,345.605,050507,,*14
$GPGSA,A,3,25,13,23,04,,,,,,,,,7.3,4.7,5.5*35
$PGRME,0.00,M,0.00,M,28.13,M*26
$GPGSV,3,1,11,25,61,092,37,13,81,031,33,27,42,181,00,23,48,064,35*7F
$GPGSV,3,2,11,02,37,297,08,04,52,242,35,16,14,052,00,08,15,191,00*7B
$GPGSV,3,3,11,10,07,297,00,47,07,250,00,20,13,119,00*49
$GPGGA,132415,4941.0030,N,01052.7866,E,1,04,4.70,291.9,M,47.453,M,,*75
$GPRMC,132415,A,4941.0030,N,01052.7866,E,26.4712,346.605,050507,,*1E
$GPGSA,A,2,25,13,23,04,,,,,,,,,5.3,5.2,1.0*33
$PGRME,0.00,M,0.00,M,28.13,M*26
$GPGSV,3,1,11,25,61,092,35,13,81,031,33,27,42,181,00,23,48,064,24*7D
$GPGSV,3,2,11,02,37,297,06,04,52,242,33,16,14,052,00,08,15,191,00*73
$GPGSV,3,3,11,10,07,297,00,47,07,250,00,20,13,119,00*49
$GPGGA,132416,4941.0104,N,01052.7834,E,1,03,5.20,289.5,M,47.453,M,,*71
$GPRMC,132416,A,4941.0104,N,01052.7834,E,25.7912,347.735,050507,,*11
$GPGSA,A,3,25,13,04,,,,,,,,,,7.3,4.7,5.5*34
$PGRME,0.00,M,0.00,M,20.42,M*2A
$GPGSV,3,1,11,25,61,092,37,13,81,031,33,27,42,181,00,23,48,064,30*7A
$GPGSV,3,2,11,02,37,297,07,04,52,242,35,16,14,052,00,08,15,191,00*74
$GPGSV,3,3,11,10,07,297,00,47,07,250,00,20,13,119,00*49
$GPGGA,132417,4941.0175,N,01052.7817,E,1,04,4.70,288.8,M,47.453,M,,*78
$GPRMC,132417,A,4941.0175,N,01052.7817,E,27.1618,348.410,050507,,*1D
$GPGSA,A,3,25,13,23,04,,,,,,,,,5.3,2.5,4.7*30
$PGRME,0.00,M,0.00,M,28.13,M*26
$GPGSV,3,1,11,25,61,092,40,13,81,031,33,27,42,181,00,23,48,064,34*7E
$GPGSV,3,2,11,02,37,297,08,04,52,242,36,16,14,052,00,08,15,191,00*78
$GPGSV,3,3,11,10,07,297,00,47,07,250,00,20,13,119,00*49
$GPGGA,132418,4941.0251,N,01052.7792,E,1,05,2.50,288.7,M,47.453,M,,*7A
$GPRMC,132418,A,4941.0251,N,01052.7792,E,26.4239,349.866,050507,,*1A
$GPGSA,A,3,25,13,23,02,04,,,,,,,,7.3,4.7,5.5*37
$PGRME,0.00,M,0.00,M,20.42,M*2A
$GPGSV,3,1,11,25,61,092,41,13,81,031,34,27,42,181,00,23,48,064,40*7B
$GPGSV,3,2,11,02,37,297,07,04,52,242,37,16,14,052,00,08,15,191,00*76
$GPGSV,3,3,11,10,07,297,00,47,07,250,00,20,13,119,00*49
$GPGGA,132419,4941.0331,N,01052.7768,E,1,04,4.70,287.9,M,47.453,M,,*7D
$GPRMC,132419,A,4941.0331,N,01052.7768,E,27.0083,352.121,050507,,*1F
$GPGSA,A,3,25,13,23,04,,,,,,,,,7.3,4.7,5.5*35
$PGRME,0.00,M,0.00,M,28.13,M*26
$GPGSV,3,1,11,25,61,092,41,13,81,031,34,27,42,181,00,23,48,064,42*79
$GPGSV,3,2,11,02,37,297,09,04,52,242,41,16,14,052,00,08,15,191,00*79
$GPGSV,3,3,11,10,07,297,00,47,07,250,00,20,13,119,00*49
$GPGGA,132420,4941.0406,N,01052.7751,E,1,04,4.70,288.0,M,47.453,M,,*78
$GPRMC,132420,A,4941.0406,N,01052.7751,E,27.0371,354.323,050507,,*14
$GPGSA,A,3,25,13,23,04,,,,,,,,,5.3,2.5,4.7*30
$PGRME,0.00,M,0.00,M,28.13,M*26
$GPGSV,3,1,11,25,61,092,39,13,81,031,33,27,42,181,00,23,48,064,40*73
$GPGSV,3,2,11,02,37,297,16,04,52,242,43,16,14,052,00,08,15,191,00*75
$GPGSV,3,3,11,10,07,297,00,47,07,250,00,20,13,119,00*49
$GPGGA,132421,4941.0480,N,01052.7742,E,1,05,2.50,288.1,M,47.453,M,,*71
$GPRMC,132421,A,4941.0480,N,01052.7742,E,26.6353,355.395,050507,,*12
$GPGSA,A,3,25,13,23,02,04,,,,,,,,5.3,2.5,4.7*32
$PGRME,0.00,M,0.00,M,20.42,M*2A
$GPGSV,3,1,11,25,61,092,37,13,81,031,33,27,42,181,10,23,48,064,38*73
$GPGSV,3,2,11,02,37,297,19,04,52,242,41,16,14,052,00,08,15,191,00*78
$GPGSV,3,3,11,10,07,297,00,47,07,250,00,20,13,119,00*49
$GPGGA,132422,4941.0553,N,01052.7732,E,1,05,2.50,289.6,M,47.453,M,,*7C
$GPRMC,132422,A,4941.0553,N,01052.7732,E,25.8274,356.867,050507,,*15
$GPGSA,A,3,25,13,23,02,04,,,,,,,,5.3,2.5,4.7*32
$PGRME,0.00,M,0.00,M,20.42,M*2A
$GPGSV,3,1,11,25,61,092,38,13,81,031,32,27,42,181,16,23,48,064,36*75
$GPGSV,3,2,11,02,37,297,19,04,52,242,40,16,14,052,00,08,15,191,00*79
$GPGSV,3,3,11,10,07,297,00,47,07,250,00,20,13,119,00*49
$GPGGA,132423,4941.0619,N,01052.7730,E,1,05,2.50,289.8,M,47.453,M,,*7C
$GPRMC,132423,A,4941.0619,N,01052.7730,E,25.6029,359.322,050507,,*1A
$GPGSA,A,3,25,13,23,02,04,,,,,,,,3.9,1.4,3.7*3B
$PGRME,0.00,M,0.00,M,20.42,M*2A
$GPGSV,3,1,11,25,61,092,35,13,81,031,32,27,42,181,16,23,48,064,34*7A
$GPGSV,3,2,11,02,37,297,19,04,52,242,41,16,14,052,00,08,15,191,00*78
$GPGSV,3,3,11,10,07,297,00,47,07,250,00,20,13,119,00*49
$GPGGA,132424,4941.0684,N,01052.7736,E,1,06,1.40,290.0,M,47.453,M,,*78
$GPRMC,132424,A,4941.0684,N,01052.7736,E,24.7226,3.639,050507,,*11
$GPGSA,A,3,25,13,27,23,02,04,,,,,,,6.0,2.4,5.5*35
$PGRME,0.00,M,0.00,M,15.03,M*29
$GPGSV,3,1,11,25,61,092,42,13,81,031,35,27,42,181,15,23,48,064,36*7C
$GPGSV,3,2,11,02,37,297,15,04,52,242,40,16,14,052,00,08,15,191,00*75
$GPGSV,3,3,11,10,07,297,00,47,07,250,00,20,13,119,00*49
$GPGGA,132425,4941.0754,N,01052.7745,E,1,05,2.40,288.3,M,47.453,M,,*7B
$GPRMC,132425,A,4941.0754,N,01052.7745,E,25.6189,6.842,050507,,*19
$GPGSA,A,3,25,13,27,23,04,,,,,,,,6.0,2.4,5.5*37
$PGRME,0.00,M,0.00,M,23.12,M*2C
$GPGSV,3,1,11,25,61,092,42,13,81,031,39,27,42,181,18,23,48,064,30*7B
$GPGSV,3,2,11,02,38,296,11,04,52,242,33,16,14,052,00,08,15,191,00*7B
$GPGSV,3,3,11,10,07,297,00,47,07,250,00,20,13,119,00*49
$GPGGA,132426,4941.0830,N,01052.7762,E,1,05,2.40,288.1,M,47.453,M,,*72
$GPRMC,132426,A,4941.0830,N,01052.7762,E,25.7432,9.815,050507,,*1B
$GPGSA,A,3,25,13,27,23,04,,,,,,,,5.3,2.5,4.7*35
$PGRME,0.00,M,0.00,M,23.12,M*2C
$GPGSV,3,1,11,25,61,092,36,13,81,031,39,27,42,181,16,23,48,064,30*76
$GPGSV,3,2,11,02,38,296,14,04,52,242,31,16,14,052,00,08,15,191,00*7C
$GPGSV,3,3,11,10,07,297,00,47,07,250,00,20,13,119,00*49
$GPGGA,132427,4941.0898,N,01052.7778,E,1,05,2.50,287.9,M,47.453,M,,*7C
$GPRMC,132427,A,4941.0898,N,01052.7778,E,25.4111,8.385,050507,,*17
$GPGSA,A,3,25,13,23,02,04,,,,,,,,6.0,2.4,5.5*30
$PGRME,0.00,M,0.00,M,20.42,M*2A
$GPGSV,3,1,11,25,61,092,37,13,81,031,40,27,42,181,15,23,48,064,30*7A
$GPGSV,3,2,11,02,38,296,11,04,51,241,34,16,14,052,00,08,15,191,00*7C
$GPGSV,3,3,11,10,07,297,00,47,07,250,00,20,13,119,00*49
$GPGGA,132428,4941.0968,N,01052.7787,E,1,05,2.40,286.1,M,47.453,M,,*75
$GPRMC,132428,A,4941.0968,N,01052.7787,E,25.3722,3.629,050507,,*1F
$GPGSA,A,3,25,13,27,23,04,,,,,,,,6.0,2.4,5.5*37
$PGRME,0.00,M,0.00,M,23.12,M*2C
$GPGSV,3,1,11,25,61,092,43,13,81,031,39,27,42,181,14,23,48,064,33*75
$GPGSV,3,2,11,02,38,296,11,04,51,241,35,16,14,052,00,08,15,191,00*7D
$GPGSV,3,3,11,10,07,297,00,47,07,250,00,20,13,119,00*49
$GPGGA,132429,4941.1041,N,01052.7796,E,1,05,2.40,285.1,M,47.453,M,,*74
$GPRMC,132429,A,4941.1041,N,01052.7796,E,25.1487,358.975,050507,,*18
$GPGSA,A,3,25,13,27,23,04,,,,,,,,5.3,2.5,4.7*35
$PGRME,0.00,M,0.00,M,23.12,M*2C
$GPGSV,3,1,11,25,61,092,46,13,81,031,41,27,42,181,09,23,48,064,35*75
$GPGSV,3,2,11,02,38,296,12,04,51,241,37,16,14,052,00,08,15,191,00*7C
$GPGSV,3,3,11,10,07,297,00,47,07,250,00,20,13,119,00*49
$GPGGA,132430,4941.1107,N,01052.7794,E,1,05,2.50,285.2,M,47.453,M,,*7F
