$GPGGA,063831,4940.9181,N,01052.7275,E,1,05,1.70,293.0,M,47.453,M,,*7E
$GPRMC,063831,A,4940.9181,N,01052.7275,E,0.0000,0.000,190707,,*23
$GPGSA,A,3,13,11,04,23,20,,,,,,,,2.8,1.7,2.2*3B
$GPGSV,3,1,11,17,20,240,00,31,20,042,00,13,52,221,29,11,15,160,16*74
$GPGSV,3,2,11,04,39,302,42,25,12,176,00,23,82,176,42,01,08,050,00*74
$GPGSV,3,3,11,02,06,316,00,20,57,090,37,35,07,250,00*42
$GPGGA,063832,4940.9181,N,01052.7275,E,1,06,1.70,293.0,M,47.453,M,,*7E
$GPRMC,063832,A,4940.9181,N,01052.7275,E,0.0000,0.000,190707,,*20
$GPGSA,A,3,13,11,04,23,20,35,,,,,,,2.8,1.7,2.2*3D
$GPGSV,3,1,11,17,20,240,00,31,20,042,00,13,52,221,29,11,15,160,16*74
$GPGSV,3,2,11,04,39,302,43,25,12,176,00,23,82,176,41,01,08,050,00*76
$GPGSV,3,3,11,02,06,316,00,20,57,090,37,35,07,250,00*42
$GPGGA,063833,4940.9181,N,01052.7275,E,1,05,1.70,293.0,M,47.453,M,,*7C
$GPRMC,063833,A,4940.9181,N,01052.7275,E,0.0000,0.000,190707,,*21
$GPGSA,A,3,13,11,04,23,20,,,,,,,,2.8,1.7,2.2*3B
$PGRME,0.00,M,0.00,M,10.79,M*21
$GPGSV,3,1,11,17,20,240,00,31,20,042,00,13,52,221,29,11,15,160,16*74
$GPGSV,3,2,11,04,39,302,41,25,12,176,00,23,82,176,41,01,08,050,00*74
$GPGSV,3,3,11,02,06,316,00,20,57,090,37,35,07,250,00*42
$GPGGA,063834,4940.9181,N,01052.7275,E,1,05,1.70,293.0,M,47.453,M,,*7B
$GPRMC,063834,A,4940.9181,N,01052.7275,E,0.0000,0.000,190707,,*26
$GPGSA,A,3,13,11,04,23,20,,,,,,,,2.8,1.7,2.2*3B
$PGRME,0.00,M,0.00,M,10.79,M*21
$GPGSV,3,1,11,17,20,240,00,31,20,042,00,13,52,221,30,11,15,160,15*7F
$GPGSV,3,2,11,04,39,302,41,25,12,176,00,23,82,176,43,01,08,050,00*76
$GPGSV,3,3,11,02,06,316,00,20,57,090,37,35,07,250,00*42
$GPGGA,063835,4940.9181,N,01052.7275,E,1,05,1.70,293.0,M,47.453,M,,*7A
$GPRMC,063835,A,4940.9181,N,01052.7275,E,0.0000,0.000,190707,,*27
$GPGSA,A,3,13,11,04,23,20,,,,,,,,2.8,1.7,2.2*3B
$GPGSV,3,1,11,17,20,240,00,31,20,042,00,13,52,221,29,11,15,160,15*77
$GPGSV,3,2,11,04,39,302,41,25,12,176,00,23,82,176,42,01,08,050,00*77
$GPGSV,3,3,11,02,06,316,00,20,57,090,36,35,07,250,00*43
$GPGGA,063836,4940.9181,N,01052.7275,E,1,05,1.70,293.0,M,47.453,M,,*79
$GPRMC,063836,A,4940.9181,N,01052.7275,E,0.0000,0.000,190707,,*24
$GPGSA,A,3,13,11,04,23,20,,,,,,,,2.8,1.7,2.2*3B
$GPGSV,3,1,11,17,20,240,00,31,20,042,00,13,52,221,30,11,15,160,15*7F
$GPGSV,3,2,11,04,39,302,40,25,12,176,00,23,82,173,43,01,08,050,00*72
$GPGSV,3,3,11,02,06,316,00,20,57,090,35,35,07,250,00*40
$GPGGA,063837,4940.9181,N,01052.7275,E,1,06,1.70,293.0,M,47.453,M,,*7B
$GPRMC,063837,A,4940.9181,N,01052.7275,E,0.0000,0.000,190707,,*25
$GPGSA,A,3,13,11,04,23,20,35,,,,,,,2.8,1.7,2.2*3D
$PGRME,0.00,M,0.00,M,10.79,M*21
$GPGSV,3,1,11,17,20,240,00,31,20,042,00,13,52,221,28,11,15,160,15*76
$GPGSV,3,2,11,04,39,302,41,25,12,176,00,23,82,173,41,01,08,050,00*71
$GPGSV,3,3,11,02,06,316,00,20,57,090,35,35,07,250,00*40
$GPGGA,063838,4940.9181,N,01052.7275,E,1,06,1.70,293.0,M,47.453,M,,*74
$GPRMC,063838,A,4940.9181,N,01052.7275,E,0.0000,0.000,190707,,*2A
$GPGSA,A,3,13,11,04,23,20,35,,,,,,,2.8,1.7,2.2*3D
$GPGSV,3,1,11,17,20,240,00,31,20,042,00,13,52,221,28,11,15,160,15*76
$GPGSV,3,2,11,04,39,302,42,25,12,176,00,23,82,173,41,01,08,050,00*72
$GPGSV,3,3,11,02,06,316,00,20,57,090,36,35,07,250,00*43
$GPGGA,063839,4940.9181,N,01052.7275,E,1,05,1.70,293.0,M,47.453,M,,*76
$GPRMC,063839,A,4940.9181,N,01052.7275,E,0.0000,0.000,190707,,*2B
$GPGSA,A,3,13,11,04,23,20,,,,,,,,6.4,2.4,6.0*35
$PGRME,0.00,M,0.00,M,10.79,M*21
$GPGSV,3,1,11,17,20,240,00,31,20,042,00,13,52,221,28,11,15,160,13*70
$GPGSV,3,2,11,04,39,302,42,25,12,176,00,23,82,173,42,01,08,050,00*71
$GPGSV,3,3,11,02,06,316,00,20,57,090,36,35,07,250,00*43
$GPGGA,063840,4940.9178,N,01052.7275,E,1,04,2.40,292.3,M,47.453,M,,*7D
$GPRMC,063840,A,4940.9178,N,01052.7275,E,0.0000,0.000,190707,,*23
$GPGSA,A,3,13,04,23,20,,,,,,,,,2.8,1.7,2.2*3B
$GPGSV,3,1,11,17,20,240,00,31,20,042,00,13,52,221,28,11,15,160,15*76
$GPGSV,3,2,11,04,39,302,41,25,12,176,00,23,82,173,43,01,08,050,00*73
$GPGSV,3,3,11,02,06,316,00,20,57,090,36,35,07,250,00*43
$GPGGA,063841,4940.9178,N,01052.7275,E,1,06,1.70,292.3,M,47.453,M,,*7E
$GPRMC,063841,A,4940.9178,N,01052.7275,E,0.0000,0.000,190707,,*22
$GPGSA,A,3,13,11,04,23,20,35,,,,,,,2.8,1.7,2.2*3D
$GPGSV,3,1,11,17,20,240,00,31,20,042,00,13,52,221,29,11,15,160,17*75
$GPGSV,3,2,11,04,39,302,42,25,12,176,00,23,82,173,44,01,08,050,00*77
$GPGSV,3,3,11,02,06,316,00,20,57,090,36,35,07,250,00*43
$GPGGA,063842,4940.9178,N,01052.7275,E,1,05,1.70,292.3,M,47.453,M,,*7E
$GPRMC,063842,A,4940.9178,N,01052.7275,E,0.0000,0.000,190707,,*21
$GPGSA,A,3,13,11,04,23,20,,,,,,,,2.8,1.7,2.2*3B
$PGRME,0.00,M,0.00,M,10.79,M*21
$GPGSV,3,1,11,17,20,240,00,31,20,042,00,13,52,221,28,11,15,160,16*75
$GPGSV,3,2,11,04,39,302,40,25,12,176,00,23,82,173,42,01,08,050,00*73
$GPGSV,3,3,11,02,06,316,00,20,57,090,35,35,07,250,00*40
$GPGGA,063843,4940.9178,N,01052.7275,E,1,05,1.70,292.3,M,47.453,M,,*7F
$GPRMC,063843,A,4940.9178,N,01052.7275,E,0.0000,0.000,190707,,*20
$GPGSA,A,3,13,11,04,23,20,,,,,,,,2.8,1.7,2.2*3B
$PGRME,0.00,M,0.00,M,10.79,M*21
$GPGSV,3,1,11,17,20,240,00,31,20,042,00,13,52,221,27,11,15,160,16*7A
$GPGSV,3,2,11,04,39,302,40,25,12,176,00,23,82,173,43,01,08,050,00*72
$GPGSV,3,3,11,02,06,316,00,20,57,090,35,35,07,250,00*40
$GPGGA,063844,4940.9178,N,01052.7275,E,1,05,1.70,292.3,M,47.453,M,,*78
$GPRMC,063844,A,4940.9178,N,01052.7275,E,0.0000,0.000,190707,,*27
$GPGSA,A,3,13,11,04,23,20,,,,,,,,2.8,1.7,2.2*3B
$PGRME,0.00,M,0.00,M,10.79,M*21
$GPGSV,3,1,11,17,20,240,00,31,20,042,00,13,52,221,29,11,15,160,17*75
$GPGSV,3,2,11,04,39,302,41,25,12,176,00,23,82,173,44,01,08,050,00*74
$GPGSV,3,3,11,02,06,316,00,20,57,090,36,35,07,250,00*43
$GPGGA,063845,4940.9178,N,01052.7275,E,1,05,1.70,292.3,M,47.453,M,,*79
$GPRMC,063845,A,4940.9178,N,01052.7275,E,0.0000,0.000,190707,,*26
$GPGSA,A,3,13,11,04,23,20,,,,,,,,2.8,1.7,2.2*3B
$PGRME,0.00,M,0.00,M,10.79,M*21
$GPGSV,3,1,11,17,20,240,00,31,20,042,00,13,52,221,30,11,15,160,16*7C
$GPGSV,3,2,11,04,39,302,42,25,12,176,00,23,82,173,44,01,08,050,00*77
$GPGSV,3,3,11,02,06,316,00,20,57,090,37,35,07,250,00*42
$GPGGA,063846,4940.9174,N,01052.7273,E,1,05,1.70,292.9,M,47.453,M,,*7A
$GPRMC,063846,A,4940.9174,N,01052.7273,E,0.0000,0.000,190707,,*2F
$GPGSA,A,3,13,11,04,23,20,,,,,,,,2.8,1.7,2.2*3B
$PGRME,0.00,M,0.00,M,10.79,M*21
$GPGSV,3,1,11,17,20,240,00,31,20,042,00,13,52,221,28,11,15,160,16*75
$GPGSV,3,2,11,04,39,302,41,25,12,176,00,23,82,173,43,01,08,050,00*73
$GPGSV,3,3,11,02,06,316,00,20,57,090,36,35,07,250,00*43
$GPGGA,063847,4940.9174,N,01052.7273,E,1,06,1.70,292.9,M,47.453,M,,*78
$GPRMC,063847,A,4940.9174,N,01052.7273,E,0.0000,0.000,190707,,*2E
$GPGSA,A,3,13,11,04,23,20,35,,,,,,,2.8,1.7,2.2*3D
$PGRME,0.00,M,0.00,M,10.79,M*21
$GPGSV,3,1,11,17,20,240,00,31,20,042,00,13,52,221,28,11,15,160,17*74
$GPGSV,3,2,11,04,39,302,40,25,12,176,00,23,82,173,43,01,08,050,00*72
$GPGSV,3,3,11,02,06,316,00,20,57,090,35,35,07,250,00*40
$GPGGA,063848,4940.9174,N,01052.7273,E,1,05,1.70,292.9,M,47.453,M,,*74
$GPRMC,063848,A,4940.9174,N,01052.7273,E,0.0000,0.000,190707,,*21
$GPGSA,A,3,13,11,04,23,20,,,,,,,,2.8,1.7,2.2*3B
$PGRME,0.00,M,0.00,M,10.79,M*21
$GPGSV,3,1,11,17,20,240,00,31,20,042,00,13,52,221,29,11,15,160,18*7A
$GPGSV,3,2,11,04,40,302,39,25,12,176,00,23,82,173,43,01,08,050,00*72
$GPGSV,3,3,11,02,06,316,00,20,57,090,35,35,07,250,00*40
$GPGGA,063849,4940.9174,N,01052.7273,E,1,05,1.70,292.9,M,47.453,M,,*75
$GPRMC,063849,A,4940.9174,N,01052.7273,E,0.0000,0.000,190707,,*20
$GPGSA,A,3,13,11,04,23,20,,,,,,,,2.8,1.7,2.2*3B
$PGRME,0.00,M,0.00,M,10.79,M*21
$GPGSV,3,1,11,17,20,240,00,31,20,042,00,13,52,221,29,11,15,160,17*75
$GPGSV,3,2,11,04,40,302,39,25,12,176,00,23,82,173,42,01,08,050,00*73
$GPGSV,3,3,11,02,06,316,00,20,57,090,33,35,07,250,00*46
$GPGGA,063850,4940.9174,N,01052.7273,E,1,06,1.70,292.9,M,47.453,M,,*7E
$GPRMC,063850,A,4940.9174,N,01052.7273,E,0.0000,0.000,190707,,*28
$GPGSA,A,3,13,11,04,23,20,35,,,,,,,2.8,1.7,2.2*3D
$PGRME,0.00,M,0.00,M,10.79,M*21
$GPGSV,3,1,11,17,20,240,00,31,20,042,00,13,52,221,30,11,15,160,19*73
$GPGSV,3,2,11,04,40,302,41,25,12,176,00,23,82,173,40,01,08,050,00*7E
$GPGSV,3,3,11,02,06,316,00,20,57,090,31,35,07,250,00*44
$GPGGA,063851,4940.9174,N,01052.7273,E,1,05,1.70,292.9,M,47.453,M,,*7C
$GPRMC,063851,A,4940.9174,N,01052.7273,E,0.0000,0.000,190707,,*29
$GPGSA,A,3,13,11,04,23,20,,,,,,,,2.8,1.7,2.2*3B
$PGRME,0.00,M,0.00,M,10.79,M*21
$GPGSV,3,1,11,17,20,240,00,31,20,042,00,13,52,221,30,11,15,160,20*79
$GPGSV,3,2,11,04,40,302,44,25,12,176,00,23,82,173,36,01,08,050,00*7A
$GPGSV,3,3,11,02,06,316,00,20,57,090,30,35,07,250,00*45
$GPGGA,063852,4940.9174,N,01052.7273,E,1,05,1.70,292.9,M,47.453,M,,*7F
$GPRMC,063852,A,4940.9174,N,01052.7273,E,0.0000,0.000,190707,,*2A
$GPGSA,A,3,13,11,04,23,20,,,,,,,,2.8,1.7,2.2*3B
$PGRME,0.00,M,0.00,M,10.79,M*21
$GPGSV,3,1,11,17,20,240,00,31,20,042,00,13,52,221,29,11,15,160,21*70
$GPGSV,3,2,11,04,40,302,45,25,12,176,00,23,82,173,34,01,08,050,00*79
$GPGSV,3,3,11,02,06,316,00,20,57,090,33,35,07,250,00*46
$GPGGA,063853,4940.9174,N,01052.7273,E,1,06,1.70,292.9,M,47.453,M,,*7D
$GPRMC,063853,A,4940.9174,N,01052.7273,E,0.0000,0.000,190707,,*2B
$GPGSA,A,3,13,11,04,23,20,35,,,,,,,2.8,1.7,2.2*3D
$PGRME,0.00,M,0.00,M,10.79,M*21
$GPGSV,3,1,11,17,20,240,00,31,20,042,00,13,52,221,31,11,15,160,17*7C
$GPGSV,3,2,11,04,40,302,44,25,12,176,00,23,82,173,36,01,08,050,00*7A
$GPGSV,3,3,11,02,06,316,00,20,57,090,35,35,07,250,00*40
$GPGGA,063854,4940.9174,N,01052.7273,E,1,05,1.70,292.9,M,47.453,M,,*79
$GPRMC,063854,A,4940.9174,N,01052.7273,E,0.0000,0.000,190707,,*2C
$GPGSA,A,3,13,11,04,23,20,,,,,,,,2.8,1.7,2.2*3B
$PGRME,0.00,M,0.00,M,10.79,M*21
$GPGSV,3,1,11,17,20,240,00,31,20,042,00,13,52,221,27,11,15,160,16*7A
$GPGSV,3,2,11,04,40,302,42,25,12,176,00,23,82,173,35,01,08,050,00*7F
$GPGSV,3,3,11,02,06,316,00,20,57,090,33,35,07,250,00*46
$GPGGA,063855,4940.9174,N,01052.7273,E,1,06,1.70,292.9,M,47.453,M,,*7B
$GPRMC,063855,A,4940.9174,N,01052.7273,E,0.0000,0.000,190707,,*2D
$GPGSA,A,3,13,11,04,23,20,35,,,,,,,2.8,1.7,2.2*3D
$PGRME,0.00,M,0.00,M,10.79,M*21
$GPGSV,3,1,11,17,20,240,00,31,20,042,00,13,52,221,27,11,15,160,16*7A
$GPGSV,3,2,11,04,40,302,40,25,12,176,00,23,82,173,35,01,08,050,00*7D
$GPGSV,3,3,11,02,06,316,00,20,57,090,32,35,07,250,00*47
$GPGGA,063856,4940.9170,N,01052.7273,E,1,05,1.70,292.1,M,47.453,M,,*77
$GPRMC,063856,A,4940.9170,N,01052.7273,E,0.0000,0.000,190707,,*2A
$GPGSA,A,3,13,11,04,23,20,,,,,,,,2.8,1.7,2.2*3B
$PGRME,0.00,M,0.00,M,10.79,M*21
$GPGSV,3,1,11,17,20,240,00,31,20,042,00,13,52,221,28,11,15,160,16*75
$GPGSV,3,2,11,04,40,302,41,25,12,176,00,23,82,173,37,01,08,050,00*7E
$GPGSV,3,3,11,02,06,316,00,20,57,090,31,35,07,250,00*44
$GPGGA,063857,4940.9170,N,01052.7273,E,1,05,1.70,292.1,M,47.453,M,,*76
$GPRMC,063857,A,4940.9170,N,01052.7273,E,0.0000,0.000,190707,,*2B
$GPGSA,A,3,13,11,04,23,20,,,,,,,,2.8,1.7,2.2*3B
$PGRME,0.00,M,0.00,M,10.79,M*21
$GPGSV,3,1,11,17,20,240,00,31,20,042,00,13,52,221,27,11,15,160,17*7B
$GPGSV,3,2,11,04,40,302,39,25,12,176,00,23,82,173,35,01,08,050,00*73
$GPGSV,3,3,11,02,06,316,00,20,57,090,31,35,07,250,00*44
$GPGGA,063858,4940.9170,N,01052.7273,E,1,05,1.70,292.1,M,47.453,M,,*79
$GPRMC,063858,A,4940.9170,N,01052.7273,E,0.0000,0.000,190707,,*24
$GPGSA,A,3,13,11,04,23,20,,,,,,,,2.8,1.7,2.2*3B
$PGRME,0.00,M,0.00,M,10.79,M*21
$GPGSV,3,1,11,17,20,240,00,31,20,042,00,13,52,221,26,11,15,160,18*75
$GPGSV,3,2,11,04,40,302,38,25,12,176,00,23,82,173,35,01,08,050,00*72
$GPGSV,3,3,11,02,06,316,00,20,57,090,32,35,07,250,00*47
$GPGGA,063859,4940.9170,N,01052.7273,E,1,06,1.70,292.1,M,47.453,M,,*7B
$GPRMC,063859,A,4940.9170,N,01052.7273,E,0.0000,0.000,190707,,*25
$GPGSA,A,3,13,11,04,23,20,35,,,,,,,2.8,1.7,2.2*3D
$PGRME,0.00,M,0.00,M,10.79,M*21
$GPGSV,3,1,11,17,20,239,00,31,20,042,00,13,52,221,27,11,15,160,19*7B
$GPGSV,3,2,11,04,40,302,38,25,12,176,00,23,82,173,35,01,08,050,00*72
$GPGSV,3,3,11,02,06,316,00,20,57,090,34,35,07,250,00*41
$GPGGA,063900,4940.9166,N,01052.7272,E,1,05,1.70,292.8,M,47.453,M,,*7A
$GPRMC,063900,A,4940.9166,N,01052.7272,E,0.9117,228.489,190707,,*2D
$GPGSA,A,3,13,11,04,23,20,,,,,,,,2.8,1.7,2.2*3B
$PGRME,0.00,M,0.00,M,10.79,M*21
$GPGSV,3,1,11,17,20,239,00,31,20,042,00,13,52,221,24,11,15,160,21*73
$GPGSV,3,2,11,04,40,302,38,25,12,176,00,23,82,173,35,01,08,050,00*72
$GPGSV,3,3,11,02,06,316,00,20,57,090,31,35,07,250,00*44
$GPGGA,063901,4940.9166,N,01052.7272,E,1,06,1.70,292.8,M,47.453,M,,*78
$GPRMC,063901,A,4940.9166,N,01052.7272,E,2.0386,223.455,190707,,*27
$GPGSA,A,3,13,11,04,23,20,35,,,,,,,6.4,2.4,6.0*33
$PGRME,0.00,M,0.00,M,10.79,M*21
$GPGSV,3,1,11,17,20,239,00,31,20,042,00,13,52,221,24,11,15,160,13*72
$GPGSV,3,2,11,04,40,302,39,25,12,176,00,23,82,173,40,01,08,050,00*71
$GPGSV,3,3,11,02,06,316,00,20,57,090,25,35,07,250,00*41
$GPGGA,063902,4940.9166,N,01052.7272,E,1,05,2.40,292.8,M,47.453,M,,*78
$GPRMC,063902,A,4940.9166,N,01052.7272,E,2.6127,230.346,190707,,*2C
$GPGSA,A,3,13,04,23,20,35,,,,,,,,2.8,1.7,2.2*3D
$PGRME,0.00,M,0.00,M,24.66,M*28
$GPGSV,3,1,11,17,20,239,00,31,20,042,00,13,52,221,25,11,15,160,16*76
$GPGSV,3,2,11,04,40,302,29,25,12,176,00,23,82,173,41,01,08,050,00*71
$GPGSV,3,3,11,02,06,316,00,20,57,090,22,35,07,250,00*46
$GPGGA,063903,4940.9163,N,01052.7263,E,1,06,1.70,291.9,M,47.453,M,,*7D
$GPRMC,063903,A,4940.9163,N,01052.7263,E,3.5631,249.978,190707,,*23
$GPGSA,A,3,13,11,04,23,20,35,,,,,,,2.3,2.1,0.9*3A
$PGRME,0.00,M,0.00,M,10.79,M*21
$GPGSV,3,1,11,17,20,239,00,31,20,042,00,13,52,221,24,11,15,160,22*70
$GPGSV,3,2,11,04,40,302,17,25,12,176,00,23,82,173,42,01,08,050,00*7F
$GPGSV,3,3,11,02,06,316,00,20,57,090,30,35,07,250,00*45
$GPGGA,063904,4940.9156,N,01052.7252,E,1,04,2.10,293.0,M,47.453,M,,*72
$GPRMC,063904,A,4940.9156,N,01052.7252,E,3.2613,250.593,190707,,*26
$GPGSA,A,3,13,11,23,20,,,,,,,,,2.8,1.7,2.2*3F
$PGRME,0.00,M,0.00,M,8.86,M*18
$GPGSV,3,1,11,17,20,239,00,31,20,042,00,13,52,221,28,11,15,160,19*74
$GPGSV,3,2,11,04,40,302,18,25,12,176,00,23,82,173,39,01,08,050,00*7C
$GPGSV,3,3,11,02,06,316,00,20,57,090,32,35,07,250,00*47
$GPGGA,063905,4940.9150,N,01052.7234,E,1,05,1.70,292.7,M,47.453,M,,*77
$GPRMC,063905,A,4940.9150,N,01052.7234,E,1.9515,281.993,190707,,*2D
$GPGSA,A,3,13,11,04,23,20,,,,,,,,6.4,2.4,6.0*35
$PGRME,0.00,M,0.00,M,10.79,M*21
$GPGSV,3,1,11,17,20,239,00,31,20,042,00,13,52,221,31,11,15,160,13*76
$GPGSV,3,2,11,04,40,302,21,25,12,176,00,23,82,173,44,01,08,050,00*7C
$GPGSV,3,3,11,02,06,316,00,20,57,090,39,35,07,250,00*4C
$GPGGA,063906,4940.9142,N,01052.7242,E,1,04,2.40,291.3,M,47.453,M,,*70
$GPRMC,063906,A,4940.9142,N,01052.7242,E,0.6430,123.535,190707,,*2F
$GPGSA,A,3,13,04,23,20,,,,,,,,,6.4,2.4,6.0*35
$PGRME,0.00,M,0.00,M,24.66,M*28
$GPGSV,3,1,11,17,20,239,00,31,20,042,00,13,52,221,32,11,15,160,10*76
$GPGSV,3,2,11,04,40,302,22,25,12,176,00,23,82,173,44,01,08,050,00*7F
$GPGSV,3,3,11,02,06,316,00,20,57,090,39,35,07,250,00*4C
$GPGGA,063907,4940.9135,N,01052.7251,E,1,05,2.40,289.9,M,47.453,M,,*71
$GPRMC,063907,A,4940.9135,N,01052.7251,E,3.7577,126.387,190707,,*26
$GPGSA,A,3,13,04,23,20,35,,,,,,,,6.4,2.4,6.0*33
$PGRME,0.00,M,0.00,M,24.66,M*28
$GPGSV,3,1,11,17,20,239,00,31,20,042,00,13,52,221,28,11,15,160,08*74
$GPGSV,3,2,11,04,40,302,25,25,12,176,00,23,82,173,43,01,08,050,00*7F
$GPGSV,3,3,11,02,06,316,00,20,57,090,39,35,07,250,00*4C
$GPGGA,063908,4940.9118,N,01052.7264,E,1,04,2.40,289.8,M,47.453,M,,*77
$GPRMC,063908,A,4940.9118,N,01052.7264,E,8.1058,135.556,190707,,*2D
$GPGSA,A,3,13,04,23,20,,,,,,,,,2.8,1.7,2.2*3B
$PGRME,0.00,M,0.00,M,24.66,M*28
$GPGSV,3,1,11,17,20,239,00,31,20,042,00,13,52,221,24,11,15,160,16*77
$GPGSV,3,2,11,04,40,302,25,25,12,176,00,23,82,173,39,01,08,050,00*72
$GPGSV,3,3,11,02,06,316,00,20,57,090,34,35,07,250,00*41
$GPGGA,063909,4940.9101,N,01052.7285,E,1,05,1.70,290.0,M,47.453,M,,*70
$GPRMC,063909,A,4940.9101,N,01052.7285,E,9.5801,139.232,190707,,*23
$GPGSA,A,3,13,11,04,23,20,,,,,,,,2.3,2.1,0.9*3C
$PGRME,0.00,M,0.00,M,10.79,M*21
$GPGSV,3,1,11,17,20,239,00,31,20,042,00,13,52,221,24,11,15,160,17*76
$GPGSV,3,2,11,04,40,302,16,25,12,176,00,23,82,173,38,01,08,050,00*73
$GPGSV,3,3,11,02,06,316,00,20,57,090,33,35,07,250,00*46
$GPGGA,063910,4940.9076,N,01052.7305,E,1,04,2.10,289.9,M,47.453,M,,*75
$GPRMC,063910,A,4940.9076,N,01052.7305,E,10.4461,140.549,190707,,*15
$GPGSA,A,3,13,11,23,20,,,,,,,,,2.8,1.7,2.2*3F
$PGRME,0.00,M,0.00,M,8.86,M*18
$GPGSV,3,1,11,17,20,239,00,31,20,042,00,13,52,221,35,11,15,160,16*77
$GPGSV,3,2,11,04,40,302,15,25,12,176,00,23,82,173,38,01,08,050,00*70
$GPGSV,3,3,11,02,06,316,00,20,57,090,32,35,07,250,00*47
$GPGGA,063911,4940.9050,N,01052.7333,E,1,05,1.70,290.0,M,47.453,M,,*70
$GPRMC,063911,A,4940.9050,N,01052.7333,E,11.9351,140.679,190707,,*1D
$GPGSA,A,3,13,11,04,23,20,,,,,,,,2.8,1.7,2.2*3B
$PGRME,0.00,M,0.00,M,10.79,M*21
$GPGSV,3,1,11,17,20,239,00,31,20,042,00,13,52,221,40,11,15,160,15*76
$GPGSV,3,2,11,04,40,302,15,25,12,176,00,23,82,173,38,01,08,050,00*70
$GPGSV,3,3,11,02,06,316,00,20,57,090,32,35,07,250,00*47
$GPGGA,063912,4940.9024,N,01052.7369,E,1,05,1.70,290.3,M,47.453,M,,*7C
$GPRMC,063912,A,4940.9024,N,01052.7369,E,12.4964,140.959,190707,,*1D
$GPGSA,A,3,13,11,04,23,20,,,,,,,,2.8,1.7,2.2*3B
$PGRME,0.00,M,0.00,M,10.79,M*21
$GPGSV,3,1,11,17,20,239,00,31,20,042,00,13,52,221,34,11,15,160,12*72
$GPGSV,3,2,11,04,40,302,17,25,12,176,00,23,82,173,39,01,08,050,00*73
$GPGSV,3,3,11,02,06,316,00,20,57,090,29,35,07,250,00*4D
$GPGGA,063913,4940.8990,N,01052.7404,E,1,06,1.70,290.4,M,47.453,M,,*72
$GPRMC,063913,A,4940.8990,N,01052.7404,E,12.9761,140.505,190707,,*14
$GPGSA,A,3,13,11,04,23,20,35,,,,,,,6.4,2.4,6.0*33
$PGRME,0.00,M,0.00,M,10.79,M*21
$GPGSV,3,1,11,17,20,239,00,31,20,042,00,13,52,221,31,11,15,160,09*7D
$GPGSV,3,2,11,04,40,302,16,25,12,176,00,23,82,173,40,01,08,050,00*7C
$GPGSV,3,3,11,02,06,316,00,20,57,090,29,33,07,250,00*4B
$GPGGA,063914,4940.8955,N,01052.7448,E,1,05,2.40,289.2,M,47.453,M,,*79
$GPRMC,063914,A,4940.8955,N,01052.7448,E,14.3463,140.645,190707,,*18
$GPGSA,A,3,13,04,23,20,33,,,,,,,,6.4,2.4,6.0*35
$PGRME,0.00,M,0.00,M,24.66,M*28
$GPGSV,3,1,11,17,20,239,00,31,20,042,00,13,52,221,31,11,15,160,06*72
$GPGSV,3,2,11,04,40,302,15,25,12,176,00,23,82,173,39,01,08,050,00*71
$GPGSV,3,3,11,02,06,316,00,20,57,090,31,33,07,250,00*42
$GPGGA,063915,4940.8924,N,01052.7489,E,1,04,2.40,291.6,M,47.453,M,,*7F
$GPRMC,063915,A,4940.8924,N,01052.7489,E,15.2823,140.353,190707,,*18
$GPGSA,A,2,13,04,23,20,,,,,,,,,4.7,4.6,1.0*36
$PGRME,0.00,M,0.00,M,24.66,M*28
$GPGSV,3,1,11,17,20,239,00,31,20,042,00,13,52,221,17,11,15,160,04*74
$GPGSV,3,2,11,04,40,302,14,25,12,176,00,23,82,173,40,01,08,050,00*7E
$GPGSV,3,3,11,02,06,316,00,20,57,090,31,33,07,250,00*42
$GPGGA,063916,4940.8889,N,01052.7532,E,1,04,4.60,291.8,M,47.453,M,,*71
$GPRMC,063916,A,4940.8889,N,01052.7532,E,15.2823,140.353,190707,,*1C
$GPGSA,A,2,04,23,20,33,,,,,,,,,4.7,4.6,1.0*34
$PGRME,0.00,M,0.00,M,18.11,M*27
$GPGSV,3,1,11,17,20,239,00,31,20,042,00,13,52,221,11,11,15,160,00*76
$GPGSV,3,2,11,04,40,302,14,25,12,176,00,23,82,173,40,01,08,050,00*7E
$GPGSV,3,3,11,02,06,316,00,20,57,090,29,33,07,250,00*4B
$GPGGA,063917,4940.8858,N,01052.7576,E,1,03,4.60,291.4,M,47.453,M,,*77
$GPRMC,063917,A,4940.8858,N,01052.7576,E,15.2823,140.353,190707,,*11
$GPGSA,A,2,04,23,20,,,,,,,,,,10.1,10.0,1.0*34
$PGRME,0.00,M,0.00,M,18.11,M*27
$GPGSV,3,1,11,17,20,239,00,31,20,042,00,13,52,221,21,11,15,160,00*75
$GPGSV,3,2,11,04,40,302,09,25,12,176,00,23,82,173,39,01,08,050,00*7C
$GPGSV,3,3,11,02,06,316,00,20,57,090,32,33,07,250,00*41
$GPGGA,063918,4940.8824,N,01052.7622,E,1,00,10.00,288.8,M,47.453,M,,*45
$GPRMC,063918,A,4940.8824,N,01052.7622,E,13.4488,138.152,190707,,*16
$GPGSA,A,3,,,,,,,,,,,,,6.4,2.4,6.0*30
$PGRME,0.00,M,0.00,M,38.92,M*2E
$GPGSV,3,1,11,17,20,239,00,31,20,042,00,13,52,221,18,11,15,160,00*7F
$GPGSV,3,2,11,04,40,302,11,25,12,176,00,23,82,173,40,01,08,050,00*7B
$GPGSV,3,3,11,02,06,316,00,20,57,090,34,33,07,250,00*47
$GPGGA,063919,4940.8794,N,01052.7658,E,1,04,2.40,288.3,M,47.453,M,,*75
$GPRMC,063919,A,4940.8794,N,01052.7658,E,14.3933,139.810,190707,,*1D
$GPGSA,A,3,13,04,23,20,,,,,,,,,6.4,2.4,6.0*35
$PGRME,0.00,M,0.00,M,24.66,M*28
$GPGSV,3,1,11,17,20,239,00,31,20,042,00,13,52,221,24,11,15,160,00*70
$GPGSV,3,2,11,04,40,302,13,25,12,176,00,23,82,173,40,01,08,050,00*79
$GPGSV,3,3,11,02,06,316,00,20,57,090,33,33,07,250,00*40
$GPGGA,063920,4940.8760,N,01052.7692,E,1,04,2.40,288.4,M,47.453,M,,*75
$GPRMC,063920,A,4940.8760,N,01052.7692,E,11.2775,139.964,190707,,*10
$GPGSA,A,3,13,04,23,20,,,,,,,,,6.4,2.4,6.0*35
$PGRME,0.00,M,0.00,M,24.66,M*28
$GPGSV,3,1,11,17,20,239,00,31,20,042,00,13,52,221,28,11,15,160,08*74
$GPGSV,3,2,11,04,40,302,16,25,12,176,00,23,82,173,38,01,08,050,00*73
$GPGSV,3,3,11,02,06,316,00,20,57,090,32,33,07,250,00*41
$GPGGA,063921,4940.8743,N,01052.7714,E,1,04,2.40,288.5,M,47.453,M,,*7B
$GPRMC,063921,A,4940.8743,N,01052.7714,E,6.8719,147.851,190707,,*27
$GPGSA,A,3,13,04,23,20,,,,,,,,,6.4,2.4,6.0*35
$PGRME,0.00,M,0.00,M,24.66,M*28
$GPGSV,3,1,11,17,20,239,00,31,20,042,00,13,52,221,33,11,15,160,06*70
$GPGSV,3,2,11,04,40,302,18,25,12,176,00,23,82,173,39,01,08,050,00*7C
$GPGSV,3,3,11,02,06,316,00,20,57,090,29,33,07,250,00*4B
$GPGGA,063922,4940.8726,N,01052.7727,E,1,04,2.40,288.5,M,47.453,M,,*7B
$GPRMC,063922,A,4940.8726,N,01052.7727,E,4.9463,165.380,190707,,*2D
$GPGSA,A,3,13,04,23,20,,,,,,,,,6.4,2.4,6.0*35
$PGRME,0.00,M,0.00,M,24.66,M*28
$GPGSV,3,1,11,17,20,239,00,31,20,042,00,13,52,221,30,11,15,160,04*71
$GPGSV,3,2,11,04,40,302,23,25,12,176,00,23,82,173,39,01,08,050,00*74
$GPGSV,3,3,11,02,06,316,00,20,57,090,31,33,07,250,00*42
$GPGGA,063923,4940.8711,N,01052.7724,E,1,04,2.40,288.3,M,47.453,M,,*7B
$GPRMC,063923,A,4940.8711,N,01052.7724,E,6.8568,180.609,190707,,*2D
$GPGSA,A,3,13,04,23,20,,,,,,,,,6.4,2.4,6.0*35
$PGRME,0.00,M,0.00,M,24.66,M*28
$GPGSV,3,1,11,17,20,239,00,31,20,042,00,13,52,221,35,11,15,160,04*74
$GPGSV,3,2,11,04,40,302,17,25,12,176,00,23,82,173,42,01,08,050,00*7F
$GPGSV,3,3,11,02,06,316,00,20,57,090,39,33,07,250,00*4A
$GPGGA,063924,4940.8687,N,01052.7724,E,1,04,2.40,290.8,M,47.453,M,,*70
$GPRMC,063924,A,4940.8687,N,01052.7724,E,6.8568,180.609,190707,,*24
$GPGSA,A,2,13,04,23,20,,,,,,,,,10.0,10.0,1.0*37
$PGRME,0.00,M,0.00,M,24.66,M*28
$GPGSV,3,1,11,17,20,239,00,31,20,042,00,13,52,221,36,11,15,160,05*76
$GPGSV,3,2,11,04,40,302,20,25,12,176,00,23,82,173,42,01,08,050,00*7B
$GPGSV,3,3,11,02,06,316,00,20,57,090,39,33,07,250,00*4A
$GPGGA,063925,4940.8662,N,01052.7713,E,1,00,10.00,288.1,M,47.453,M,,*4D
$GPRMC,063925,A,4940.8662,N,01052.7713,E,9.1060,213.187,190707,,*29
$GPGSA,A,3,,,,,,,,,,,,,6.4,2.4,6.0*30
$PGRME,0.00,M,0.00,M,38.53,M*23
$GPGSV,3,1,11,17,20,239,00,31,20,042,00,13,52,221,33,11,15,160,05*73
$GPGSV,3,2,11,04,40,302,21,25,12,176,00,23,82,173,44,01,08,050,00*7C
$GPGSV,3,3,11,02,06,316,00,20,57,090,34,33,07,250,00*47
$GPGGA,063926,4940.8643,N,01052.7689,E,1,04,2.40,291.1,M,47.453,M,,*74
$GPRMC,063926,A,4940.8643,N,01052.7689,E,9.1060,213.187,190707,,*2B
$GPGSA,A,2,13,04,23,20,,,,,,,,,10.0,10.0,0.9*3F
$PGRME,0.00,M,0.00,M,24.66,M*28
$GPGSV,3,1,11,17,20,239,00,31,20,042,00,13,52,221,32,11,15,160,06*71
$GPGSV,3,2,11,04,40,302,17,25,12,176,00,23,82,173,44,01,08,050,00*79
$GPGSV,3,3,11,02,06,316,00,20,57,090,36,33,07,250,00*45
$GPGGA,063927,4940.8613,N,01052.7659,E,1,00,10.00,288.0,M,47.453,M,,*47
$GPRMC,063927,A,4940.8613,N,01052.7659,E,13.4261,220.633,190707,,*17
$GPGSA,A,3,,,,,,,,,,,,,6.4,2.4,6.0*30
$PGRME,0.00,M,0.00,M,38.53,M*23
$GPGSV,3,1,11,17,20,239,00,31,20,042,00,13,52,221,31,11,15,160,08*7C
$GPGSV,3,2,11,04,40,302,16,25,12,176,00,23,82,173,44,01,08,050,00*78
$GPGSV,3,3,11,02,06,316,00,20,57,090,38,33,07,250,00*4B
$GPGGA,063928,4940.8584,N,01052.7626,E,1,04,2.40,289.9,M,47.453,M,,*76
$GPRMC,063928,A,4940.8584,N,01052.7626,E,13.4261,220.633,190707,,*1D
$GPGSA,A,2,13,04,23,20,,,,,,,,,10.0,10.0,0.9*3F
$PGRME,0.00,M,0.00,M,24.66,M*28
$GPGSV,3,1,11,17,20,239,00,31,20,042,00,13,52,221,34,11,15,160,05*74
$GPGSV,3,2,11,04,40,302,12,25,12,176,00,23,82,173,44,01,08,050,00*7C
$GPGSV,3,3,11,02,06,316,00,20,57,090,37,33,07,250,00*44
$GPGGA,063929,4940.8556,N,01052.7585,E,1,00,10.00,290.3,M,47.453,M,,*43
$GPRMC,063929,A,4940.8556,N,01052.7585,E,13.4261,220.633,190707,,*19
$GPGSA,A,2,,,,,,,,,,,,,10.0,10.0,1.0*32
$PGRME,0.00,M,0.00,M,38.53,M*23
$GPGSV,3,1,11,17,20,239,00,31,20,042,00,13,52,221,32,11,15,160,03*74
$GPGSV,3,2,11,04,40,302,07,25,12,176,00,23,82,173,44,01,08,050,00*78
$GPGSV,3,3,11,02,06,316,00,20,57,090,36,33,07,250,00*45
$GPGGA,063930,4940.8529,N,01052.7545,E,1,00,10.00,290.7,M,47.453,M,,*4B
$GPRMC,063930,A,4940.8529,N,01052.7545,E,13.4261,220.633,190707,,*15
$GPGSA,A,2,,,,,,,,,,,,,10.0,10.0,0.9*3A
$PGRME,0.00,M,0.00,M,38.53,M*23
$GPGSV,3,1,11,17,20,239,00,31,20,042,00,13,52,221,35,11,15,160,07*77
$GPGSV,3,2,11,04,40,302,05,25,12,176,00,23,82,173,42,01,08,050,00*7C
$GPGSV,3,3,11,02,06,316,00,20,57,090,32,33,07,250,00*41
$GPGGA,063931,4940.8498,N,01052.7496,E,1,01,10.00,290.3,M,47.453,M,,*4B
$GPRMC,063931,A,4940.8498,N,01052.7496,E,15.5617,237.362,190707,,*15
$GPGSA,A,2,33,,,,,,,,,,,,10.0,9.9,0.9*0B
$PGRME,0.00,M,0.00,M,38.53,M*23
$GPGSV,3,1,11,17,20,239,00,31,20,042,00,13,52,221,32,11,15,160,05*72
$GPGSV,3,2,11,04,40,302,05,25,12,176,00,23,82,173,40,01,08,050,00*7E
$GPGSV,3,3,11,02,06,316,00,20,57,090,28,33,07,250,00*4A
$GPGGA,063932,4940.8473,N,01052.7431,E,1,04,9.90,290.3,M,47.453,M,,*74
$GPRMC,063932,A,4940.8473,N,01052.7431,E,14.1673,239.107,190707,,*16
$GPGSA,A,2,13,23,20,33,,,,,,,,,10.0,9.9,1.0*02
$PGRME,0.00,M,0.00,M,38.53,M*23
$GPGSV,3,1,11,17,20,239,00,31,20,042,00,13,52,221,31,11,15,160,03*77
$GPGSV,3,2,11,04,40,302,04,25,12,176,00,23,82,173,37,01,08,050,00*7F
$GPGSV,3,3,11,02,06,316,00,20,56,090,24,33,07,250,00*47
$GPGGA,063933,4940.8446,N,01052.7382,E,1,03,9.90,290.6,M,47.453,M,,*7E
$GPRMC,063933,A,4940.8446,N,01052.7382,E,12.8500,240.740,190707,,*1D
$GPGSA,A,2,13,23,20,,,,,,,,,,10.0,9.9,0.9*0A
$PGRME,0.00,M,0.00,M,38.53,M*23
$GPGSV,3,1,11,17,20,239,00,31,20,042,00,13,52,221,29,11,15,160,04*79
$GPGSV,3,2,11,04,40,302,03,25,12,176,00,23,82,173,38,01,08,050,00*77
$GPGSV,3,3,11,02,06,316,00,20,56,090,22,33,07,250,00*41
$GPGGA,063934,4940.8415,N,01052.7342,E,1,03,9.90,290.2,M,47.453,M,,*77
$GPRMC,063934,A,4940.8415,N,01052.7342,E,10.9796,229.720,190707,,*17
$GPGSA,A,3,13,23,20,,,,,,,,,,6.4,2.4,5.9*3B
$PGRME,0.00,M,0.00,M,38.53,M*23
$GPGSV,3,1,11,17,20,239,00,31,20,042,00,13,52,221,28,11,15,160,04*78
$GPGSV,3,2,11,04,40,302,09,25,12,176,00,23,82,173,38,01,08,050,00*7D
$GPGSV,3,3,11,02,06,316,00,20,56,090,22,33,07,250,00*41
$GPGGA,063935,4940.8403,N,01052.7304,E,1,05,2.40,290.9,M,47.453,M,,*78
$GPRMC,063935,A,4940.8403,N,01052.7304,E,9.2585,238.561,190707,,*27
$GPGSA,A,3,13,04,23,20,33,,,,,,,,6.4,2.4,5.9*3F
$PGRME,0.00,M,0.00,M,24.66,M*28
$GPGSV,3,1,11,17,20,239,00,31,20,042,00,13,52,221,29,11,15,160,06*7B
$GPGSV,3,2,11,04,40,302,16,25,12,176,00,23,83,171,39,01,08,050,00*71
$GPGSV,3,3,11,02,06,316,00,20,56,090,21,33,07,250,00*42
$GPGGA,063936,4940.8388,N,01052.7249,E,1,05,2.40,291.9,M,47.453,M,,*76
$GPRMC,063936,A,4940.8388,N,01052.7249,E,11.5848,239.956,190707,,*13
$GPGSA,A,3,13,04,23,20,33,,,,,,,,6.4,2.4,5.9*3F
$PGRME,0.00,M,0.00,M,24.66,M*28
$GPGSV,3,1,11,17,20,239,00,31,20,042,00,13,52,221,29,11,15,160,04*79
$GPGSV,3,2,11,04,40,302,22,25,12,176,00,23,83,171,39,01,08,050,00*76
$GPGSV,3,3,11,02,06,316,00,20,56,090,20,33,07,250,00*43
$GPGGA,063937,4940.8369,N,01052.7202,E,1,04,2.40,292.3,M,47.453,M,,*7F
$GPRMC,063937,A,4940.8369,N,01052.7202,E,14.5815,241.409,190707,,*17
$GPGSA,A,3,13,04,23,20,,,,,,,,,6.4,2.4,5.9*3F
$PGRME,0.00,M,0.00,M,24.66,M*28
$GPGSV,3,1,11,17,20,239,00,31,20,042,00,13,52,221,31,11,15,160,03*77
$GPGSV,3,2,11,04,40,302,18,25,12,176,00,23,83,171,38,01,08,050,00*7E
$GPGSV,3,3,11,02,06,316,00,20,56,090,19,33,07,250,00*49
$GPGGA,063938,4940.8344,N,01052.7139,E,1,04,2.40,291.0,M,47.453,M,,*74
$GPRMC,063938,A,4940.8344,N,01052.7139,E,17.1334,246.120,190707,,*1A
$GPGSA,A,2,13,04,23,20,,,,,,,,,10.0,9.9,1.0*06
$PGRME,0.00,M,0.00,M,24.66,M*28
$GPGSV,3,1,11,17,20,239,00,31,20,042,00,13,52,221,31,11,15,160,03*77
$GPGSV,3,2,11,04,40,302,12,25,13,176,00,23,83,171,35,01,08,050,00*78
$GPGSV,3,3,11,02,06,316,00,20,56,090,20,33,07,250,00*43
$GPGGA,063939,4940.8332,N,01052.7060,E,1,03,9.90,290.2,M,47.453,M,,*7B
$GPRMC,063939,A,4940.8332,N,01052.7060,E,17.1334,246.120,190707,,*17
$GPGSA,A,2,13,23,20,,,,,,,,,,9.9,9.9,1.0*33
$PGRME,0.00,M,0.00,M,38.53,M*23
$GPGSV,3,1,11,17,20,239,00,31,20,042,00,13,52,221,29,11,15,160,00*7D
$GPGSV,3,2,11,04,40,302,13,25,13,176,00,23,83,171,33,01,08,050,00*7F
$GPGSV,3,3,11,02,06,316,00,20,56,090,21,33,07,250,00*42
$GPGGA,063940,4940.8307,N,01052.6986,E,1,03,9.90,291.6,M,47.453,M,,*76
$GPRMC,063940,A,4940.8307,N,01052.6986,E,18.6822,242.733,190707,,*1B
$GPGSA,A,3,13,23,20,,,,,,,,,,6.4,2.4,5.9*3B
$PGRME,0.00,M,0.00,M,38.15,M*21
$GPGSV,3,1,11,17,20,239,00,31,20,042,00,13,52,221,26,11,15,160,00*72
$GPGSV,3,2,11,04,40,302,19,25,13,176,00,23,83,171,30,01,08,050,00*76
$GPGSV,3,3,11,02,06,316,00,20,56,090,21,33,07,250,00*42
$GPGGA,063941,4940.8279,N,01052.6913,E,1,04,2.40,290.7,M,47.453,M,,*72
$GPRMC,063941,A,4940.8279,N,01052.6913,E,20.3503,242.734,190707,,*19
$GPGSA,A,3,13,04,23,20,,,,,,,,,6.4,2.4,5.9*3F
$PGRME,0.00,M,0.00,M,24.66,M*28
$GPGSV,3,1,11,17,20,239,00,31,20,042,00,13,52,221,23,11,15,160,00*77
$GPGSV,3,2,11,04,40,302,21,25,13,176,00,23,83,171,28,01,08,050,00*74
$GPGSV,3,3,11,02,06,316,00,20,56,090,22,33,07,250,00*41
$GPGGA,063942,4940.8255,N,01052.6831,E,1,04,2.40,290.5,M,47.454,M,,*7B
$GPRMC,063942,A,4940.8255,N,01052.6831,E,21.2525,243.646,190707,,*14
$GPGSA,A,3,13,04,23,20,,,,,,,,,6.4,2.4,5.9*3F
$PGRME,0.00,M,0.00,M,24.66,M*28
$GPGSV,3,1,11,17,20,239,00,31,20,042,00,13,52,221,18,11,15,160,00*7F
$GPGSV,3,2,11,04,40,302,15,25,13,176,00,23,83,171,26,01,08,050,00*7D
$GPGSV,3,3,11,02,06,316,00,20,56,090,22,33,07,250,00*41
$GPGGA,063943,4940.8227,N,01052.6748,E,1,04,2.40,290.9,M,47.454,M,,*72
$GPRMC,063943,A,4940.8227,N,01052.6748,E,21.0525,243.350,190707,,*11
$GPGSA,A,2,13,04,23,20,,,,,,,,,4.8,4.7,0.9*30
$PGRME,0.00,M,0.00,M,24.66,M*28
$GPGSV,3,1,11,17,20,239,00,31,20,042,00,13,52,221,13,11,15,160,00*74
$GPGSV,3,2,11,04,40,302,20,25,13,176,00,23,83,171,25,01,08,050,00*78
$GPGSV,3,3,11,02,06,316,00,20,56,090,21,33,07,250,00*42
$GPGGA,063944,4940.8208,N,01052.6669,E,1,04,4.70,290.1,M,47.454,M,,*77
$GPRMC,063944,A,4940.8208,N,01052.6669,E,19.9160,247.264,190707,,*1C
$GPGSA,A,3,04,23,20,33,,,,,,,,,6.4,2.4,5.9*3D
$PGRME,0.00,M,0.00,M,18.49,M*2A
$GPGSV,3,1,11,17,20,239,00,31,20,041,00,13,52,221,15,11,15,160,00*71
$GPGSV,3,2,11,04,40,302,25,25,13,176,00,23,83,171,25,01,08,050,00*7D
$GPGSV,3,3,11,02,06,316,00,20,56,090,20,33,07,250,00*43
$GPGGA,063945,4940.8188,N,01052.6587,E,1,04,2.40,290.6,M,47.454,M,,*7C
$GPRMC,063945,A,4940.8188,N,01052.6587,E,19.8525,253.819,190707,,*14
$GPGSA,A,3,13,04,23,20,,,,,,,,,6.4,2.4,5.9*3F
$PGRME,0.00,M,0.00,M,24.66,M*28
$GPGSV,3,1,11,17,20,239,00,31,20,041,00,13,52,221,22,11,15,160,00*75
$GPGSV,3,2,11,04,40,302,22,25,13,176,00,23,83,171,24,01,07,050,00*74
$GPGSV,3,3,11,02,06,316,00,20,56,090,18,33,07,250,00*48
$GPGGA,063946,4940.8176,N,01052.6501,E,1,04,2.40,289.8,M,47.454,M,,*76
$GPRMC,063946,A,4940.8176,N,01052.6501,E,19.7254,263.046,190707,,*17
$GPGSA,A,3,13,04,23,20,,,,,,,,,6.4,2.4,5.9*3F
$PGRME,0.00,M,0.00,M,24.66,M*28
$GPGSV,3,1,11,17,20,239,00,31,20,041,00,13,52,221,29,11,15,160,04*7A
$GPGSV,3,2,11,04,40,302,21,25,13,176,00,23,83,171,23,01,07,050,00*70
$GPGSV,3,3,11,02,07,316,00,20,56,090,14,33,07,250,00*45
$GPGGA,063947,4940.8176,N,01052.6416,E,1,04,2.40,289.8,M,47.454,M,,*70
$GPRMC,063947,A,4940.8176,N,01052.6416,E,19.6730,268.796,190707,,*16
$GPGSA,A,3,13,04,23,20,,,,,,,,,2.8,1.7,2.2*3B
$PGRME,0.00,M,0.00,M,24.66,M*28
$GPGSV,3,1,11,17,20,239,00,31,20,041,00,13,52,221,28,11,15,160,13*7D
$GPGSV,3,2,11,04,40,302,22,25,13,176,00,23,83,171,21,01,07,050,00*71
$GPGSV,3,3,11,02,07,316,00,20,56,090,12,33,07,250,00*43
$GPGGA,063948,4940.8172,N,01052.6330,E,1,05,1.70,290.5,M,47.454,M,,*7C
$GPRMC,063948,A,4940.8172,N,01052.6330,E,18.5368,267.814,190707,,*1F
$GPGSA,A,3,13,11,04,23,20,,,,,,,,2.8,1.7,2.2*3B
$PGRME,0.00,M,0.00,M,10.79,M*21
$GPGSV,3,1,11,17,20,239,00,31,20,041,00,13,52,221,27,11,15,160,19*78
$GPGSV,3,2,11,04,40,302,24,25,13,176,00,23,83,171,21,01,07,050,00*77
$GPGSV,3,3,11,02,07,316,00,20,56,090,11,33,07,250,00*40
$GPGGA,063949,4940.8167,N,01052.6252,E,1,06,1.70,291.3,M,47.454,M,,*78
$GPRMC,063949,A,4940.8167,N,01052.6252,E,15.7125,268.117,190707,,*1E
$GPGSA,A,3,13,11,04,23,20,33,,,,,,,2.8,1.7,2.2*3B
$PGRME,0.00,M,0.00,M,10.79,M*21
$GPGSV,3,1,11,17,20,239,00,31,20,041,00,13,52,221,27,11,15,160,16*77
$GPGSV,3,2,11,04,40,302,25,25,13,176,00,23,83,171,23,01,07,050,00*74
$GPGSV,3,3,11,02,07,316,00,20,56,090,12,33,07,250,00*43
$GPGGA,063950,4940.8167,N,01052.6191,E,1,05,1.70,292.5,M,47.454,M,,*7A
$GPRMC,063950,A,4940.8167,N,01052.6191,E,11.7080,268.297,190707,,*1B
$GPGSA,A,3,13,11,04,23,20,,,,,,,,6.4,2.4,5.9*3F
$PGRME,0.00,M,0.00,M,10.79,M*21
$GPGSV,3,1,11,17,20,239,00,31,20,041,00,13,52,221,29,11,15,160,10*7F
$GPGSV,3,2,11,04,40,302,27,25,13,176,00,23,83,171,26,01,07,050,00*73
$GPGSV,3,3,11,02,07,316,00,20,56,090,13,33,07,250,00*42
$GPGGA,063951,4940.8160,N,01052.6149,E,1,05,2.40,291.0,M,47.454,M,,*7F
$GPRMC,063951,A,4940.8160,N,01052.6149,E,8.0730,258.887,190707,,*23
$GPGSA,A,3,13,04,23,20,33,,,,,,,,6.4,2.4,5.9*3F
$PGRME,0.00,M,0.00,M,24.66,M*28
$GPGSV,3,1,11,17,20,239,00,31,20,041,00,13,52,221,32,11,15,160,08*7C
$GPGSV,3,2,11,04,40,302,26,25,13,176,00,23,83,171,26,01,07,050,00*72
$GPGSV,3,3,11,02,07,316,00,20,56,090,15,33,07,250,00*44
$GPGGA,063952,4940.8159,N,01052.6123,E,1,04,2.40,291.3,M,47.454,M,,*78
$GPRMC,063952,A,4940.8159,N,01052.6123,E,4.2278,236.637,190707,,*2C
$GPGSA,A,3,13,04,23,20,,,,,,,,,2.8,1.7,2.2*3B
$PGRME,0.00,M,0.00,M,24.66,M*28
$GPGSV,3,1,11,17,20,239,00,31,20,041,00,13,52,221,30,11,15,160,12*75
$GPGSV,3,2,11,04,40,302,27,25,13,176,00,23,83,171,22,01,07,050,00*77
$GPGSV,3,3,11,02,07,316,00,20,56,090,18,47,07,250,00*4A
$GPGGA,063953,4940.8155,N,01052.6113,E,1,05,1.70,291.8,M,47.454,M,,*7C
$GPRMC,063953,A,4940.8155,N,01052.6113,E,0.6631,232.847,190707,,*26
$GPGSA,A,3,13,11,04,23,20,,,,,,,,2.8,1.7,2.2*3B
$PGRME,0.00,M,0.00,M,10.79,M*21
$GPGSV,3,1,11,17,20,239,00,31,20,041,00,13,52,221,24,11,15,160,14*76
$GPGSV,3,2,11,04,40,302,27,25,13,176,00,23,83,171,24,01,07,050,00*71
$GPGSV,3,3,11,02,07,316,00,20,56,090,17,47,07,250,00*45
$GPGGA,063954,4940.8155,N,01052.6103,E,1,06,1.70,293.1,M,47.454,M,,*72
$GPRMC,063954,A,4940.8155,N,01052.6103,E,0.0000,0.000,190707,,*2A
$GPGSA,A,3,13,11,04,23,20,47,,,,,,,2.8,1.7,2.2*38
$PGRME,0.00,M,0.00,M,10.79,M*21
$GPGSV,3,1,11,17,20,239,00,31,20,041,00,13,52,221,22,11,15,160,14*70
$GPGSV,3,2,11,04,40,302,26,25,13,176,00,23,83,171,25,01,07,050,00*71
$GPGSV,3,3,11,02,07,316,00,20,56,090,17,47,07,250,00*45
$GPGGA,063955,4940.8151,N,01052.6102,E,1,06,1.70,293.7,M,47.454,M,,*70
$GPRMC,063955,A,4940.8151,N,01052.6102,E,0.5809,231.585,190707,,*22
$GPGSA,A,3,13,11,04,23,20,47,,,,,,,2.8,1.7,2.2*38
$PGRME,0.00,M,0.00,M,10.79,M*21
$GPGSV,3,1,11,17,20,239,00,31,20,041,00,13,52,221,22,11,15,160,14*70
$GPGSV,3,2,11,04,40,302,25,25,13,176,00,23,83,171,22,01,07,050,00*75
$GPGSV,3,3,11,02,07,316,00,20,56,090,15,47,07,250,00*47
$GPGGA,063956,4940.8156,N,01052.6086,E,1,06,1.70,294.2,M,47.454,M,,*7B
$GPRMC,063956,A,4940.8156,N,01052.6086,E,4.1051,216.801,190707,,*2A
$GPGSA,A,3,13,11,04,23,20,47,,,,,,,2.3,2.1,0.9*3F
$PGRME,0.00,M,0.00,M,10.79,M*21
$GPGSV,3,1,11,17,20,239,00,31,20,041,00,13,52,221,29,11,15,160,18*77
$GPGSV,3,2,11,04,40,302,16,25,13,176,26,23,83,171,25,01,07,050,00*76
$GPGSV,3,3,11,02,07,316,00,20,56,090,21,47,07,250,00*40
$GPGGA,063957,4940.8145,N,01052.6073,E,1,04,2.10,296.0,M,47.454,M,,*75
$GPRMC,063957,A,4940.8145,N,01052.6073,E,7.7382,197.439,190707,,*26
$GPGSA,A,3,13,11,23,20,,,,,,,,,2.8,1.7,2.2*3F
$PGRME,0.00,M,0.00,M,8.86,M*18
$GPGSV,3,1,11,17,20,239,00,31,20,041,00,13,53,221,26,11,15,160,13*72
$GPGSV,3,2,11,04,40,302,17,25,13,176,19,23,83,171,33,01,07,050,00*7C
$GPGSV,3,3,11,02,07,316,00,20,56,090,34,47,07,250,00*44
$GPGGA,063958,4940.8130,N,01052.6060,E,1,06,1.70,297.0,M,47.454,M,,*7C
$GPRMC,063958,A,4940.8130,N,01052.6060,E,11.4753,184.433,190707,,*1D
$GPGSA,A,3,13,11,04,23,20,47,,,,,,,2.3,2.1,0.9*3F
$PGRME,0.00,M,0.00,M,10.79,M*21
$GPGSV,3,1,11,17,20,239,00,31,20,041,00,13,53,221,27,11,15,160,21*72
$GPGSV,3,2,11,04,40,302,12,25,13,176,11,23,83,171,36,01,07,050,00*74
$GPGSV,3,3,11,02,07,316,00,20,56,090,26,47,07,250,00*47
$GPGGA,063959,4940.8099,N,01052.6062,E,1,05,2.10,296.6,M,47.454,M,,*7C
$GPRMC,063959,A,4940.8099,N,01052.6062,E,12.8965,172.700,190707,,*12
$GPGSA,A,3,13,11,23,20,47,,,,,,,,3.9,2.7,2.9*34
$PGRME,0.00,M,0.00,M,8.86,M*18
$GPGSV,3,1,11,17,20,239,00,31,20,041,00,13,53,221,14,11,15,160,22*71
$GPGSV,3,2,11,04,40,302,20,25,13,176,06,23,83,171,40,01,07,050,00*72
$GPGSV,3,3,11,02,07,316,00,20,56,090,28,47,07,250,00*49
$GPGGA,064000,4940.8052,N,01052.6077,E,1,05,2.70,296.2,M,47.454,M,,*7F
$GPRMC,064000,A,4940.8052,N,01052.6077,E,16.3592,167.421,190707,,*1C
$GPGSA,A,3,11,04,23,20,47,,,,,,,,6.4,2.4,5.9*3E
$PGRME,0.00,M,0.00,M,15.03,M*29
$GPGSV,3,1,11,17,20,239,00,31,20,041,00,13,53,221,17,11,15,160,13*70
$GPGSV,3,2,11,04,40,302,18,25,13,176,06,23,83,171,43,01,07,050,00*7A
$GPGSV,3,3,11,02,07,316,00,20,56,090,37,47,07,250,00*47
$GPGGA,064001,4940.8003,N,01052.6087,E,1,04,2.40,292.2,M,47.454,M,,*73
$GPRMC,064001,A,4940.8003,N,01052.6087,E,19.0030,168.449,190707,,*16
$GPGSA,A,2,13,04,23,20,,,,,,,,,9.8,9.8,0.9*3F
$PGRME,0.00,M,0.00,M,24.66,M*28
$GPGSV,3,1,11,17,20,239,00,31,20,041,00,13,53,221,18,11,15,160,08*75
$GPGSV,3,2,11,04,40,302,14,25,13,176,00,23,83,171,44,01,07,050,00*77
$GPGSV,3,3,11,02,07,316,00,20,56,090,43,47,07,250,00*44
$GPGGA,064002,4940.7942,N,01052.6104,E,1,03,9.80,295.2,M,47.454,M,,*7E
$GPRMC,064002,A,4940.7942,N,01052.6104,E,23.2408,168.791,190707,,*1E
$GPGSA,A,3,13,23,20,,,,,,,,,,6.4,2.4,5.9*3B
$PGRME,0.00,M,0.00,M,37.76,M*2B
$GPGSV,3,1,11,17,20,239,00,31,20,041,00,13,53,221,20,11,15,160,06*70
$GPGSV,3,2,11,04,40,302,17,25,13,176,00,23,83,171,46,01,07,050,00*76
$GPGSV,3,3,11,02,07,316,00,20,56,090,44,47,07,250,00*43
$GPGGA,064003,4940.7866,N,01052.6127,E,1,05,2.40,296.7,M,47.454,M,,*7E
$GPRMC,064003,A,4940.7866,N,01052.6127,E,25.2591,169.933,190707,,*19
$GPGSA,A,3,13,04,23,20,47,,,,,,,,2.8,1.7,2.2*38
$PGRME,0.00,M,0.00,M,24.66,M*28
$GPGSV,3,1,11,17,20,239,00,31,20,041,00,13,53,221,18,11,15,160,09*74
$GPGSV,3,2,11,04,40,302,19,25,13,176,00,23,83,171,45,01,07,050,00*7B
$GPGSV,3,3,11,02,07,316,00,20,56,090,46,47,07,250,00*41
$GPGGA,064004,4940.7797,N,01052.6162,E,1,05,1.70,297.1,M,47.454,M,,*7E
$GPRMC,064004,A,4940.7797,N,01052.6162,E,26.8282,171.004,190707,,*16
$GPGSA,A,3,13,11,04,23,20,,,,,,,,2.8,1.7,2.2*3B
$PGRME,0.00,M,0.00,M,10.79,M*21
$GPGSV,3,1,11,17,20,239,18,31,20,041,00,13,53,221,18,11,15,160,12*77
$GPGSV,3,2,11,04,40,302,20,25,13,176,00,23,83,171,46,01,07,050,00*72
$GPGSV,3,3,11,02,07,316,00,20,56,090,46,47,07,250,00*41
$GPGGA,064005,4940.7720,N,01052.6186,E,1,05,1.70,298.6,M,47.454,M,,*71
$GPRMC,064005,A,4940.7720,N,01052.6186,E,29.4441,171.779,190707,,*16
$GPGSA,A,3,13,11,04,23,20,,,,,,,,2.8,1.7,2.2*3B
$PGRME,0.00,M,0.00,M,10.79,M*21
$GPGSV,3,1,11,17,20,239,19,31,20,041,00,13,53,221,17,11,15,160,13*78
$GPGSV,3,2,11,04,40,302,22,25,13,176,00,23,83,171,45,01,07,050,00*73
$GPGSV,3,3,11,02,07,316,00,20,56,090,46,47,07,250,00*41
$GPGGA,064006,4940.7641,N,01052.6211,E,1,05,1.70,297.9,M,47.454,M,,*79
$GPRMC,064006,A,4940.7641,N,01052.6211,E,31.8874,172.732,190707,,*1D
$GPGSA,A,3,13,11,04,23,20,,,,,,,,2.8,1.7,2.2*3B
$PGRME,0.00,M,0.00,M,10.79,M*21
$GPGSV,3,1,11,17,20,239,20,31,20,041,00,13,53,221,13,11,15,160,16*73
$GPGSV,3,2,11,04,40,302,24,25,13,176,00,23,83,171,44,01,07,050,00*74
$GPGSV,3,3,11,02,07,316,00,20,56,090,43,47,07,250,00*44
$GPGGA,064007,4940.7554,N,01052.6233,E,1,05,1.70,298.5,M,47.454,M,,*7C
$GPRMC,064007,A,4940.7554,N,01052.6233,E,32.8639,173.941,190707,,*14
$GPGSA,A,3,13,11,04,23,20,,,,,,,,3.9,2.7,2.9*33
$PGRME,0.00,M,0.00,M,10.79,M*21
$GPGSV,3,1,11,17,20,239,19,31,20,041,00,13,53,221,09,11,15,160,18*7C
$GPGSV,3,2,11,04,40,302,24,25,13,176,00,23,83,171,42,01,07,050,00*72
$GPGSV,3,3,11,02,07,316,00,20,56,090,38,47,07,250,00*48
$GPGGA,064008,4940.7455,N,01052.6252,E,1,05,2.70,299.6,M,47.454,M,,*75
$GPRMC,064008,A,4940.7455,N,01052.6252,E,34.3457,175.592,190707,,*1F
$GPGSA,A,3,11,04,23,20,47,,,,,,,,2.8,1.7,2.2*3A
$PGRME,0.00,M,0.00,M,15.03,M*29
$GPGSV,3,1,11,17,20,239,17,31,20,041,00,13,53,221,08,11,15,160,17*7C
$GPGSV,3,2,11,04,40,302,24,25,13,176,00,23,83,171,41,01,07,050,00*71
$GPGSV,3,3,11,02,07,316,00,20,56,090,31,47,07,250,00*41
$GPGGA,064009,4940.7357,N,01052.6272,E,1,06,1.70,299.3,M,47.454,M,,*76
$GPRMC,064009,A,4940.7357,N,01052.6272,E,35.5457,175.053,190707,,*16
$GPGSA,A,3,13,11,04,23,20,47,,,,,,,3.9,2.7,2.9*30
$PGRME,0.00,M,0.00,M,10.79,M*21
$GPGSV,3,1,11,17,20,239,15,31,20,041,00,13,53,221,05,11,15,160,15*71
$GPGSV,3,2,11,04,40,302,23,25,13,176,00,23,83,171,41,01,07,050,00*76
$GPGSV,3,3,11,02,07,316,00,20,56,090,30,47,07,250,00*40
$GPGGA,064010,4940.7259,N,01052.6283,E,1,05,2.70,300.3,M,47.454,M,,*7E
$GPRMC,064010,A,4940.7259,N,01052.6283,E,36.9016,176.469,190707,,*1F
$GPGSA,A,3,11,04,23,20,47,,,,,,,,3.9,2.7,2.9*32
$PGRME,0.00,M,0.00,M,15.03,M*29
$GPGSV,3,1,11,17,20,239,17,31,20,041,00,13,53,221,04,11,15,160,17*70
$GPGSV,3,2,11,04,40,302,17,25,13,176,00,23,83,171,42,01,07,050,00*72
$GPGSV,3,3,11,02,07,316,00,20,56,090,30,47,07,250,00*40
$GPGGA,064011,4940.7154,N,01052.6282,E,1,04,2.70,294.6,M,47.454,M,,*78
$GPRMC,064011,A,4940.7154,N,01052.6282,E,38.2394,179.213,190707,,*19
$GPGSA,A,2,11,04,23,20,,,,,,,,,3.2,3.1,1.0*36
$PGRME,0.00,M,0.00,M,15.03,M*29
$GPGSV,3,1,11,17,20,239,14,31,20,041,00,13,53,221,00,11,15,160,20*73
$GPGSV,3,2,11,04,40,302,10,25,13,176,00,23,83,171,40,01,07,050,00*77
$GPGSV,3,3,11,02,07,316,00,20,56,090,27,47,07,250,00*46
$GPGGA,064012,4940.7045,N,01052.6291,E,1,03,3.10,294.7,M,47.454,M,,*79
$GPRMC,064012,A,4940.7045,N,01052.6291,E,39.6820,180.110,190707,,*1E
$GPGSA,A,2,11,23,20,,,,,,,,,,3.2,3.1,0.9*3A
$PGRME,0.00,M,0.00,M,12.33,M*2D
$GPGSV,3,1,11,17,20,239,14,31,20,041,00,13,53,221,00,11,15,160,23*70
$GPGSV,3,2,11,04,40,302,06,25,13,176,00,23,83,171,39,01,07,050,00*7E
$GPGSV,3,3,11,02,07,316,00,20,56,090,25,47,07,250,00*44
$GPGGA,064013,4940.6936,N,01052.6292,E,1,03,3.10,294.7,M,47.454,M,,*77
$GPRMC,064013,A,4940.6936,N,01052.6292,E,39.6549,180.386,190707,,*1F
$GPGSA,A,2,11,23,20,,,,,,,,,,3.2,3.1,0.9*3A
$PGRME,0.00,M,0.00,M,12.33,M*2D
$GPGSV,3,1,11,17,20,239,11,31,20,041,00,13,53,221,00,11,15,160,26*70
$GPGSV,3,2,11,04,40,302,03,25,13,176,00,23,83,171,37,01,07,050,00*75
$GPGSV,3,3,11,02,07,316,00,20,56,090,22,47,07,250,00*43
$GPGGA,064014,4940.6829,N,01052.6285,E,1,03,3.10,294.6,M,47.454,M,,*78
$GPRMC,064014,A,4940.6829,N,01052.6285,E,39.9974,181.308,190707,,*1B
$GPGSA,A,2,11,23,20,,,,,,,,,,3.2,3.1,1.0*32
$PGRME,0.00,M,0.00,M,12.33,M*2D
$GPGSV,3,1,11,17,20,239,10,31,20,041,00,13,53,221,00,11,15,160,26*71
$GPGSV,3,2,11,04,40,302,00,25,13,176,00,23,83,171,35,01,07,050,00*74
$GPGSV,3,3,11,02,07,316,00,20,56,090,19,47,07,250,00*4B
$GPGGA,064015,4940.6717,N,01052.6276,E,1,03,3.10,295.1,M,47.454,M,,*71
$GPRMC,064015,A,4940.6717,N,01052.6276,E,40.2925,183.033,190707,,*1C
$GPGSA,A,2,11,23,20,,,,,,,,,,3.2,3.1,0.9*3A
$PGRME,0.00,M,0.00,M,12.33,M*2D
$GPGSV,3,1,11,17,20,239,09,31,20,041,00,13,53,221,00,11,15,160,26*79
$GPGSV,3,2,11,04,40,302,00,25,13,176,00,23,83,171,34,01,07,050,00*75
$GPGSV,3,3,11,02,07,316,00,20,56,090,21,47,07,250,00*40
$GPGGA,064016,4940.6603,N,01052.6259,E,1,03,3.10,294.7,M,47.454,M,,*7C
$GPRMC,064016,A,4940.6603,N,01052.6259,E,40.7494,185.307,190707,,*16
$GPGSA,A,2,11,23,20,,,,,,,,,,3.2,3.1,1.0*32
$PGRME,0.00,M,0.00,M,12.33,M*2D
$GPGSV,3,1,11,17,20,239,10,31,20,041,00,13,53,221,11,11,15,160,27*70
$GPGSV,3,2,11,04,40,302,00,25,13,176,00,23,83,171,32,01,07,050,00*73
$GPGSV,3,3,11,02,07,316,00,20,56,090,21,47,07,250,00*40
$GPGGA,064017,4940.6492,N,01052.6242,E,1,03,3.10,295.1,M,47.454,M,,*7A
$GPRMC,064017,A,4940.6492,N,01052.6242,E,40.5798,186.956,190707,,*17
$GPGSA,A,2,11,23,20,,,,,,,,,,3.2,3.1,1.0*32
$PGRME,0.00,M,0.00,M,12.33,M*2D
$GPGSV,3,1,11,17,20,239,14,31,20,041,00,13,53,221,17,11,15,160,24*71
$GPGSV,3,2,11,04,40,302,13,25,13,176,00,23,83,171,33,01,07,050,00*70
$GPGSV,3,3,11,02,07,316,00,20,56,090,22,47,07,250,00*43
$GPGGA,064018,4940.6382,N,01052.6206,E,1,03,3.10,298.0,M,47.454,M,,*7F
$GPRMC,064018,A,4940.6382,N,01052.6206,E,40.1703,188.073,190707,,*18
$GPGSA,A,3,11,23,20,,,,,,,,,,2.3,2.1,0.9*3A
$PGRME,0.00,M,0.00,M,12.33,M*2D
$GPGSV,3,1,11,17,20,239,16,31,20,041,00,13,53,221,20,11,15,160,19*79
$GPGSV,3,2,11,04,40,302,19,25,13,176,00,23,83,171,33,01,07,050,00*7A
$GPGSV,3,3,11,02,07,316,00,20,56,090,23,47,07,250,00*42
$GPGGA,064019,4940.6267,N,01052.6187,E,1,05,2.10,299.0,M,47.454,M,,*78
$GPRMC,064019,A,4940.6267,N,01052.6187,E,37.5572,188.662,190707,,*1F
$GPGSA,A,3,13,11,23,20,47,,,,,,,,2.8,1.7,2.2*3C
$PGRME,0.00,M,0.00,M,8.86,M*18
$GPGSV,3,1,11,17,20,239,18,31,20,041,00,13,53,221,21,11,15,160,16*79
$GPGSV,3,2,11,04,40,302,23,25,13,176,00,23,83,171,33,01,07,050,00*73
$GPGSV,3,3,11,02,07,316,00,20,56,090,26,47,07,250,00*47
$GPGGA,064020,4940.6172,N,01052.6165,E,1,06,1.70,299.5,M,47.454,M,,*7A
$GPRMC,064020,A,4940.6172,N,01052.6165,E,31.7674,189.760,190707,,*1D
$GPGSA,A,3,13,11,04,23,20,47,,,,,,,2.8,1.7,2.2*38
$PGRME,0.00,M,0.00,M,10.79,M*21
$GPGSV,3,1,11,17,20,239,20,31,20,041,00,13,53,221,19,11,15,160,15*7A
$GPGSV,3,2,11,04,40,302,26,25,13,176,00,23,83,171,35,01,07,050,00*70
$GPGSV,3,3,11,02,07,316,00,20,56,090,28,47,07,250,00*49
$GPGGA,064021,4940.6092,N,01052.6146,E,1,05,1.70,300.3,M,47.454,M,,*71
$GPRMC,064021,A,4940.6092,N,01052.6146,E,24.0298,190.183,190707,,*14
$GPGSA,A,3,13,11,04,23,20,,,,,,,,2.8,1.7,2.2*3B
$PGRME,0.00,M,0.00,M,10.79,M*21
$GPGSV,3,1,11,17,20,239,21,31,20,041,00,13,53,221,18,11,15,160,15*7A
$GPGSV,3,2,11,04,40,302,28,25,13,176,00,23,83,171,36,01,07,050,00*7D
$GPGSV,3,3,11,02,07,316,00,20,56,090,29,47,07,250,00*48
$GPGGA,064022,4940.6036,N,01052.6126,E,1,05,1.70,299.9,M,47.454,M,,*71
$GPRMC,064022,A,4940.6036,N,01052.6126,E,15.8837,189.760,190707,,*19
$GPGSA,A,3,13,11,04,23,20,,,,,,,,2.8,1.7,2.2*3B
$PGRME,0.00,M,0.00,M,10.79,M*21
$GPGSV,3,1,11,17,20,239,21,31,20,041,00,13,53,221,16,11,15,160,16*77
$GPGSV,3,2,11,04,40,302,29,25,13,176,00,23,83,171,36,01,07,050,00*7C
$GPGSV,3,3,11,02,07,316,00,20,56,090,30,47,07,250,00*40
$GPGGA,064023,4940.6002,N,01052.6118,E,1,06,1.70,300.0,M,47.454,M,,*71
$GPRMC,064023,A,4940.6002,N,01052.6118,E,9.7683,200.956,190707,,*28
$GPGSA,A,3,13,11,04,23,20,47,,,,,,,2.8,1.7,2.2*38
$PGRME,0.00,M,0.00,M,10.79,M*21
$GPGSV,3,1,11,17,20,239,13,31,20,041,00,13,53,221,18,11,15,160,14*7A
$GPGSV,3,2,11,04,40,302,26,25,13,176,00,23,83,171,37,01,07,050,00*72
$GPGSV,3,3,11,02,07,316,00,20,56,090,36,47,07,250,00*46
$GPGGA,064024,4940.5980,N,01052.6104,E,1,05,1.70,300.9,M,47.454,M,,*71
$GPRMC,064024,A,4940.5980,N,01052.6104,E,6.7191,212.662,190707,,*22
$GPGSA,A,3,13,11,04,23,20,,,,,,,,2.8,1.7,2.2*3B
$PGRME,0.00,M,0.00,M,10.79,M*21
$GPGSV,3,1,11,17,20,239,09,31,20,041,00,13,53,221,19,11,15,160,24*73
$GPGSV,3,2,11,04,40,302,19,25,13,176,17,23,83,171,35,01,07,050,00*7A
$GPGSV,3,3,11,02,07,316,00,20,56,090,35,47,07,250,00*45
$GPGGA,064025,4940.5970,N,01052.6084,E,1,06,1.70,301.2,M,47.454,M,,*7F
$GPRMC,064025,A,4940.5970,N,01052.6084,E,5.3903,214.129,190707,,*2F
$GPGSA,A,3,13,11,04,23,20,47,,,,,,,2.3,2.1,0.9*3F
$PGRME,0.00,M,0.00,M,10.79,M*21
$GPGSV,3,1,11,17,20,239,06,31,20,041,00,13,53,221,21,11,15,160,27*74
$GPGSV,3,2,11,04,40,302,12,25,13,176,18,23,83,171,36,01,07,050,00*7D
$GPGSV,3,3,11,02,07,316,00,20,56,090,33,47,07,250,00*43
$GPGGA,064026,4940.5955,N,01052.6081,E,1,04,2.10,300.9,M,47.454,M,,*73
$GPRMC,064026,A,4940.5955,N,01052.6081,E,5.2187,197.514,190707,,*29
$GPGSA,A,3,13,11,23,20,,,,,,,,,6.4,2.4,5.9*3B
$PGRME,0.00,M,0.00,M,8.86,M*18
$GPGSV,3,1,11,17,20,239,05,31,20,041,00,13,53,221,22,11,15,160,16*76
$GPGSV,3,2,11,04,40,302,16,25,13,176,17,23,83,171,35,01,07,050,00*75
$GPGSV,3,3,11,02,07,316,00,20,56,090,34,47,07,250,00*44
$GPGGA,064027,4940.5948,N,01052.6071,E,1,04,2.40,300.7,M,47.454,M,,*7A
$GPRMC,064027,A,4940.5948,N,01052.6071,E,2.9120,188.694,190707,,*2F
$GPGSA,A,3,13,04,23,20,,,,,,,,,2.8,1.7,2.2*3B
$PGRME,0.00,M,0.00,M,24.66,M*28
$GPGSV,3,1,11,17,20,239,00,31,20,041,00,13,53,221,21,11,15,160,16*70
$GPGSV,3,2,11,04,40,302,21,25,13,176,22,23,83,171,33,01,07,050,00*71
$GPGSV,3,3,11,02,07,316,00,20,56,090,35,47,07,250,00*45
$GPGGA,064028,4940.5940,N,01052.6070,E,1,06,1.70,300.6,M,47.454,M,,*7F
$GPRMC,064028,A,4940.5940,N,01052.6070,E,1.9413,188.694,190707,,*2F
$GPGSA,A,3,13,11,04,23,20,47,,,,,,,2.8,1.7,2.2*38
$PGRME,0.00,M,0.00,M,10.79,M*21
$GPGSV,3,1,11,17,20,239,00,31,20,041,00,13,53,221,24,11,15,160,13*70
$GPGSV,3,2,11,04,40,302,21,25,13,176,23,23,83,171,35,01,07,050,00*76
$GPGSV,3,3,11,02,07,316,00,20,56,090,39,47,07,250,00*49
$GPGGA,064029,4940.5940,N,01052.6070,E,1,05,1.70,300.6,M,47.454,M,,*7D
$GPRMC,064029,A,4940.5940,N,01052.6070,E,1.6428,187.699,190707,,*2B
$GPGSA,A,3,13,11,04,23,20,,,,,,,,2.8,1.7,2.2*3B
$PGRME,0.00,M,0.00,M,10.79,M*21
$GPGSV,3,1,11,17,20,239,00,31,20,041,00,13,53,221,24,11,15,160,12*71
$GPGSV,3,2,11,04,40,302,26,25,13,176,20,23,83,171,36,01,07,050,00*71
$GPGSV,3,3,11,02,07,316,00,20,56,090,37,47,07,250,00*47
$GPGGA,064030,4940.5937,N,01052.6070,E,1,05,1.70,299.8,M,47.454,M,,*7A
$GPRMC,064030,A,4940.5937,N,01052.6070,E,1.6770,182.251,190707,,*28
$GPGSA,A,3,13,11,04,23,20,,,,,,,,2.8,1.7,2.2*3B
$PGRME,0.00,M,0.00,M,10.79,M*21
$GPGSV,3,1,11,17,20,239,00,31,20,041,00,13,53,221,21,11,15,160,18*7E
$GPGSV,3,2,11,04,40,302,24,25,13,176,19,23,83,171,36,01,07,050,00*79
$GPGSV,3,3,11,02,07,316,00,20,56,090,32,47,07,250,00*42
$GPGGA,064031,4940.5938,N,01052.6053,E,1,05,1.70,299.6,M,47.454,M,,*7B
$GPRMC,064031,A,4940.5938,N,01052.6053,E,1.1141,177.728,190707,,*25
$GPGSA,A,3,13,11,04,23,20,,,,,,,,2.8,1.7,2.2*3B
$PGRME,0.00,M,0.00,M,10.79,M*21
$GPGSV,3,1,11,17,20,239,00,31,20,041,00,13,53,221,15,11,15,160,24*76
$GPGSV,3,2,11,04,40,302,19,25,13,176,15,23,83,171,35,01,07,050,00*78
$GPGSV,3,3,11,02,07,316,00,20,56,090,32,47,07,250,00*42
$GPGGA,064032,4940.5939,N,01052.6045,E,1,05,1.70,299.4,M,47.454,M,,*7C
$GPRMC,064032,A,4940.5939,N,01052.6045,E,0.8458,174.515,190707,,*2A
$GPGSA,A,3,13,11,04,23,20,,,,,,,,4.0,2.7,2.9*3D
$PGRME,0.00,M,0.00,M,10.79,M*21
$GPGSV,3,1,11,17,20,239,00,31,20,041,00,13,53,221,08,11,15,160,26*78
$GPGSV,3,2,11,04,40,302,16,25,13,176,12,23,83,171,35,01,07,050,00*70
$GPGSV,3,3,11,02,07,316,00,20,56,090,30,47,07,250,00*40
$GPGGA,064033,4940.5936,N,01052.6047,E,1,04,2.70,297.3,M,47.454,M,,*7B
$GPRMC,064033,A,4940.5936,N,01052.6047,E,0.5826,168.361,190707,,*26
$GPGSA,A,2,11,04,23,20,,,,,,,,,3.2,3.1,1.0*36
$PGRME,0.00,M,0.00,M,15.41,M*2F
$GPGSV,3,1,11,17,20,239,00,31,20,041,00,13,53,221,07,11,15,160,26*77
$GPGSV,3,2,11,04,40,302,10,25,13,176,08,23,83,171,36,01,07,050,00*7E
$GPGSV,3,3,11,02,07,316,00,20,56,091,27,35,07,250,00*42
$GPGGA,064034,4940.5936,N,01052.6037,E,1,04,3.10,298.6,M,47.454,M,,*76
$GPRMC,064034,A,4940.5936,N,01052.6037,E,0.0000,0.000,190707,,*24
$GPGSA,A,3,11,23,20,35,,,,,,,,,2.3,2.1,0.9*3C
$PGRME,0.00,M,0.00,M,12.33,M*2D
$GPGSV,3,1,11,17,20,239,10,31,20,041,00,13,53,221,08,11,15,160,26*79
$GPGSV,3,2,11,04,40,302,06,25,13,176,05,23,83,171,37,01,07,050,00*75
$GPGSV,3,3,11,02,07,316,00,20,56,091,26,35,07,250,00*43
$GPGGA,064035,4940.5933,N,01052.6037,E,1,04,2.10,297.8,M,47.454,M,,*72
$GPRMC,064035,A,4940.5933,N,01052.6037,E,0.0000,0.000,190707,,*20
$GPGSA,A,2,13,11,23,20,,,,,,,,,3.2,3.1,1.0*30
$PGRME,0.00,M,0.00,M,8.86,M*18
$GPGSV,3,1,11,17,20,239,15,31,20,041,00,13,53,221,08,11,15,160,25*7F
$GPGSV,3,2,11,04,40,302,05,25,13,176,03,23,83,171,37,01,07,050,00*70
$GPGSV,3,3,11,02,07,316,00,20,56,091,25,35,07,250,00*40
$GPGGA,064036,4940.5933,N,01052.6037,E,1,03,3.10,297.8,M,47.454,M,,*77
$GPRMC,064036,A,4940.5933,N,01052.6037,E,0.0000,0.000,190707,,*23
$GPGSA,A,2,11,23,20,,,,,,,,,,3.2,3.1,1.0*32
$PGRME,0.00,M,0.00,M,12.33,M*2D
$GPGSV,3,1,11,17,20,239,18,31,20,041,00,13,53,221,07,11,15,160,24*7C
$GPGSV,3,2,11,04,40,302,00,25,13,176,00,23,83,168,36,01,07,050,00*7F
$GPGSV,3,3,11,02,07,316,00,20,56,091,23,35,07,250,00*46
$GPGGA,064037,4940.5936,N,01052.6037,E,1,04,3.10,298.6,M,47.454,M,,*75
$GPRMC,064037,A,4940.5936,N,01052.6037,E,0.0000,0.000,190707,,*27
$GPGSA,A,3,11,23,20,35,,,,,,,,,2.3,2.1,0.9*3C
$PGRME,0.00,M,0.00,M,12.33,M*2D
$GPGSV,3,1,11,17,20,239,17,31,20,041,21,13,53,221,08,11,15,160,25*7E
$GPGSV,3,2,11,04,40,302,00,25,13,176,00,23,83,168,36,01,07,050,00*7F
$GPGSV,3,3,11,02,07,316,00,20,56,091,22,35,07,250,00*47
$GPGGA,064038,4940.5933,N,01052.6037,E,1,05,2.10,297.8,M,47.454,M,,*7E
$GPRMC,064038,A,4940.5933,N,01052.6037,E,0.0000,0.000,190707,,*2D
$GPGSA,A,2,13,11,23,20,35,,,,,,,,3.2,3.1,1.0*36
$PGRME,0.00,M,0.00,M,8.86,M*18
$GPGSV,3,1,11,17,20,239,17,31,20,041,20,13,53,221,08,11,15,160,26*7C
$GPGSV,3,2,11,04,40,302,00,25,13,176,00,23,83,168,36,01,07,050,00*7F
$GPGSV,3,3,11,02,07,316,00,20,56,091,22,35,07,250,00*47
$GPGGA,064039,4940.5933,N,01052.6037,E,1,03,3.10,297.8,M,47.454,M,,*78
$GPRMC,064039,A,4940.5933,N,01052.6037,E,0.0000,0.000,190707,,*2C
$GPGSA,A,2,11,23,20,,,,,,,,,,3.2,3.1,1.0*32
$PGRME,0.00,M,0.00,M,12.33,M*2D
$GPGSV,3,1,11,17,20,239,16,31,20,041,20,13,53,221,09,11,15,160,26*7C
$GPGSV,3,2,11,04,40,302,00,25,13,176,00,23,83,168,35,01,07,050,00*7C
$GPGSV,3,3,11,02,07,316,00,20,56,091,21,35,07,250,00*44
$GPGGA,064040,4940.5933,N,01052.6037,E,1,03,3.10,297.8,M,47.454,M,,*76
$GPRMC,064040,A,4940.5933,N,01052.6037,E,0.0000,0.000,190707,,*22
$GPGSA,A,2,11,23,20,,,,,,,,,,3.2,3.1,0.9*3A
$PGRME,0.00,M,0.00,M,12.33,M*2D
$GPGSV,3,1,11,17,20,239,16,31,20,041,20,13,53,221,09,11,15,160,26*7C
$GPGSV,3,2,11,04,40,302,00,25,13,176,00,23,83,168,35,01,07,050,00*7C
$GPGSV,3,3,11,02,07,316,00,20,56,091,21,35,07,250,00*44
$GPGGA,064041,4940.5933,N,01052.6037,E,1,04,3.10,297.8,M,47.454,M,,*70
$GPRMC,064041,A,4940.5933,N,01052.6037,E,0.0000,0.000,190707,,*23
$GPGSA,A,2,11,23,20,35,,,,,,,,,3.2,3.1,1.0*34
$PGRME,0.00,M,0.00,M,12.33,M*2D
$GPGSV,3,1,11,17,20,239,15,31,20,041,20,13,53,221,07,11,15,160,26*71
$GPGSV,3,2,11,04,40,302,00,25,13,176,00,23,83,168,35,01,07,050,00*7C
$GPGSV,3,3,11,02,07,316,00,20,56,091,20,35,07,250,00*45
$GPGGA,064042,4940.5936,N,01052.6037,E,1,03,3.10,298.6,M,47.454,M,,*70
$GPRMC,064042,A,4940.5936,N,01052.6037,E,0.0000,0.000,190707,,*25
$GPGSA,A,3,11,23,20,,,,,,,,,,2.3,2.1,0.9*3A
$PGRME,0.00,M,0.00,M,12.33,M*2D
$GPGSV,3,1,11,17,20,239,15,31,20,041,21,13,53,221,08,11,15,160,26*7F
$GPGSV,3,2,11,04,40,302,00,25,13,176,00,23,83,168,36,01,07,050,00*7F
$GPGSV,3,3,11,02,07,316,00,20,56,091,20,35,07,250,00*45
$GPGGA,064043,4940.5936,N,01052.6037,E,1,04,2.10,298.6,M,47.454,M,,*77
$GPRMC,064043,A,4940.5936,N,01052.6037,E,0.0000,0.000,190707,,*24
$GPGSA,A,3,13,11,23,20,,,,,,,,,2.3,2.1,0.9*38
$PGRME,0.00,M,0.00,M,8.86,M*18
$GPGSV,3,1,11,17,20,239,15,31,20,041,21,13,53,221,09,11,15,160,26*7E
$GPGSV,3,2,11,04,40,302,00,25,13,176,00,23,83,168,36,01,07,050,00*7F
$GPGSV,3,3,11,02,07,316,00,20,56,091,20,35,07,250,00*45
$GPGGA,064044,4940.5933,N,01052.6037,E,1,05,2.10,297.8,M,47.454,M,,*75
$GPRMC,064044,A,4940.5933,N,01052.6037,E,0.0000,0.000,190707,,*26
$GPGSA,A,2,13,11,23,20,35,,,,,,,,3.2,3.1,1.0*36
$PGRME,0.00,M,0.00,M,8.86,M*18
$GPGSV,3,1,11,17,20,239,15,31,19,041,21,13,53,221,07,11,15,160,28*74
$GPGSV,3,2,11,04,40,302,00,25,13,176,00,23,83,168,36,01,07,050,00*7F
$GPGSV,3,3,11,02,07,316,00,20,56,091,21,35,07,250,00*44
$GPGGA,064045,4940.5933,N,01052.6037,E,1,03,3.10,297.8,M,47.454,M,,*73
$GPRMC,064045,A,4940.5933,N,01052.6037,E,0.0000,0.000,190707,,*27
$GPGSA,A,2,11,23,20,,,,,,,,,,3.2,3.1,0.9*3A
$PGRME,0.00,M,0.00,M,12.33,M*2D
$GPGSV,3,1,11,17,20,239,15,31,19,041,20,13,53,221,07,11,15,160,27*7A
$GPGSV,3,2,11,04,40,302,00,25,13,176,00,23,83,168,36,01,07,050,00*7F
$GPGSV,3,3,11,02,07,316,00,20,56,091,21,35,07,250,00*44
$GPGGA,064046,4940.5937,N,01052.6029,E,1,03,3.10,298.4,M,47.454,M,,*78
$GPRMC,064046,A,4940.5937,N,01052.6029,E,0.2738,7.699,190707,,*20
$GPGSA,A,3,11,23,20,,,,,,,,,,2.3,2.1,0.9*3A
$PGRME,0.00,M,0.00,M,12.33,M*2D
$GPGSV,3,1,11,17,20,239,15,31,19,041,21,13,53,221,08,11,15,160,25*76
$GPGSV,3,2,11,04,40,302,00,25,13,176,00,23,83,168,35,01,07,050,00*7C
$GPGSV,3,3,11,02,07,316,00,20,56,091,22,35,07,250,00*47
$GPGGA,064047,4940.5937,N,01052.6029,E,1,05,2.10,298.4,M,47.454,M,,*7E
$GPRMC,064047,A,4940.5937,N,01052.6029,E,1.7701,27.941,190707,,*17
$GPGSA,A,3,13,11,23,20,35,,,,,,,,2.3,2.1,0.9*3E
$PGRME,0.00,M,0.00,M,8.86,M*18
$GPGSV,3,1,11,17,20,239,17,31,19,041,15,13,53,221,14,11,15,160,21*7A
$GPGSV,3,2,11,04,41,301,00,25,13,176,00,23,83,168,37,01,07,050,00*7C
$GPGSV,3,3,11,02,07,316,00,20,56,091,32,35,07,250,00*46
$GPGGA,064048,4940.5946,N,01052.6024,E,1,04,2.10,297.0,M,47.454,M,,*70
$GPRMC,064048,A,4940.5946,N,01052.6024,E,2.8385,6.679,190707,,*20
$GPGSA,A,3,13,11,23,20,,,,,,,,,2.8,1.7,2.2*3F
$PGRME,0.00,M,0.00,M,8.86,M*18
$GPGSV,3,1,11,17,20,239,20,31,19,041,20,13,53,221,17,11,15,160,16*7F
$GPGSV,3,2,11,04,41,301,19,25,13,176,00,23,83,168,42,01,07,050,00*76
$GPGSV,3,3,11,02,07,316,00,20,56,091,34,35,07,250,00*40
$GPGGA,064049,4940.5955,N,01052.6019,E,1,06,1.70,295.7,M,47.454,M,,*7F
$GPRMC,064049,A,4940.5955,N,01052.6019,E,2.1552,341.111,190707,,*21
$GPGSA,A,3,13,11,04,23,20,35,,,,,,,2.8,1.7,2.2*3D
$PGRME,0.00,M,0.00,M,10.79,M*21
$GPGSV,3,1,11,17,20,239,13,31,19,041,22,13,53,221,24,11,15,160,16*7D
$GPGSV,3,2,11,04,41,301,23,25,13,176,00,23,83,168,42,01,07,050,00*7F
$GPGSV,3,3,11,02,07,316,00,20,56,091,34,35,07,250,00*40
$GPGGA,064050,4940.5961,N,01052.6006,E,1,05,1.70,293.4,M,47.454,M,,*78
$GPRMC,064050,A,4940.5961,N,01052.6006,E,0.4902,308.849,190707,,*27
$GPGSA,A,3,13,11,04,23,20,,,,,,,,2.8,1.7,2.2*3B
$PGRME,0.00,M,0.00,M,10.79,M*21
$GPGSV,3,1,11,17,20,239,08,31,19,041,20,13,53,221,30,11,15,160,13*75
$GPGSV,3,2,11,04,41,301,22,25,13,176,13,23,83,168,42,01,07,050,00*7C
$GPGSV,3,3,11,02,07,316,00,20,56,091,33,35,07,250,00*47
$GPGGA,064051,4940.5970,N,01052.6001,E,1,06,1.70,292.0,M,47.454,M,,*78
$GPRMC,064051,A,4940.5970,N,01052.6001,E,2.1428,105.675,190707,,*2D
$GPGSA,A,3,13,11,04,23,20,35,,,,,,,2.8,1.7,2.2*3D
$PGRME,0.00,M,0.00,M,10.79,M*21
$GPGSV,3,1,11,17,20,239,05,31,19,041,12,13,53,221,32,11,15,160,12*7A
$GPGSV,3,2,11,04,41,301,19,25,13,176,14,23,83,168,43,01,07,050,00*72
$GPGSV,3,3,11,02,07,316,00,20,56,091,33,35,07,250,00*47
$GPGGA,064052,4940.5966,N,01052.6001,E,1,06,1.70,291.2,M,47.454,M,,*7D
$GPRMC,064052,A,4940.5966,N,01052.6001,E,4.0773,82.028,190707,,*13
$GPGSA,A,3,13,11,04,23,20,35,,,,,,,2.3,2.1,0.9*3A
$PGRME,0.00,M,0.00,M,10.79,M*21
$GPGSV,3,1,11,17,20,239,10,31,19,041,14,13,53,221,25,11,15,160,18*74
$GPGSV,3,2,11,04,41,301,10,25,13,176,21,23,83,168,43,01,07,050,00*7D
$GPGSV,3,3,11,02,07,316,00,20,56,091,33,35,07,250,00*47
$GPGGA,064053,4940.5975,N,01052.5995,E,1,04,2.10,289.8,M,47.454,M,,*7D
$GPRMC,064053,A,4940.5975,N,01052.5995,E,6.0937,47.807,190707,,*17
$GPGSA,A,3,13,11,23,20,,,,,,,,,2.8,1.7,2.2*3F
$PGRME,0.00,M,0.00,M,8.86,M*18
$GPGSV,3,1,11,17,20,239,11,31,19,041,21,13,53,221,27,11,15,160,17*7E
$GPGSV,3,2,11,04,41,301,18,25,13,176,13,23,83,168,38,01,07,050,00*78
$GPGSV,3,3,11,02,07,316,00,20,56,091,25,35,07,250,00*40
$GPGGA,064054,4940.5984,N,01052.5990,E,1,05,1.70,288.4,M,47.454,M,,*78
$GPRMC,064054,A,4940.5984,N,01052.5990,E,10.5517,27.690,190707,,*21
$GPGSA,A,3,13,11,04,23,20,,,,,,,,2.8,1.7,2.2*3B
$PGRME,0.00,M,0.00,M,10.79,M*21
$GPGSV,3,1,11,17,20,239,11,31,19,041,14,13,53,221,22,11,14,160,13*78
