$GPGGA,133706,4940.8627,N,01052.7630,E,1,05,2.10,319.9,M,47.453,M,,*71
$GPRMC,133706,A,4940.8627,N,01052.7630,E,0.0000,0.000,050507,,*2C
$GPGSA,A,3,25,13,27,02,04,,,,,,,,7.2,2.1,6.9*3D
$GPGSV,3,1,11,25,59,080,49,13,75,045,49,27,48,180,23,23,43,067,08*77
$GPGSV,3,2,11,02,40,290,18,04,48,233,12,16,14,047,23,08,21,192,47*77
$GPGSV,3,3,11,10,12,299,21,33,07,250,00,20,09,122,00*40
$GPGGA,133707,4940.8627,N,01052.7630,E,1,05,2.10,319.9,M,47.453,M,,*70
$GPRMC,133707,A,4940.8627,N,01052.7630,E,0.0000,0.000,050507,,*2D
$GPGSA,A,3,25,13,27,02,04,,,,,,,,7.2,2.1,6.9*3D
$GPGSV,3,1,11,25,59,080,48,13,75,045,51,27,48,180,24,23,43,067,08*78
$GPGSV,3,2,11,02,40,290,18,04,48,233,13,16,14,047,24,08,21,192,49*7F
$GPGSV,3,3,11,10,12,299,21,33,07,250,00,20,09,122,00*40
$GPGGA,133708,4940.8627,N,01052.7630,E,1,05,2.10,319.9,M,47.453,M,,*7F
$GPRMC,133708,A,4940.8627,N,01052.7630,E,0.0000,0.000,050507,,*22
$GPGSA,A,3,25,13,27,02,04,,,,,,,,7.2,2.1,6.9*3D
$GPGSV,3,1,11,25,59,080,48,13,75,045,52,27,48,180,24,23,43,067,08*7B
$GPGSV,3,2,11,02,40,290,18,04,48,233,13,16,14,047,24,08,21,192,49*7F
$GPGSV,3,3,11,10,12,299,20,33,07,250,00,20,09,122,00*41
$GPGGA,133709,4940.8627,N,01052.7630,E,1,05,2.10,319.9,M,47.453,M,,*7E
$GPRMC,133709,A,4940.8627,N,01052.7630,E,0.0000,0.000,050507,,*23
$GPGSA,A,3,25,13,27,02,04,,,,,,,,7.2,2.1,6.9*3D
$GPGSV,3,1,11,25,59,080,48,13,75,045,53,27,48,180,23,23,43,067,06*73
$GPGSV,3,2,11,02,40,290,19,04,48,233,13,16,14,047,24,08,21,192,49*7E
$GPGSV,3,3,11,10,12,299,21,33,07,250,00,20,09,122,00*40
$GPGGA,133710,4940.8627,N,01052.7630,E,1,05,2.10,319.9,M,47.453,M,,*76
$GPRMC,133710,A,4940.8627,N,01052.7630,E,0.0000,0.000,050507,,*2B
$GPGSA,A,3,25,13,27,02,04,,,,,,,,7.2,2.1,6.9*3D
$GPGSV,3,1,11,25,59,080,49,13,75,045,53,27,48,180,23,23,43,067,06*72
$GPGSV,3,2,11,02,40,290,19,04,48,233,13,16,14,047,24,08,21,192,49*7E
$GPGSV,3,3,11,10,12,299,21,33,07,250,00,20,09,122,00*40
$GPGGA,133711,4940.8627,N,01052.7630,E,1,05,2.10,319.9,M,47.453,M,,*77
$GPRMC,133711,A,4940.8627,N,01052.7630,E,0.1501,14.148,050507,,*17
$GPGSA,A,3,25,13,27,02,04,,,,,,,,7.3,2.1,6.9*3C
$PGRME,0.00,M,0.00,M,27.74,M*28
$GPGSV,3,1,11,25,59,080,48,13,75,045,54,27,48,180,23,23,43,067,05*77
$GPGSV,3,2,11,02,40,290,20,04,48,233,13,16,14,047,24,08,21,192,48*75
$GPGSV,3,3,11,10,12,299,20,33,07,250,00,20,09,122,00*41
$GPGGA,133712,4940.8627,N,01052.7630,E,1,05,2.10,319.9,M,47.453,M,,*74
$GPRMC,133712,A,4940.8627,N,01052.7630,E,0.0000,0.000,050507,,*29
$GPGSA,A,3,25,13,27,02,04,,,,,,,,7.3,2.1,6.9*3C
$GPGSV,3,1,11,25,59,080,48,13,75,045,54,27,48,180,22,23,43,067,05*76
$GPGSV,3,2,11,02,40,290,20,04,48,233,13,16,14,047,24,08,21,192,48*75
$GPGSV,3,3,11,10,12,299,19,33,07,250,00,20,09,122,00*4B
$GPGGA,133713,4940.8627,N,01052.7630,E,1,05,2.10,319.9,M,47.453,M,,*75
$GPRMC,133713,A,4940.8627,N,01052.7630,E,0.0000,0.000,050507,,*28
$GPGSA,A,3,25,13,27,02,04,,,,,,,,8.4,2.6,8.0*34
$GPGSV,3,1,11,25,59,080,49,13,75,045,53,27,48,180,22,23,43,067,04*71
$GPGSV,3,2,11,02,40,290,20,04,48,233,13,16,14,047,24,08,21,192,49*74
$GPGSV,3,3,11,10,12,299,19,33,07,250,00,20,09,122,00*4B
$GPGGA,133714,4940.8627,N,01052.7630,E,1,04,2.60,319.9,M,47.453,M,,*74
$GPRMC,133714,A,4940.8627,N,01052.7630,E,0.0000,0.000,050507,,*2F
$GPGSA,A,3,25,13,27,02,,,,,,,,,7.3,2.1,6.9*38
$PGRME,0.00,M,0.00,M,32.37,M*2B
$GPGSV,3,1,11,25,59,080,49,13,75,045,54,27,48,180,21,23,43,067,05*74
$GPGSV,3,2,11,02,40,290,21,04,48,233,14,16,14,047,24,08,21,192,49*72
$GPGSV,3,3,11,10,12,299,20,33,07,250,00,20,09,122,00*41
$GPGGA,133715,4940.8626,N,01052.7638,E,1,05,2.10,320.0,M,47.453,M,,*79
$GPRMC,133715,A,4940.8626,N,01052.7638,E,0.0000,0.000,050507,,*27
$GPGSA,A,3,25,13,27,02,04,,,,,,,,8.4,2.6,8.0*34
$GPGSV,3,1,11,25,59,080,48,13,75,045,54,27,48,180,23,23,43,067,04*76
$GPGSV,3,2,11,02,40,290,21,04,48,233,11,16,14,047,23,08,21,192,49*70
$GPGSV,3,3,11,10,12,299,20,33,07,250,00,20,09,122,00*41
$GPGGA,133716,4940.8630,N,01052.7639,E,1,04,2.60,319.4,M,47.453,M,,*74
$GPRMC,133716,A,4940.8630,N,01052.7639,E,0.0000,0.000,050507,,*22
$GPGSA,A,3,25,13,27,02,,,,,,,,,8.4,2.6,8.0*30
$GPGSV,3,1,11,25,59,080,47,13,75,045,53,27,48,180,23,23,43,067,04*7E
$GPGSV,3,2,11,02,40,290,22,04,48,233,09,16,14,047,24,08,21,192,49*7D
$GPGSV,3,3,11,10,12,299,20,33,07,250,00,20,09,122,00*41
$GPGGA,133717,4940.8630,N,01052.7639,E,1,04,2.60,319.4,M,47.453,M,,*75
$GPRMC,133717,A,4940.8630,N,01052.7639,E,0.0000,0.000,050507,,*23
$GPGSA,A,3,25,13,27,02,,,,,,,,,7.3,2.1,7.0*30
$GPGSV,3,1,11,25,59,080,48,13,75,045,54,27,48,180,23,23,43,067,03*71
$GPGSV,3,2,11,02,40,290,23,04,48,233,11,16,14,047,24,08,21,192,50*7D
$GPGSV,3,3,11,10,12,299,21,33,07,250,00,20,09,122,00*40
$GPGGA,133718,4940.8630,N,01052.7639,E,1,05,2.10,319.4,M,47.453,M,,*7C
$GPRMC,133718,A,4940.8630,N,01052.7639,E,0.0417,61.681,050507,,*16
$GPGSA,A,3,25,13,27,02,04,,,,,,,,7.3,2.1,7.0*34
$GPGSV,3,1,11,25,59,080,48,13,75,045,54,27,48,180,23,23,43,067,05*77
$GPGSV,3,2,11,02,40,290,23,04,48,233,10,16,14,047,25,08,21,192,50*7D
$GPGSV,3,3,11,10,12,299,21,33,07,250,00,20,09,122,00*40
$GPGGA,133719,4940.8630,N,01052.7639,E,1,05,2.10,319.4,M,47.453,M,,*7D
$GPRMC,133719,A,4940.8630,N,01052.7639,E,0.1501,14.148,050507,,*10
$GPGSA,A,3,25,13,27,02,04,,,,,,,,7.3,2.1,7.0*34
$PGRME,0.00,M,0.00,M,28.13,M*26
$GPGSV,3,1,11,25,59,080,48,13,75,045,54,27,48,180,21,23,43,067,06*76
$GPGSV,3,2,11,02,40,290,23,04,48,233,10,16,14,047,24,08,21,192,49*74
$GPGSV,3,3,11,10,12,299,20,33,07,250,00,20,09,122,00*41
$GPGGA,133720,4940.8630,N,01052.7639,E,1,05,2.10,319.4,M,47.453,M,,*77
$GPRMC,133720,A,4940.8630,N,01052.7639,E,0.0000,0.000,050507,,*27
$GPGSA,A,3,25,13,27,02,04,,,,,,,,7.3,2.1,7.0*34
$PGRME,0.00,M,0.00,M,28.13,M*26
$GPGSV,3,1,11,25,59,080,49,13,75,045,54,27,48,180,20,23,43,067,06*76
$GPGSV,3,2,11,02,40,290,23,04,48,233,11,16,14,047,24,08,21,192,49*75
$GPGSV,3,3,11,10,12,299,22,33,07,250,00,20,09,122,00*43
$GPGGA,133721,4940.8630,N,01052.7639,E,1,05,2.10,319.4,M,47.453,M,,*76
$GPRMC,133721,A,4940.8630,N,01052.7639,E,0.0000,0.000,050507,,*26
$GPGSA,A,3,25,13,27,02,04,,,,,,,,7.3,2.1,7.0*34
$GPGSV,3,1,11,25,59,080,50,13,75,045,55,27,48,180,21,23,43,067,06*7E
$GPGSV,3,2,11,02,40,290,23,04,48,233,11,16,14,047,24,08,21,192,49*75
$GPGSV,3,3,11,10,12,299,21,33,07,250,00,20,09,122,00*40
$GPGGA,133722,4940.8627,N,01052.7639,E,1,05,2.10,318.6,M,47.453,M,,*70
$GPRMC,133722,A,4940.8627,N,01052.7639,E,0.0000,0.000,050507,,*23
$GPGSA,A,3,25,13,27,02,04,,,,,,,,8.4,2.6,8.0*34
$PGRME,0.00,M,0.00,M,28.13,M*26
$GPGSV,3,1,11,25,59,080,50,13,75,045,54,27,48,180,21,23,43,067,06*7F
$GPGSV,3,2,11,02,40,290,24,04,48,233,08,16,14,047,23,08,21,192,50*75
$GPGSV,3,3,11,10,12,299,20,33,07,250,00,20,09,122,00*41
$GPGGA,133723,4940.8627,N,01052.7639,E,1,04,2.60,318.6,M,47.453,M,,*77
$GPRMC,133723,A,4940.8627,N,01052.7639,E,0.0000,0.000,050507,,*22
$GPGSA,A,3,25,13,27,02,,,,,,,,,7.3,2.1,7.0*30
$PGRME,0.00,M,0.00,M,32.37,M*2B
$GPGSV,3,1,11,25,59,080,48,13,75,045,54,27,48,180,21,23,43,067,07*77
$GPGSV,3,2,11,02,40,290,24,04,48,233,11,16,14,047,23,08,21,192,46*7A
$GPGSV,3,3,11,10,12,299,20,33,07,250,00,20,09,122,00*41
$GPGGA,133724,4940.8631,N,01052.7641,E,1,05,2.10,318.0,M,47.453,M,,*78
$GPRMC,133724,A,4940.8631,N,01052.7641,E,0.0000,0.000,050507,,*2D
$GPGSA,A,3,25,13,27,02,04,,,,,,,,4.3,1.4,4.0*32
$PGRME,0.00,M,0.00,M,28.13,M*26
$GPGSV,3,1,11,25,59,080,48,13,75,045,54,27,48,180,20,23,43,067,09*78
$GPGSV,3,2,11,02,40,290,24,04,48,233,11,16,14,047,19,08,21,192,00*71
$GPGSV,3,3,11,10,12,299,20,33,07,250,00,20,09,122,00*41
$GPGGA,133725,4940.8627,N,01052.7641,E,1,06,1.40,317.2,M,47.453,M,,*76
$GPRMC,133725,A,4940.8627,N,01052.7641,E,0.1501,14.148,050507,,*16
$GPGSA,A,3,25,13,27,23,02,04,,,,,,,4.3,1.4,4.0*33
$PGRME,0.00,M,0.00,M,16.57,M*2B
$GPGSV,3,1,11,25,59,080,46,13,75,045,51,27,48,180,21,23,43,067,10*7A
$GPGSV,3,2,11,02,40,290,25,04,48,233,11,16,14,047,19,08,21,192,00*70
$GPGSV,3,3,11,10,12,299,19,33,07,250,00,20,09,122,00*4B
$GPGGA,133726,4940.8631,N,01052.7643,E,1,06,1.40,316.6,M,47.453,M,,*75
$GPRMC,133726,A,4940.8631,N,01052.7643,E,0.0000,0.000,050507,,*2D
$GPGSA,A,3,25,13,27,23,02,04,,,,,,,7.3,2.1,7.0*35
$PGRME,0.00,M,0.00,M,16.57,M*2B
$GPGSV,3,1,11,25,59,080,44,13,75,045,53,27,48,180,22,23,43,067,07*7F
$GPGSV,3,2,11,02,40,290,25,04,48,233,12,16,14,047,18,08,21,192,21*71
$GPGSV,3,3,11,10,12,299,20,33,07,250,00,20,09,122,00*41
$GPGGA,133727,4940.8630,N,01052.7651,E,1,05,2.10,316.7,M,47.453,M,,*72
$GPRMC,133727,A,4940.8630,N,01052.7651,E,0.2917,61.681,050507,,*1B
$GPGSA,A,3,25,13,27,02,04,,,,,,,,4.3,1.4,4.0*32
$PGRME,0.00,M,0.00,M,28.13,M*26
$GPGSV,3,1,11,25,59,080,45,13,75,045,54,27,48,180,23,23,43,067,08*77
$GPGSV,3,2,11,02,40,290,26,04,48,233,12,16,14,047,19,08,21,192,31*72
$GPGSV,3,3,11,10,12,299,20,33,07,250,00,20,09,122,00*41
$GPGGA,133728,4940.8630,N,01052.7651,E,1,06,1.40,316.7,M,47.453,M,,*78
$GPRMC,133728,A,4940.8630,N,01052.7651,E,0.1501,14.148,050507,,*1C
$GPGSA,A,3,25,13,27,23,02,04,,,,,,,7.3,2.1,7.0*35
$PGRME,0.00,M,0.00,M,16.57,M*2B
$GPGSV,3,1,11,25,59,080,48,13,75,045,51,27,48,180,22,23,43,067,10*77
$GPGSV,3,2,11,02,40,290,26,04,48,233,14,16,14,047,14,08,21,192,33*7B
$GPGSV,3,3,11,10,12,299,19,33,07,250,00,20,09,122,00*4B
$GPGGA,133729,4940.8630,N,01052.7651,E,1,05,2.10,316.7,M,47.453,M,,*7C
$GPRMC,133729,A,4940.8630,N,01052.7651,E,1.1713,200.542,050507,,*24
$GPGSA,A,3,25,13,27,02,04,,,,,,,,11.0,6.7,8.7*0A
$PGRME,0.00,M,0.00,M,28.13,M*26
$GPGSV,3,1,11,25,59,080,49,13,75,045,46,27,48,180,26,23,43,067,15*71
$GPGSV,3,2,11,02,40,290,19,04,48,233,09,16,14,047,16,08,21,192,36*7C
$GPGSV,3,3,11,10,12,299,12,33,07,250,00,20,09,122,00*40
$GPGGA,133730,4940.8634,N,01052.7652,E,1,04,6.70,316.1,M,47.453,M,,*76
$GPRMC,133730,A,4940.8634,N,01052.7652,E,4.5913,213.478,050507,,*2E
$GPGSA,A,3,25,13,27,23,,,,,,,,,2.9,1.3,2.6*3E
$PGRME,0.00,M,0.00,M,42.38,M*23
$GPGSV,3,1,11,25,59,080,50,13,75,045,44,27,48,180,22,23,43,067,18*72
$GPGSV,3,2,11,02,40,290,14,04,48,233,14,16,14,047,19,08,21,192,32*76
$GPGSV,3,3,11,10,12,299,07,33,07,250,00,20,09,122,00*44
$GPGGA,133731,4940.8635,N,01052.7644,E,1,07,1.30,316.0,M,47.453,M,,*70
$GPRMC,133731,A,4940.8635,N,01052.7644,E,9.1751,212.633,050507,,*24
$GPGSA,A,3,25,13,27,23,02,04,08,,,,,,4.2,2.5,3.3*3C
$PGRME,0.00,M,0.00,M,11.17,M*28
$GPGSV,3,1,11,25,59,080,48,13,75,045,45,27,48,180,24,23,43,067,21*76
$GPGSV,3,2,11,02,40,290,14,04,48,233,22,16,14,047,17,08,21,192,28*76
$GPGSV,3,3,11,10,12,299,05,33,07,250,00,20,09,122,00*46
$GPGGA,133732,4940.8631,N,01052.7643,E,1,06,2.50,316.6,M,47.453,M,,*72
$GPRMC,133732,A,4940.8631,N,01052.7643,E,10.4055,215.792,050507,,*17
$GPGSA,A,3,25,13,27,23,04,08,,,,,,,2.9,1.3,2.6*32
$PGRME,0.00,M,0.00,M,16.18,M*20
$GPGSV,3,1,11,25,59,080,47,13,75,045,49,27,48,180,24,23,43,067,22*76
$GPGSV,3,2,11,02,40,290,20,04,48,233,26,16,14,047,18,08,21,192,33*70
$GPGSV,3,3,11,10,12,299,04,33,07,250,00,20,09,122,00*47
$GPGGA,133733,4940.8619,N,01052.7616,E,1,07,1.30,314.6,M,47.453,M,,*7F
$GPRMC,133733,A,4940.8619,N,01052.7616,E,12.6915,221.475,050507,,*1C
$GPGSA,A,3,25,13,27,23,02,04,08,,,,,,5.4,2.5,4.8*37
$PGRME,0.00,M,0.00,M,11.17,M*28
$GPGSV,3,1,11,25,59,080,40,13,75,045,49,27,48,180,26,23,43,067,24*75
$GPGSV,3,2,11,02,40,290,16,04,48,233,23,16,14,047,21,08,21,192,21*79
$GPGSV,3,3,11,10,12,299,00,33,07,250,00,20,09,122,00*43
$GPGGA,133734,4940.8584,N,01052.7574,E,1,05,2.50,314.9,M,47.453,M,,*70
$GPRMC,133734,A,4940.8584,N,01052.7574,E,16.1651,227.022,050507,,*17
$GPGSA,A,3,25,13,27,23,04,,,,,,,,5.4,2.5,4.8*3D
$PGRME,0.00,M,0.00,M,20.81,M*25
$GPGSV,3,1,11,25,59,080,31,13,75,045,48,27,48,180,32,23,43,067,23*70
$GPGSV,3,2,11,02,40,290,15,04,48,233,28,16,14,047,17,08,21,192,12*74
$GPGSV,3,3,11,10,12,299,00,33,07,250,00,20,09,122,00*43
$GPGGA,133735,4940.8551,N,01052.7518,E,1,05,2.50,313.5,M,47.453,M,,*78
$GPRMC,133735,A,4940.8551,N,01052.7518,E,18.7843,230.663,050507,,*14
$GPGSA,A,3,25,13,27,23,04,,,,,,,,7.3,2.1,7.0*37
$PGRME,0.00,M,0.00,M,20.81,M*25
$GPGSV,3,1,11,25,59,080,31,13,75,045,49,27,48,180,29,23,43,067,18*73
$GPGSV,3,2,11,02,40,290,16,04,48,233,31,16,14,047,17,08,21,192,09*75
$GPGSV,3,3,11,10,12,299,00,33,07,250,00,20,09,122,00*43
$GPGGA,133736,4940.8518,N,01052.7451,E,1,05,2.10,313.4,M,47.453,M,,*7F
$GPRMC,133736,A,4940.8518,N,01052.7451,E,17.5208,233.885,050507,,*1B
$GPGSA,A,3,25,13,27,02,04,,,,,,,,13.8,3.8,13.2*35
$PGRME,0.00,M,0.00,M,28.13,M*26
$GPGSV,3,1,11,25,59,080,27,13,75,045,48,27,48,180,33,23,43,067,11*77
$GPGSV,3,2,11,02,40,290,10,04,48,233,28,16,14,047,12,08,21,192,07*70
$GPGSV,3,3,11,10,12,299,00,33,07,250,00,20,09,122,00*43
$GPGGA,133737,4940.8492,N,01052.7394,E,1,04,3.80,313.6,M,47.453,M,,*78
$GPRMC,133737,A,4940.8492,N,01052.7394,E,14.7785,241.499,050507,,*12
$GPGSA,A,3,25,13,27,04,,,,,,,,,5.4,2.5,4.8*3C
$PGRME,0.00,M,0.00,M,53.17,M*2E
$GPGSV,3,1,11,25,59,080,25,13,75,045,45,27,48,180,29,23,43,067,11*73
$GPGSV,3,2,11,02,40,290,07,04,48,233,33,16,14,047,07,08,21,192,06*79
$GPGSV,3,3,11,10,12,299,00,33,07,250,00,20,09,122,00*43
$GPGGA,133738,4940.8474,N,01052.7340,E,1,05,2.50,312.4,M,47.453,M,,*78
$GPRMC,133738,A,4940.8474,N,01052.7340,E,10.5819,240.296,050507,,*18
$GPGSA,A,3,25,13,27,23,04,,,,,,,,5.4,2.5,4.8*3D
$PGRME,0.00,M,0.00,M,20.81,M*25
$GPGSV,3,1,11,25,59,080,24,13,75,045,43,27,48,180,33,23,43,067,14*7A
$GPGSV,3,2,11,02,40,290,09,04,48,233,40,16,14,046,05,08,21,192,00*76
$GPGSV,3,3,11,10,12,299,00,33,07,250,00,20,09,122,00*43
$GPGGA,133739,4940.8466,N,01052.7305,E,1,05,2.50,312.5,M,47.453,M,,*7A
$GPRMC,133739,A,4940.8466,N,01052.7305,E,8.0993,263.013,050507,,*2A
$GPGSA,A,3,25,13,27,23,04,,,,,,,,4.7,2.2,4.1*31
$PGRME,0.00,M,0.00,M,20.81,M*25
$GPGSV,3,1,11,25,59,080,28,13,75,045,41,27,48,180,19,23,43,067,18*70
$GPGSV,3,2,11,02,40,290,17,04,48,233,34,16,14,046,00,08,21,192,00*7F
$GPGSV,3,3,11,10,12,299,00,33,07,250,00,20,09,122,00*43
$GPGGA,133740,4940.8472,N,01052.7272,E,1,05,2.20,312.7,M,47.453,M,,*75
$GPRMC,133740,A,4940.8472,N,01052.7272,E,8.3832,296.143,050507,,*27
$GPGSA,A,3,25,13,23,02,04,,,,,,,,7.4,2.1,7.0*37
$PGRME,0.00,M,0.00,M,18.11,M*27
$GPGSV,3,1,11,25,59,080,40,13,75,045,29,27,48,180,24,23,43,067,13*75
$GPGSV,3,2,11,02,40,290,17,04,48,233,38,16,14,046,00,08,21,192,00*73
$GPGSV,3,3,11,10,12,299,00,33,07,250,00,20,09,122,00*43
$GPGGA,133741,4940.8487,N,01052.7233,E,1,05,2.10,313.0,M,47.453,M,,*7E
$GPRMC,133741,A,4940.8487,N,01052.7233,E,11.9807,315.680,050507,,*1F
$GPGSA,A,3,25,13,27,02,04,,,,,,,,7.4,2.1,7.1*32
$PGRME,0.00,M,0.00,M,28.51,M*20
$GPGSV,3,1,11,25,59,080,32,13,75,045,35,27,48,180,26,23,43,067,09*74
$GPGSV,3,2,11,02,40,290,24,04,48,233,26,16,14,046,00,08,21,192,00*7C
$GPGSV,3,3,11,10,12,299,00,33,07,250,00,20,09,122,00*43
$GPGGA,133742,4940.8518,N,01052.7190,E,1,05,2.10,312.0,M,47.453,M,,*71
$GPRMC,133742,A,4940.8518,N,01052.7190,E,16.1855,325.515,050507,,*15
$GPGSA,A,3,25,13,27,02,04,,,,,,,,10.6,3.5,10.0*34
$PGRME,0.00,M,0.00,M,28.51,M*20
$GPGSV,3,1,11,25,59,080,21,13,75,045,39,27,48,180,22,23,43,067,07*70
$GPGSV,3,2,11,02,40,290,27,04,48,233,31,16,14,046,00,08,21,192,00*79
$GPGSV,3,3,11,10,12,299,00,33,07,250,00,20,09,122,00*43
$GPGGA,133743,4940.8557,N,01052.7149,E,1,04,3.50,311.2,M,47.453,M,,*7A
$GPRMC,133743,A,4940.8557,N,01052.7149,E,18.8469,326.705,050507,,*1F
$GPGSA,A,3,13,27,02,04,,,,,,,,,7.4,2.1,7.1*35
$PGRME,0.00,M,0.00,M,40.84,M*26
$GPGSV,3,1,11,25,59,080,15,13,75,045,42,27,48,180,22,23,43,067,06*7A
$GPGSV,3,2,11,02,40,290,35,04,48,233,28,16,14,046,00,08,21,192,00*72
$GPGSV,3,3,11,10,12,299,00,33,07,250,00,20,08,122,00*42
$GPGGA,133744,4940.8608,N,01052.7101,E,1,05,2.10,311.1,M,47.453,M,,*7F
$GPRMC,133744,A,4940.8608,N,01052.7101,E,20.4519,329.825,050507,,*1E
$GPGSA,A,3,25,13,27,02,04,,,,,,,,4.3,1.4,4.0*32
$PGRME,0.00,M,0.00,M,28.51,M*20
$GPGSV,3,1,11,25,59,080,21,13,75,045,43,27,48,180,22,23,43,067,19*72
$GPGSV,3,2,11,02,40,290,25,04,48,233,20,16,14,046,00,08,21,192,00*7B
$GPGSV,3,3,11,10,12,299,00,33,07,250,00,20,08,122,00*42
$GPGGA,133745,4940.8650,N,01052.7050,E,1,06,1.40,312.3,M,47.453,M,,*72
$GPRMC,133745,A,4940.8650,N,01052.7050,E,24.0398,326.709,050507,,*16
$GPGSA,A,3,25,13,27,23,02,04,,,,,,,11.0,6.7,8.7*0B
$PGRME,0.00,M,0.00,M,16.57,M*2B
$GPGSV,3,1,11,25,59,080,23,13,75,045,43,27,48,180,21,23,43,067,24*7D
$GPGSV,3,2,11,02,40,290,27,04,48,233,12,16,14,046,00,08,21,192,00*78
$GPGSV,3,3,11,10,12,299,00,33,07,250,00,20,08,122,00*42
$GPGGA,133746,4940.8714,N,01052.6988,E,1,04,6.70,312.8,M,47.453,M,,*70
$GPRMC,133746,A,4940.8714,N,01052.6988,E,26.4670,323.875,050507,,*1D
$GPGSA,A,3,25,13,27,23,,,,,,,,,4.7,2.2,4.1*35
$PGRME,0.00,M,0.00,M,42.38,M*23
$GPGSV,3,1,11,25,59,080,27,13,75,045,45,27,48,180,14,23,42,067,29*75
$GPGSV,3,2,11,02,40,290,31,04,48,233,15,16,14,046,00,08,21,192,00*78
$GPGSV,3,3,11,10,12,299,00,33,07,250,00,20,08,122,00*42
$GPGGA,133747,4940.8774,N,01052.6907,E,1,05,2.20,313.8,M,47.454,M,,*76
$GPRMC,133747,A,4940.8774,N,01052.6907,E,27.2052,321.805,050507,,*19
$GPGSA,A,3,25,13,23,02,04,,,,,,,,4.3,1.4,4.0*36
$PGRME,0.00,M,0.00,M,18.11,M*27
$GPGSV,3,1,11,25,59,080,25,13,75,045,48,27,48,180,16,23,42,067,29*78
$GPGSV,3,2,11,02,40,290,33,04,48,233,18,16,14,046,00,08,21,192,00*77
$GPGSV,3,3,11,10,12,299,24,33,07,250,00,20,08,122,00*44
$GPGGA,133748,4940.8831,N,01052.6827,E,1,06,1.40,313.9,M,47.454,M,,*73
$GPRMC,133748,A,4940.8831,N,01052.6827,E,27.3624,319.179,050507,,*14
$GPGSA,A,3,25,13,27,23,02,04,,,,,,,4.3,1.4,4.0*33
$PGRME,0.00,M,0.00,M,16.57,M*2B
$GPGSV,3,1,11,25,59,080,19,13,75,045,47,27,48,180,18,23,42,067,33*7D
$GPGSV,3,2,11,02,40,290,33,04,48,233,24,16,14,046,00,08,21,192,00*78
$GPGSV,3,3,11,10,12,299,18,33,07,250,00,20,08,122,00*4B
$GPGGA,133749,4940.8889,N,01052.6739,E,1,06,1.40,314.0,M,47.454,M,,*7F
$GPRMC,133749,A,4940.8889,N,01052.6739,E,27.0528,316.994,050507,,*1E
$GPGSA,A,3,25,13,27,23,02,04,,,,,,,4.3,1.4,4.0*33
$PGRME,0.00,M,0.00,M,16.57,M*2B
$GPGSV,3,1,11,25,59,080,17,13,75,045,46,27,48,180,21,23,42,067,33*78
$GPGSV,3,2,11,02,40,290,29,04,48,233,29,16,14,046,00,08,21,192,00*7E
$GPGSV,3,3,11,10,12,299,14,33,07,250,00,20,08,122,00*47
$GPGGA,133750,4940.8943,N,01052.6657,E,1,06,1.40,314.8,M,47.454,M,,*71
$GPRMC,133750,A,4940.8943,N,01052.6657,E,26.7289,316.798,050507,,*10
$GPGSA,A,3,25,13,27,23,02,04,,,,,,,4.3,1.4,4.0*33
$PGRME,0.00,M,0.00,M,16.57,M*2B
$GPGSV,3,1,11,25,59,080,18,13,75,045,43,27,48,180,22,23,42,067,33*71
$GPGSV,3,2,11,02,40,290,28,04,48,233,29,16,14,046,00,08,21,192,00*7F
$GPGSV,3,3,11,10,12,299,11,33,07,250,00,20,08,122,00*42
$GPGGA,133751,4940.8992,N,01052.6575,E,1,06,1.40,314.9,M,47.454,M,,*7E
$GPRMC,133751,A,4940.8992,N,01052.6575,E,25.9197,316.744,050507,,*1E
$GPGSA,A,3,25,13,27,23,02,04,,,,,,,4.3,1.4,4.0*33
$PGRME,0.00,M,0.00,M,16.57,M*2B
$GPGSV,3,1,11,25,59,080,16,13,75,045,42,27,48,180,22,23,42,067,33*7E
$GPGSV,3,2,11,02,40,290,25,04,48,233,30,16,14,046,00,08,21,192,00*7A
$GPGSV,3,3,11,10,12,299,15,33,07,250,00,20,08,122,00*46
$GPGGA,133752,4940.9046,N,01052.6494,E,1,06,1.40,314.3,M,47.454,M,,*78
$GPRMC,133752,A,4940.9046,N,01052.6494,E,24.7813,318.484,050507,,*19
$GPGSA,A,3,25,13,27,23,02,04,,,,,,,4.3,1.4,4.0*33
$PGRME,0.00,M,0.00,M,16.57,M*2B
$GPGSV,3,1,11,25,59,080,15,13,75,045,42,27,48,180,19,23,42,067,33*75
$GPGSV,3,2,11,02,40,290,28,04,48,233,29,16,14,046,00,08,21,192,00*7F
$GPGSV,3,3,11,10,12,299,00,33,07,250,00,20,08,122,00*42
$GPGGA,133753,4940.9094,N,01052.6429,E,1,06,1.40,314.6,M,47.454,M,,*75
$GPRMC,133753,A,4940.9094,N,01052.6429,E,24.1411,323.013,050507,,*1B
$GPGSA,A,3,25,13,27,23,02,04,,,,,,,4.3,1.4,4.0*33
$PGRME,0.00,M,0.00,M,16.57,M*2B
$GPGSV,3,1,11,25,59,080,25,13,75,045,44,27,48,180,21,23,42,067,33*7B
$GPGSV,3,2,11,02,40,290,31,04,48,233,23,16,14,046,00,08,21,192,00*7D
$GPGSV,3,3,11,10,12,299,00,33,07,250,00,20,08,122,00*42
$GPGGA,133754,4940.9154,N,01052.6366,E,1,06,1.40,314.4,M,47.454,M,,*71
$GPRMC,133754,A,4940.9154,N,01052.6366,E,24.1352,331.585,050507,,*14
$GPGSA,A,3,25,13,27,23,02,04,,,,,,,4.3,1.4,4.0*33
$PGRME,0.00,M,0.00,M,16.57,M*2B
$GPGSV,3,1,11,25,59,080,29,13,75,045,41,27,48,180,19,23,42,067,28*73
$GPGSV,3,2,11,02,40,290,29,04,48,233,23,16,14,046,32,08,21,192,00*75
$GPGSV,3,3,11,10,12,299,00,33,07,250,00,20,08,122,00*42
$GPGGA,133755,4940.9212,N,01052.6320,E,1,06,1.40,314.4,M,47.454,M,,*73
$GPRMC,133755,A,4940.9212,N,01052.6320,E,23.3990,336.647,050507,,*1D
$GPGSA,A,3,25,13,27,23,02,04,,,,,,,4.3,1.4,4.0*33
$PGRME,0.00,M,0.00,M,16.57,M*2B
$GPGSV,3,1,11,25,59,080,37,13,75,045,42,27,48,180,20,23,42,067,21*7C
$GPGSV,3,2,11,02,40,290,20,04,48,233,22,16,14,046,19,08,21,192,00*74
$GPGSV,3,3,11,10,12,299,00,33,07,250,00,20,08,122,00*42
$GPGGA,133756,4940.9266,N,01052.6282,E,1,06,1.40,313.8,M,47.454,M,,*71
$GPRMC,133756,A,4940.9266,N,01052.6282,E,20.9287,336.837,050507,,*19
$GPGSA,A,3,25,13,27,23,02,04,,,,,,,5.4,2.5,4.8*3F
$PGRME,0.00,M,0.00,M,16.57,M*2B
$GPGSV,3,1,11,25,59,080,41,13,75,045,40,27,48,180,21,23,42,067,22*7D
$GPGSV,3,2,11,02,40,289,15,04,48,233,24,16,14,046,12,08,21,192,00*77
$GPGSV,3,3,11,10,12,299,00,33,07,250,00,20,08,122,00*42
$GPGGA,133757,4940.9311,N,01052.6250,E,1,05,2.50,313.2,M,47.454,M,,*75
$GPRMC,133757,A,4940.9311,N,01052.6250,E,17.8697,335.606,050507,,*19
$GPGSA,A,3,25,13,27,23,04,,,,,,,,5.4,2.5,4.8*3D
$PGRME,0.00,M,0.00,M,20.81,M*25
$GPGSV,3,1,11,25,59,080,45,13,75,045,39,27,48,180,23,23,42,067,21*76
$GPGSV,3,2,11,02,40,289,15,04,48,233,18,16,14,046,00,08,21,192,00*7B
$GPGSV,3,3,11,10,12,299,00,33,07,250,00,20,08,122,00*42
$GPGGA,133758,4940.9349,N,01052.6218,E,1,05,2.50,312.5,M,47.454,M,,*7D
$GPRMC,133758,A,4940.9349,N,01052.6218,E,12.8146,335.991,050507,,*18
$GPGSA,A,3,25,13,27,23,04,,,,,,,,4.3,1.4,4.0*31
$PGRME,0.00,M,0.00,M,20.81,M*25
$GPGSV,3,1,11,25,59,080,47,13,75,045,36,27,48,180,23,23,42,067,18*71
$GPGSV,3,2,11,02,40,289,19,04,48,233,23,16,14,046,00,08,21,192,00*7F
$GPGSV,3,3,11,10,12,299,00,33,07,250,00,20,08,122,00*42
$GPGGA,133759,4940.9378,N,01052.6199,E,1,06,1.40,311.8,M,47.454,M,,*7B
$GPRMC,133759,A,4940.9378,N,01052.6199,E,8.2948,341.734,050507,,*24
$GPGSA,A,3,25,13,27,23,02,04,,,,,,,7.4,2.1,7.1*33
$PGRME,0.00,M,0.00,M,16.57,M*2B
$GPGSV,3,1,11,25,59,080,48,13,75,045,32,27,48,180,18,23,42,067,12*78
$GPGSV,3,2,11,02,40,289,16,04,48,233,28,16,14,046,00,08,21,192,00*7B
$GPGSV,3,3,11,10,12,299,00,33,07,250,00,20,08,122,00*42
$GPGGA,133800,4940.9403,N,01052.6188,E,1,05,2.10,312.0,M,47.454,M,,*7D
$GPRMC,133800,A,4940.9403,N,01052.6188,E,3.8452,340.010,050507,,*2B
$GPGSA,A,3,25,13,27,02,04,,,,,,,,4.7,2.2,4.1*32
$PGRME,0.00,M,0.00,M,28.51,M*20
$GPGSV,3,1,11,25,59,080,50,13,75,045,28,27,48,180,13,23,42,067,23*73
$GPGSV,3,2,11,02,40,289,15,04,48,233,31,16,14,046,00,08,21,192,00*70
$GPGSV,3,3,11,10,12,299,00,33,07,250,00,20,08,122,00*42
$GPGGA,133801,4940.9410,N,01052.6189,E,1,05,2.20,312.1,M,47.454,M,,*7D
$GPRMC,133801,A,4940.9410,N,01052.6189,E,2.4664,349.878,050507,,*2C
$GPGSA,A,3,25,13,23,02,04,,,,,,,,4.7,2.2,4.1*36
$PGRME,0.00,M,0.00,M,18.11,M*27
$GPGSV,3,1,11,25,59,080,48,13,75,045,26,27,48,180,10,23,42,067,24*70
$GPGSV,3,2,11,02,40,289,18,04,48,233,35,16,14,046,00,08,21,192,00*79
$GPGSV,3,3,11,10,12,299,00,33,07,250,00,20,08,122,00*42
$GPGGA,133802,4940.9415,N,01052.6183,E,1,05,2.20,311.3,M,47.454,M,,*70
$GPRMC,133802,A,4940.9415,N,01052.6183,E,2.3726,358.752,050507,,*27
$GPGSA,A,3,25,13,23,02,04,,,,,,,,4.7,2.2,4.1*36
$PGRME,0.00,M,0.00,M,18.11,M*27
$GPGSV,3,1,11,25,59,080,46,13,75,045,27,27,48,180,08,23,42,067,31*72
$GPGSV,3,2,11,02,40,289,24,04,48,233,38,16,14,046,00,08,21,192,00*7B
$GPGSV,3,3,11,10,12,299,00,33,07,250,00,20,08,122,00*42
$GPGGA,133803,4940.9430,N,01052.6186,E,1,05,2.20,311.6,M,47.454,M,,*76
$GPRMC,133803,A,4940.9430,N,01052.6186,E,3.0733,26.987,050507,,*1E
$GPGSA,A,3,25,13,23,02,04,,,,,,,,4.7,2.2,4.1*36
$PGRME,0.00,M,0.00,M,18.11,M*27
$GPGSV,3,1,11,25,59,080,40,13,75,045,32,27,48,180,07,23,42,067,32*7C
$GPGSV,3,2,11,02,40,289,22,04,48,233,31,16,14,046,00,08,21,192,00*74
$GPGSV,3,3,11,10,13,300,00,33,07,250,00,20,08,122,00*42
$GPGGA,133804,4940.9449,N,01052.6190,E,1,05,2.20,311.2,M,47.454,M,,*7C
$GPRMC,133804,A,4940.9449,N,01052.6190,E,6.8388,47.515,050507,,*19
$GPGSA,A,3,25,13,23,02,04,,,,,,,,4.7,2.2,4.1*36
$PGRME,0.00,M,0.00,M,18.11,M*27
$GPGSV,3,1,11,25,59,080,42,13,75,045,28,27,48,180,12,23,42,067,36*75
$GPGSV,3,2,11,02,40,289,28,04,48,233,20,16,14,046,00,08,21,192,00*7E
$GPGSV,3,3,11,10,13,300,00,33,07,250,00,20,08,122,00*42
$GPGGA,133805,4940.9464,N,01052.6226,E,1,05,2.20,312.7,M,47.454,M,,*7A
$GPRMC,133805,A,4940.9464,N,01052.6226,E,9.3405,67.565,050507,,*1A
$GPGSA,A,3,25,13,23,02,04,,,,,,,,4.7,2.2,4.1*36
$PGRME,0.00,M,0.00,M,18.11,M*27
$GPGSV,3,1,11,25,59,080,41,13,75,045,32,27,48,180,15,23,42,067,35*79
$GPGSV,3,2,11,02,40,289,27,04,48,233,19,16,14,046,00,08,21,192,00*7B
$GPGSV,3,3,11,10,13,300,00,33,07,250,00,20,08,122,00*42
$GPGGA,133806,4940.9468,N,01052.6269,E,1,05,2.20,313.5,M,47.454,M,,*7D
$GPRMC,133806,A,4940.9468,N,01052.6269,E,12.6135,75.584,050507,,*2B
$GPGSA,A,3,25,13,23,02,04,,,,,,,,4.3,1.4,4.0*36
$PGRME,0.00,M,0.00,M,18.11,M*27
$GPGSV,3,1,11,25,59,080,36,13,74,045,38,27,48,180,17,23,42,067,40*72
$GPGSV,3,2,11,02,40,289,20,04,48,233,19,16,14,046,00,08,21,192,00*7C
$GPGSV,3,3,11,10,13,300,00,33,07,250,00,20,08,122,00*42
$GPGGA,133807,4940.9474,N,01052.6337,E,1,06,1.40,313.9,M,47.454,M,,*71
$GPRMC,133807,A,4940.9474,N,01052.6337,E,17.4075,78.441,050507,,*2A
$GPGSA,A,3,25,13,27,23,02,04,,,,,,,5.4,2.5,4.7*30
$PGRME,0.00,M,0.00,M,16.57,M*2B
$GPGSV,3,1,11,25,59,080,40,13,74,045,40,27,48,180,20,23,42,067,43*7B
$GPGSV,3,2,11,02,40,289,14,04,48,233,24,16,14,046,00,08,21,192,00*75
$GPGSV,3,3,11,10,13,300,00,33,07,250,00,20,08,122,00*42
$GPGGA,133808,4940.9481,N,01052.6423,E,1,05,2.50,314.0,M,47.454,M,,*79
$GPRMC,133808,A,4940.9481,N,01052.6423,E,18.6614,80.231,050507,,*27
$GPGSA,A,3,25,13,27,23,04,,,,,,,,4.7,2.2,4.1*31
$PGRME,0.00,M,0.00,M,20.81,M*25
$GPGSV,3,1,11,25,59,080,41,13,74,045,39,27,48,180,13,23,42,067,44*73
$GPGSV,3,2,11,02,40,289,16,04,48,233,26,16,14,046,00,08,21,192,00*75
$GPGSV,3,3,11,10,13,300,00,33,07,250,00,20,08,122,00*42
$GPGGA,133809,4940.9490,N,01052.6502,E,1,05,2.20,314.0,M,47.454,M,,*7D
$GPRMC,133809,A,4940.9490,N,01052.6502,E,19.4584,79.145,050507,,*2B
$GPGSA,A,3,25,13,23,02,04,,,,,,,,4.3,1.4,4.0*36
$PGRME,0.00,M,0.00,M,18.11,M*27
$GPGSV,3,1,11,25,59,080,42,13,74,045,39,27,48,180,21,23,42,067,44*71
$GPGSV,3,2,11,02,40,289,16,04,48,233,28,16,14,046,00,08,21,192,00*7B
$GPGSV,3,3,11,10,13,300,00,33,07,250,00,20,08,122,00*42
$GPGGA,133810,4940.9502,N,01052.6590,E,1,06,1.40,313.4,M,47.454,M,,*71
$GPRMC,133810,A,4940.9502,N,01052.6590,E,20.1819,78.211,050507,,*27
$GPGSA,A,3,25,13,27,23,02,04,,,,,,,4.3,1.4,4.0*33
$PGRME,0.00,M,0.00,M,16.57,M*2B
$GPGSV,3,1,11,25,59,080,39,13,74,045,38,27,48,180,18,23,42,067,44*76
$GPGSV,3,2,11,02,40,289,14,04,48,233,27,16,14,046,00,08,21,192,00*76
$GPGSV,3,3,11,10,13,300,00,33,07,250,00,20,08,122,00*42
$GPGGA,133811,4940.9510,N,01052.6676,E,1,06,1.40,313.5,M,47.454,M,,*79
$GPRMC,133811,A,4940.9510,N,01052.6676,E,20.7500,82.322,050507,,*29
$GPGSA,A,3,25,13,27,23,02,04,,,,,,,4.3,1.4,4.0*33
$PGRME,0.00,M,0.00,M,16.57,M*2B
$GPGSV,3,1,11,25,59,080,40,13,74,045,37,27,48,180,21,23,42,067,46*7F
$GPGSV,3,2,11,02,40,289,15,04,48,233,22,16,14,046,00,08,21,192,00*72
$GPGSV,3,3,11,10,13,300,00,33,07,250,00,20,08,122,00*42
$GPGGA,133812,4940.9514,N,01052.6762,E,1,06,1.40,312.8,M,47.454,M,,*76
$GPRMC,133812,A,4940.9514,N,01052.6762,E,21.5467,84.434,050507,,*2F
$GPGSA,A,3,25,13,27,23,02,04,,,,,,,5.4,2.5,4.7*30
$PGRME,0.00,M,0.00,M,16.57,M*2B
$GPGSV,3,1,11,25,59,080,43,13,74,045,36,27,48,180,22,23,42,067,47*7F
$GPGSV,3,2,11,02,40,289,12,04,48,233,20,16,14,046,00,08,21,192,00*77
$GPGSV,3,3,11,10,13,300,00,33,07,250,00,20,08,122,00*42
$GPGGA,133813,4940.9522,N,01052.6850,E,1,05,2.50,311.5,M,47.454,M,,*73
$GPRMC,133813,A,4940.9522,N,01052.6850,E,21.4754,76.639,050507,,*25
$GPGSA,A,3,25,13,27,23,04,,,,,,,,5.4,2.5,4.7*32
$PGRME,0.00,M,0.00,M,20.81,M*25
$GPGSV,3,1,11,25,59,080,44,13,74,045,38,27,48,180,21,23,42,067,46*74
$GPGSV,3,2,11,02,40,289,09,04,48,233,22,16,14,046,00,08,21,192,00*7F
$GPGSV,3,3,11,10,13,300,00,33,07,250,00,20,08,122,00*42
$GPGGA,133814,4940.9543,N,01052.6932,E,1,05,2.50,310.9,M,47.454,M,,*7B
$GPRMC,133814,A,4940.9543,N,01052.6932,E,20.8053,63.041,050507,,*20
$GPGSA,A,3,25,13,27,23,04,,,,,,,,4.3,1.4,4.0*31
$PGRME,0.00,M,0.00,M,20.81,M*25
$GPGSV,3,1,11,25,59,080,42,13,74,045,40,27,48,180,19,23,42,067,39*7E
$GPGSV,3,2,11,02,40,289,17,04,48,233,21,16,14,046,00,08,21,192,00*73
$GPGSV,3,3,11,10,13,300,00,33,07,250,00,20,08,122,00*42
$GPGGA,133815,4940.9574,N,01052.7014,E,1,06,1.40,311.3,M,47.453,M,,*7F
$GPRMC,133815,A,4940.9574,N,01052.7014,E,21.2172,47.710,050507,,*25
$GPGSA,A,3,25,13,27,23,02,04,,,,,,,4.3,1.4,4.0*33
$PGRME,0.00,M,0.00,M,16.57,M*2B
$GPGSV,3,1,11,25,59,080,40,13,74,045,36,27,48,180,25,23,42,067,43*7F
$GPGSV,3,2,11,02,40,289,28,04,48,233,18,16,14,046,00,08,21,192,00*75
$GPGSV,3,3,11,10,13,300,00,33,07,250,00,20,08,122,00*42
$GPGGA,133816,4940.9635,N,01052.7071,E,1,06,1.40,310.9,M,47.453,M,,*72
$GPRMC,133816,A,4940.9635,N,01052.7071,E,21.8714,33.558,050507,,*22
$GPGSA,A,3,25,13,27,23,02,04,,,,,,,11.3,9.8,5.6*04
$PGRME,0.00,M,0.00,M,16.57,M*2B
$GPGSV,3,1,11,25,59,080,43,13,74,045,35,27,48,180,19,23,42,067,39*7D
$GPGSV,3,2,11,02,40,289,32,04,48,233,12,16,14,046,00,08,21,192,00*74
$GPGSV,3,3,11,10,13,300,00,33,07,250,00,20,08,122,00*42
$GPGGA,133817,4940.9684,N,01052.7115,E,1,04,9.80,312.2,M,47.453,M,,*75
$GPRMC,133817,A,4940.9684,N,01052.7115,E,21.9408,19.462,050507,,*25
$GPGSA,A,3,25,13,23,02,,,,,,,,,4.7,2.2,4.1*32
$PGRME,0.00,M,0.00,M,43.54,M*28
$GPGSV,3,1,11,25,59,080,38,13,74,045,38,27,48,180,14,23,42,067,30*78
$GPGSV,3,2,11,02,40,289,25,04,48,233,18,16,14,046,00,08,21,192,00*78
$GPGSV,3,3,11,10,13,300,00,33,07,250,00,20,08,122,00*42
$GPGGA,133818,4940.9749,N,01052.7129,E,1,05,2.20,312.6,M,47.453,M,,*71
$GPRMC,133818,A,4940.9749,N,01052.7129,E,21.8238,5.787,050507,,*14
$GPGSA,A,3,25,13,23,02,04,,,,,,,,8.9,7.1,5.3*31
$PGRME,0.00,M,0.00,M,18.11,M*27
$GPGSV,3,1,11,25,59,080,37,13,74,045,42,27,48,180,11,23,42,067,26*78
$GPGSV,3,2,11,02,40,289,16,04,48,233,24,16,14,046,00,08,21,192,00*77
$GPGSV,3,3,11,10,13,300,00,33,07,250,00,20,08,122,00*42
$GPGGA,133819,4940.9806,N,01052.7133,E,1,04,7.10,312.7,M,47.453,M,,*79
$GPRMC,133819,A,4940.9806,N,01052.7133,E,19.3659,359.560,050507,,*18
$GPGSA,A,3,25,13,23,04,,,,,,,,,4.3,1.4,4.0*34
$PGRME,0.00,M,0.00,M,34.29,M*22
$GPGSV,3,1,11,25,59,080,35,13,74,045,45,27,48,180,10,23,42,067,29*73
$GPGSV,3,2,11,02,40,289,11,04,48,233,28,16,14,046,00,08,21,192,00*7C
$GPGSV,3,3,11,10,13,300,00,33,07,250,00,20,08,122,00*42
$GPGGA,133820,4940.9852,N,01052.7134,E,1,06,1.40,313.4,M,47.453,M,,*76
$GPRMC,133820,A,4940.9852,N,01052.7134,E,14.0433,2.182,050507,,*11
$GPGSA,A,3,25,13,27,23,02,04,,,,,,,5.4,2.5,4.7*30
$PGRME,0.00,M,0.00,M,16.57,M*2B
$GPGSV,3,1,11,25,59,080,37,13,74,045,44,27,48,180,09,23,42,067,32*72
$GPGSV,3,2,11,02,40,289,09,04,48,233,32,16,14,046,00,08,21,192,00*7E
$GPGSV,3,3,11,10,13,300,00,33,07,250,00,20,08,122,00*42
$GPGGA,133821,4940.9886,N,01052.7142,E,1,05,2.50,313.3,M,47.453,M,,*79
$GPRMC,133821,A,4940.9886,N,01052.7142,E,15.1104,4.844,050507,,*1C
$GPGSA,A,3,25,13,27,23,04,,,,,,,,5.4,2.5,4.7*32
$PGRME,0.00,M,0.00,M,20.81,M*25
$GPGSV,3,1,11,25,59,080,37,13,74,045,43,27,48,180,11,23,42,067,24*7B
$GPGSV,3,2,11,02,40,289,08,04,48,233,24,16,14,046,00,08,21,192,15*7C
$GPGSV,3,3,11,10,13,300,00,33,07,250,00,20,08,122,00*42
$GPGGA,133822,4940.9915,N,01052.7166,E,1,05,2.50,312.6,M,47.453,M,,*73
$GPRMC,133822,A,4940.9915,N,01052.7166,E,10.0334,50.461,050507,,*2D
$GPGSA,A,3,25,13,27,23,04,,,,,,,,4.3,1.4,4.0*31
$PGRME,0.00,M,0.00,M,20.81,M*25
$GPGSV,3,1,11,25,59,080,41,13,74,045,38,27,48,180,19,23,42,067,37*7C
$GPGSV,3,2,11,02,40,289,23,04,48,233,20,16,14,046,00,08,21,192,10*74
$GPGSV,3,3,11,10,13,300,00,33,07,250,00,20,08,122,00*42
$GPGGA,133823,4940.9928,N,01052.7204,E,1,06,1.40,312.0,M,47.453,M,,*7C
$GPRMC,133823,A,4940.9928,N,01052.7204,E,10.5333,80.732,050507,,*2F
$GPGSA,A,3,25,13,27,23,02,04,,,,,,,4.7,2.2,4.1*33
$PGRME,0.00,M,0.00,M,16.57,M*2B
$GPGSV,3,1,11,25,59,080,39,13,74,045,41,27,48,180,13,23,42,067,40*77
$GPGSV,3,2,11,02,40,289,16,04,48,233,20,16,14,046,00,08,21,192,05*76
$GPGSV,3,3,11,10,13,300,00,33,07,250,00,20,08,122,00*42
$GPGGA,133824,4940.9919,N,01052.7261,E,1,05,2.20,312.0,M,47.453,M,,*7C
$GPRMC,133824,A,4940.9919,N,01052.7261,E,14.7969,95.830,050507,,*23
$GPGSA,A,3,25,13,23,02,04,,,,,,,,13.5,3.7,12.9*39
$PGRME,0.00,M,0.00,M,18.11,M*27
$GPGSV,3,1,11,25,59,080,47,13,74,045,41,27,48,180,16,23,42,067,25*78
$GPGSV,3,2,11,02,40,289,12,04,48,233,20,16,14,046,00,08,21,192,03*74
$GPGSV,3,3,11,10,13,300,00,33,07,250,00,20,08,122,00*42
$GPGGA,133825,4940.9930,N,01052.7315,E,1,04,3.70,311.6,M,47.453,M,,*74
$GPRMC,133825,A,4940.9930,N,01052.7315,E,19.1374,93.413,050507,,*2D
$GPGSA,A,3,25,13,27,04,,,,,,,,,8.9,7.1,5.3*37
$PGRME,0.00,M,0.00,M,52.02,M*2B
$GPGSV,3,1,11,25,59,080,53,13,74,045,41,27,48,180,09,23,42,067,19*7C
$GPGSV,3,2,11,02,40,289,07,04,48,233,18,16,14,046,00,08,21,192,00*78
$GPGSV,3,3,11,10,13,300,00,33,07,250,00,20,08,122,00*42
$GPGGA,133826,4940.9927,N,01052.7399,E,1,04,7.10,310.8,M,47.453,M,,*78
$GPRMC,133826,A,4940.9927,N,01052.7399,E,20.8104,92.846,050507,,*27
$GPGSA,A,3,25,13,23,04,,,,,,,,,5.4,2.5,4.7*37
$PGRME,0.00,M,0.00,M,34.29,M*22
$GPGSV,3,1,11,25,59,080,55,13,74,045,40,27,48,180,14,23,42,067,21*7C
$GPGSV,3,2,11,02,40,289,05,04,48,233,20,16,14,046,00,08,21,192,00*71
$GPGSV,3,3,11,10,13,300,00,33,07,250,00,20,08,122,00*42
$GPGGA,133827,4940.9923,N,01052.7492,E,1,05,2.50,310.1,M,47.453,M,,*78
$GPRMC,133827,A,4940.9923,N,01052.7492,E,21.3588,91.645,050507,,*2A
$GPGSA,A,3,25,13,27,23,04,,,,,,,,8.9,7.1,5.3*36
$PGRME,0.00,M,0.00,M,20.81,M*25
$GPGSV,3,1,11,25,59,080,55,13,74,045,40,27,48,180,12,23,42,067,24*7F
$GPGSV,3,2,11,02,40,289,05,04,48,233,20,16,14,046,00,08,21,192,00*71
$GPGSV,3,3,11,10,13,300,00,33,07,250,00,20,08,122,00*42
$GPGGA,133828,4940.9919,N,01052.7585,E,1,04,7.10,309.4,M,47.453,M,,*74
$GPRMC,133828,A,4940.9919,N,01052.7585,E,20.6184,92.795,050507,,*28
$GPGSA,A,3,25,13,23,04,,,,,,,,,5.4,2.5,4.7*37
$PGRME,0.00,M,0.00,M,34.29,M*22
$GPGSV,3,1,11,25,59,080,55,13,74,045,39,27,48,180,14,23,42,067,22*71
$GPGSV,3,2,11,02,40,289,04,04,48,233,19,16,14,046,00,08,21,192,00*7A
$GPGSV,3,3,11,10,13,300,00,33,07,250,00,20,08,122,00*42
$GPGGA,133829,4940.9919,N,01052.7670,E,1,05,2.50,309.4,M,47.453,M,,*7C
$GPRMC,133829,A,4940.9919,N,01052.7670,E,19.5969,90.747,050507,,*2F
$GPGSA,A,3,25,13,27,23,04,,,,,,,,5.4,2.5,4.7*32
$PGRME,0.00,M,0.00,M,20.81,M*25
$GPGSV,3,1,11,25,59,080,57,13,74,045,39,27,48,180,14,23,42,067,24*75
$GPGSV,3,2,11,02,40,289,04,04,48,233,18,16,14,046,00,08,21,192,00*7B
$GPGSV,3,3,11,10,13,300,00,33,07,250,00,20,08,122,00*42
$GPGGA,133830,4940.9920,N,01052.7747,E,1,05,2.50,309.2,M,47.453,M,,*7D
$GPRMC,133830,A,4940.9920,N,01052.7747,E,16.3167,88.855,050507,,*22
$GPGSA,A,3,25,13,27,23,04,,,,,,,,5.4,2.5,4.7*32
$PGRME,0.00,M,0.00,M,20.81,M*25
$GPGSV,3,1,11,25,59,080,52,13,74,045,41,27,48,180,12,23,42,067,30*7C
$GPGSV,3,2,11,02,40,289,03,04,48,233,16,16,14,046,00,08,21,192,00*72
$GPGSV,3,3,11,10,13,300,00,33,07,250,00,20,08,122,00*42
$GPGGA,133831,4940.9919,N,01052.7805,E,1,05,2.50,309.4,M,47.453,M,,*79
$GPRMC,133831,A,4940.9919,N,01052.7805,E,10.1807,88.199,050507,,*22
$GPGSA,A,3,25,13,27,23,04,,,,,,,,5.4,2.5,4.7*32
$PGRME,0.00,M,0.00,M,20.81,M*25
$GPGSV,3,1,11,25,59,080,49,13,74,045,42,27,48,180,12,23,42,067,37*72
$GPGSV,3,2,11,02,40,289,00,04,48,233,17,16,14,046,00,08,21,192,09*79
$GPGSV,3,3,11,10,13,300,00,33,07,250,00,20,08,122,00*42
$GPGGA,133832,4940.9916,N,01052.7840,E,1,05,2.50,308.5,M,47.453,M,,*74
$GPRMC,133832,A,4940.9916,N,01052.7840,E,4.6638,98.032,050507,,*1E
$GPGSA,A,3,25,13,27,23,04,,,,,,,,5.4,2.5,4.7*32
$PGRME,0.00,M,0.00,M,20.81,M*25
$GPGSV,3,1,11,25,59,080,49,13,74,045,42,27,48,180,15,23,42,067,25*76
$GPGSV,3,2,11,02,40,289,00,04,48,233,15,16,14,046,00,08,21,192,09*7B
$GPGSV,3,3,11,10,13,300,00,33,07,250,00,20,08,122,00*42
$GPGGA,133833,4940.9911,N,01052.7856,E,1,05,2.50,308.0,M,47.453,M,,*70
$GPRMC,133833,A,4940.9911,N,01052.7856,E,4.2608,112.539,050507,,*25
$GPGSA,A,3,25,13,27,23,04,,,,,,,,5.4,2.5,4.7*32
$PGRME,0.00,M,0.00,M,20.81,M*25
$GPGSV,3,1,11,25,59,080,48,13,74,045,35,27,48,180,24,23,42,067,30*71
$GPGSV,3,2,11,02,40,289,00,04,48,233,19,16,14,046,00,08,21,192,06*78
$GPGSV,3,3,11,10,13,300,00,33,07,250,00,20,08,122,00*42
$GPGGA,133834,4940.9894,N,01052.7877,E,1,05,2.50,308.1,M,47.453,M,,*79
$GPRMC,133834,A,4940.9894,N,01052.7877,E,7.7970,134.532,050507,,*24
$GPGSA,A,3,25,13,27,23,04,,,,,,,,5.4,2.5,4.7*32
$PGRME,0.00,M,0.00,M,20.81,M*25
$GPGSV,3,1,11,25,59,080,41,13,74,045,26,27,48,180,22,23,42,067,37*7B
$GPGSV,3,2,11,02,40,289,00,04,48,233,21,16,14,046,00,08,21,192,11*75
$GPGSV,3,3,11,10,13,300,00,33,07,250,00,20,08,122,00*42
$GPGGA,133835,4940.9872,N,01052.7907,E,1,05,2.50,307.6,M,47.453,M,,*7E
$GPRMC,133835,A,4940.9872,N,01052.7907,E,10.0127,162.147,050507,,*15
$GPGSA,A,3,25,13,27,23,04,,,,,,,,5.4,2.5,4.7*32
$PGRME,0.00,M,0.00,M,20.81,M*25
$GPGSV,3,1,11,25,59,080,36,13,74,045,38,27,48,180,35,23,42,067,29*7D
$GPGSV,3,2,11,02,40,289,12,04,48,233,22,16,14,046,00,08,21,192,11*75
$GPGSV,3,3,11,10,13,300,00,33,07,250,00,20,08,122,00*42
$GPGGA,133836,4940.9836,N,01052.7923,E,1,05,2.50,308.1,M,47.453,M,,*73
$GPRMC,133836,A,4940.9836,N,01052.7923,E,12.4557,173.157,050507,,*14
$GPGSA,A,3,25,13,27,23,04,,,,,,,,5.4,2.5,4.7*32
$PGRME,0.00,M,0.00,M,20.81,M*25
$GPGSV,3,1,11,25,59,080,31,13,74,045,48,27,48,180,29,23,42,067,31*79
$GPGSV,3,2,11,02,40,289,20,04,48,233,14,16,14,046,00,08,21,192,07*76
$GPGSV,3,3,11,10,13,300,00,33,07,250,00,20,08,122,00*42
$GPGGA,133837,4940.9791,N,01052.7937,E,1,05,2.50,309.9,M,47.453,M,,*7C
$GPRMC,133837,A,4940.9791,N,01052.7937,E,16.1917,170.996,050507,,*1D
$GPGSA,A,3,25,13,27,23,04,,,,,,,,4.3,1.4,4.0*31
$PGRME,0.00,M,0.00,M,20.81,M*25
$GPGSV,3,1,11,25,59,080,40,13,74,045,52,27,48,180,27,23,42,067,27*7D
$GPGSV,3,2,11,02,40,289,20,04,48,233,18,16,14,046,00,08,21,192,05*78
$GPGSV,3,3,11,10,13,300,00,33,07,250,00,20,08,122,00*42
$GPGGA,133838,4940.9740,N,01052.7950,E,1,06,1.40,310.1,M,47.453,M,,*7F
$GPRMC,133838,A,4940.9740,N,01052.7950,E,19.8443,168.709,050507,,*14
$GPGSA,A,3,25,13,27,23,02,04,,,,,,,4.3,1.4,4.0*33
$PGRME,0.00,M,0.00,M,16.57,M*2B
$GPGSV,3,1,11,25,59,080,38,13,74,045,53,27,48,180,24,23,42,067,23*74
$GPGSV,3,2,11,02,40,289,16,04,48,233,24,16,14,046,00,08,21,192,00*77
$GPGSV,3,3,11,10,13,300,00,33,07,250,00,20,08,122,00*42
$GPGGA,133839,4940.9684,N,01052.7962,E,1,06,1.40,311.0,M,47.452,M,,*77
$GPRMC,133839,A,4940.9684,N,01052.7962,E,20.2664,170.466,050507,,*19
$GPGSA,A,3,25,13,27,23,02,04,,,,,,,5.4,2.5,4.7*30
$PGRME,0.00,M,0.00,M,16.57,M*2B
$GPGSV,3,1,11,25,59,080,39,13,74,045,50,27,48,180,24,23,42,067,27*72
$GPGSV,3,2,11,02,40,289,10,04,48,233,23,16,14,046,00,08,21,192,00*76
$GPGSV,3,3,11,10,13,300,00,33,07,250,00,20,08,122,00*42
$GPGGA,133840,4940.9615,N,01052.7988,E,1,05,2.50,312.6,M,47.452,M,,*71
$GPRMC,133840,A,4940.9615,N,01052.7988,E,23.5276,170.131,050507,,*1F
$GPGSA,A,3,25,13,27,23,04,,,,,,,,5.4,2.5,4.7*32
$PGRME,0.00,M,0.00,M,20.81,M*25
$GPGSV,3,1,11,25,59,080,34,13,74,045,54,27,48,180,26,23,42,067,33*7C
$GPGSV,3,2,11,02,40,289,12,04,48,233,16,16,14,046,00,08,21,192,00*72
$GPGSV,3,3,11,10,13,300,00,33,07,250,00,20,08,122,00*42
$GPGGA,133841,4940.9553,N,01052.7999,E,1,05,2.50,312.0,M,47.452,M,,*77
$GPRMC,133841,A,4940.9553,N,01052.7999,E,24.6410,174.422,050507,,*1E
$GPGSA,A,3,25,13,27,23,04,,,,,,,,4.3,1.4,4.0*31
$PGRME,0.00,M,0.00,M,20.81,M*25
$GPGSV,3,1,11,25,59,080,30,13,74,045,55,27,48,180,27,23,42,067,39*72
$GPGSV,3,2,11,02,40,289,18,04,48,233,19,16,14,046,00,08,21,192,00*77
$GPGSV,3,3,11,10,13,300,00,33,07,250,00,20,08,122,00*42
$GPGGA,133842,4940.9478,N,01052.8007,E,1,06,1.40,313.2,M,47.452,M,,*7F
$GPRMC,133842,A,4940.9478,N,01052.8007,E,27.1212,178.289,050507,,*1F
$GPGSA,A,3,25,13,27,23,02,04,,,,,,,4.3,1.4,4.0*33
$PGRME,0.00,M,0.00,M,16.57,M*2B
$GPGSV,3,1,11,25,59,080,30,13,74,045,57,27,48,180,27,23,42,067,35*7C
$GPGSV,3,2,11,02,40,289,25,04,48,233,21,16,14,046,00,08,21,192,00*72
$GPGSV,3,3,11,10,13,300,00,33,07,250,00,20,08,122,00*42
$GPGGA,133843,4940.9397,N,01052.8006,E,1,06,1.40,312.8,M,47.452,M,,*72
$GPRMC,133843,A,4940.9397,N,01052.8006,E,26.8379,180.795,050507,,*12
$GPGSA,A,3,25,13,27,23,02,04,,,,,,,4.3,1.4,4.0*33
$PGRME,0.00,M,0.00,M,16.57,M*2B
$GPGSV,3,1,11,25,59,080,33,13,74,045,57,27,48,180,30,23,42,067,32*7E
$GPGSV,3,2,11,02,40,289,26,04,48,233,21,16,14,046,00,08,21,192,00*71
$GPGSV,3,3,11,10,13,300,00,33,07,250,00,20,08,122,00*42
$GPGGA,133844,4940.9324,N,01052.7997,E,1,06,1.40,313.8,M,47.452,M,,*72
$GPRMC,133844,A,4940.9324,N,01052.7997,E,26.9673,183.711,050507,,*12
$GPGSA,A,3,25,13,27,23,02,04,,,,,,,4.3,1.4,4.0*33
$PGRME,0.00,M,0.00,M,16.57,M*2B
$GPGSV,3,1,11,25,59,080,34,13,74,045,57,27,48,180,31,23,42,067,40*7D
$GPGSV,3,2,11,02,40,289,30,04,48,233,27,16,14,046,00,08,21,192,00*70
$GPGSV,3,3,11,10,13,300,00,33,07,250,00,20,08,122,00*42
$GPGGA,133845,4940.9247,N,01052.7988,E,1,06,1.40,314.1,M,47.452,M,,*77
$GPRMC,133845,A,4940.9247,N,01052.7988,E,27.4863,185.467,050507,,*1E
$GPGSA,A,3,25,13,27,23,02,04,,,,,,,4.3,1.4,4.0*33
$PGRME,0.00,M,0.00,M,16.57,M*2B
$GPGSV,3,1,11,25,59,080,35,13,74,045,56,27,48,180,32,23,42,067,38*71
$GPGSV,3,2,11,02,40,289,29,04,48,233,30,16,14,046,00,08,21,192,00*7E
$GPGSV,3,3,11,10,13,300,00,33,07,250,00,20,08,122,00*42
$GPGGA,133846,4940.9168,N,01052.7970,E,1,06,1.40,313.4,M,47.452,M,,*7F
$GPRMC,133846,A,4940.9168,N,01052.7970,E,27.4519,188.284,050507,,*12
$GPGSA,A,3,25,13,27,23,02,04,,,,,,,4.3,1.4,4.0*33
$PGRME,0.00,M,0.00,M,16.57,M*2B
$GPGSV,3,1,11,25,59,080,43,13,74,045,54,27,48,180,34,23,42,067,39*75
$GPGSV,3,2,11,02,40,289,30,04,48,233,35,16,14,046,00,08,21,192,00*73
$GPGSV,3,3,11,10,13,300,00,33,07,250,00,20,08,122,00*42
$GPGGA,133847,4940.9092,N,01052.7951,E,1,06,1.40,315.0,M,47.452,M,,*7B
$GPRMC,133847,A,4940.9092,N,01052.7951,E,25.7113,190.942,050507,,*13
$GPGSA,A,3,25,13,27,23,02,04,,,,,,,4.3,1.4,4.0*33
$PGRME,0.00,M,0.00,M,16.57,M*2B
$GPGSV,3,1,11,25,59,080,42,13,74,045,55,27,48,180,32,23,42,067,29*72
$GPGSV,3,2,11,02,40,289,24,04,48,233,36,16,14,046,00,08,21,192,00*75
$GPGSV,3,3,11,10,13,300,00,33,07,250,00,20,08,122,00*42
$GPGGA,133848,4940.9028,N,01052.7919,E,1,06,1.40,315.7,M,47.452,M,,*7E
$GPRMC,133848,A,4940.9028,N,01052.7919,E,24.3257,194.360,050507,,*19
$GPGSA,A,3,25,13,27,23,02,04,,,,,,,4.3,1.4,4.0*33
$PGRME,0.00,M,0.00,M,16.57,M*2B
$GPGSV,3,1,11,25,59,079,43,13,74,045,54,27,48,180,32,23,42,067,33*7F
$GPGSV,3,2,11,02,40,289,20,04,48,233,36,16,14,046,00,08,21,192,00*71
$GPGSV,3,3,11,10,13,300,00,33,07,250,00,20,08,122,00*42
$GPGGA,133849,4940.8962,N,01052.7887,E,1,06,1.40,315.7,M,47.453,M,,*7E
$GPRMC,133849,A,4940.8962,N,01052.7887,E,22.7648,197.101,050507,,*16
$GPGSA,A,3,25,13,27,23,02,04,,,,,,,4.3,1.4,4.0*33
$PGRME,0.00,M,0.00,M,16.57,M*2B
$GPGSV,3,1,11,25,59,079,42,13,74,045,51,27,48,180,32,23,42,067,37*7F
$GPGSV,3,2,11,02,40,289,26,04,48,233,36,16,14,046,00,08,21,192,00*77
$GPGSV,3,3,11,10,13,300,00,33,07,250,00,20,08,122,00*42
$GPGGA,133850,4940.8907,N,01052.7849,E,1,06,1.40,316.5,M,47.453,M,,*76
$GPRMC,133850,A,4940.8907,N,01052.7849,E,21.3575,200.458,050507,,*11
$GPGSA,A,3,25,13,27,23,02,04,,,,,,,5.4,2.5,4.7*30
$PGRME,0.00,M,0.00,M,16.57,M*2B
$GPGSV,3,1,11,25,59,079,41,13,74,045,49,27,49,180,30,23,42,067,40*76
$GPGSV,3,2,11,02,40,289,16,04,48,233,40,16,14,046,00,08,21,192,00*75
$GPGSV,3,3,11,10,13,300,00,33,07,250,00,20,08,122,00*42
$GPGGA,133851,4940.8855,N,01052.7820,E,1,05,2.50,316.8,M,47.453,M,,*72
$GPRMC,133851,A,4940.8855,N,01052.7820,E,19.9986,202.532,050507,,*17
$GPGSA,A,3,25,13,27,23,04,,,,,,,,4.3,1.4,4.0*31
$PGRME,0.00,M,0.00,M,20.81,M*25
$GPGSV,3,1,11,25,59,079,39,13,74,045,46,27,49,180,23,23,42,067,38*7B
$GPGSV,3,2,11,02,40,289,21,04,48,233,45,16,14,046,00,08,21,192,00*74
$GPGSV,3,3,11,10,13,300,00,33,07,250,00,20,08,122,00*42
$GPGGA,133852,4940.8808,N,01052.7783,E,1,06,1.40,317.7,M,47.453,M,,*70
$GPRMC,133852,A,4940.8808,N,01052.7783,E,18.2505,205.669,050507,,*1D
$GPGSA,A,3,25,13,27,23,02,04,,,,,,,4.3,1.4,4.0*33
$PGRME,0.00,M,0.00,M,16.57,M*2B
$GPGSV,3,1,11,25,59,079,41,13,74,045,45,27,49,180,18,23,42,067,35*72
$GPGSV,3,2,11,02,40,289,23,04,48,233,48,16,14,046,00,08,21,192,00*7B
$GPGSV,3,3,11,10,13,300,00,33,07,250,00,20,08,122,00*42
$GPGGA,133853,4940.8757,N,01052.7746,E,1,06,1.40,317.8,M,47.453,M,,*72
$GPRMC,133853,A,4940.8757,N,01052.7746,E,16.2123,208.623,050507,,*1D
$GPGSA,A,3,25,13,27,23,02,04,,,,,,,6.9,4.3,5.4*3C
$PGRME,0.00,M,0.00,M,16.57,M*2B
$GPGSV,3,1,11,25,59,079,43,13,74,045,44,27,49,180,13,23,42,067,34*7B
$GPGSV,3,2,11,02,40,289,24,04,48,233,48,16,14,046,00,08,21,192,20*7E
$GPGSV,3,3,11,10,13,300,00,33,07,250,00,20,08,122,00*42
$GPGGA,133854,4940.8725,N,01052.7713,E,1,05,4.30,317.6,M,47.453,M,,*7F
$GPRMC,133854,A,4940.8725,N,01052.7713,E,13.0332,211.626,050507,,*17
$GPGSA,A,3,25,13,23,04,08,,,,,,,,3.0,1.3,2.7*3E
$PGRME,0.00,M,0.00,M,26.59,M*26
$GPGSV,3,1,11,25,59,079,45,13,74,045,44,27,49,180,18,23,42,067,28*7B
$GPGSV,3,2,11,02,40,289,21,04,48,233,46,16,14,046,00,08,21,192,24*71
$GPGSV,3,3,11,10,13,300,00,33,07,250,00,20,08,122,00*42
$GPGGA,133855,4940.8693,N,01052.7691,E,1,07,1.30,316.1,M,47.453,M,,*78
$GPRMC,133855,A,4940.8693,N,01052.7691,E,11.0325,214.165,050507,,*10
$GPGSA,A,3,25,13,27,23,02,04,08,,,,,,3.0,1.3,2.7*39
$PGRME,0.00,M,0.00,M,11.56,M*2D
$GPGSV,3,1,11,25,59,079,42,13,74,045,44,27,49,180,24,23,42,067,21*7A
$GPGSV,3,2,11,02,40,289,22,04,48,233,34,16,14,046,00,08,21,192,31*73
$GPGSV,3,3,11,10,13,300,00,33,07,250,00,20,08,122,00*42
$GPGGA,133856,4940.8676,N,01052.7662,E,1,07,1.30,316.1,M,47.453,M,,*7C
$GPRMC,133856,A,4940.8676,N,01052.7662,E,8.8942,216.519,050507,,*22
$GPGSA,A,3,25,13,27,23,02,04,08,,,,,,4.2,2.5,3.3*3C
$PGRME,0.00,M,0.00,M,11.56,M*2D
$GPGSV,3,1,11,25,59,079,41,13,74,045,48,27,49,180,29,23,42,067,16*7C
$GPGSV,3,2,11,02,40,289,14,04,48,233,26,16,14,046,00,08,21,192,29*7C
$GPGSV,3,3,11,10,13,300,00,33,07,250,00,20,08,122,00*42
$GPGGA,133857,4940.8655,N,01052.7631,E,1,06,2.50,316.7,M,47.453,M,,*78
$GPRMC,133857,A,4940.8655,N,01052.7631,E,5.4550,213.117,050507,,*25
$GPGSA,A,3,25,13,27,23,04,08,,,,,,,4.0,1.7,3.5*3B
$PGRME,0.00,M,0.00,M,16.18,M*20
$GPGSV,3,1,11,25,59,079,39,13,74,045,49,27,49,180,29,23,42,067,11*75
$GPGSV,3,2,11,02,40,289,16,04,48,233,24,16,14,046,00,08,21,192,30*74
$GPGSV,3,3,11,10,13,300,00,33,07,250,00,20,08,122,00*42
$GPGGA,133858,4940.8648,N,01052.7620,E,1,06,1.70,317.9,M,47.453,M,,*75
$GPRMC,133858,A,4940.8648,N,01052.7620,E,1.0834,224.814,050507,,*27
$GPGSA,A,3,25,13,27,02,04,08,,,,,,,4.2,2.5,3.3*3D
$PGRME,0.00,M,0.00,M,15.41,M*2F
$GPGSV,3,1,11,25,59,079,39,13,74,045,44,27,49,180,30,23,42,067,15*74
$GPGSV,3,2,11,02,40,289,13,04,47,232,31,16,14,046,00,08,21,192,33*78
$GPGSV,3,3,11,10,13,300,00,33,07,250,00,20,08,122,00*42
$GPGGA,133859,4940.8648,N,01052.7620,E,1,06,2.50,317.9,M,47.453,M,,*75
$GPRMC,133859,A,4940.8648,N,01052.7620,E,0.1258,0.000,050507,,*2F
$GPGSA,A,3,25,13,27,23,04,08,,,,,,,3.0,1.3,2.7*3B
$PGRME,0.00,M,0.00,M,16.18,M*20
$GPGSV,3,1,11,25,59,079,43,13,74,045,48,27,49,180,27,23,42,067,18*7E
$GPGSV,3,2,11,02,40,289,13,04,47,232,30,16,14,046,00,08,21,192,32*78
$GPGSV,3,3,11,10,13,300,00,33,07,250,00,20,08,122,00*42
$GPGGA,133900,4940.8644,N,01052.7620,E,1,07,1.30,317.1,M,47.453,M,,*78
$GPRMC,133900,A,4940.8644,N,01052.7620,E,0.0000,0.000,050507,,*20
$GPGSA,A,3,25,13,27,23,02,04,08,,,,,,4.2,2.5,3.3*3C
$PGRME,0.00,M,0.00,M,11.56,M*2D
$GPGSV,3,1,11,25,59,079,46,13,74,045,47,27,49,180,23,23,42,067,17*7F
$GPGSV,3,2,11,02,40,289,08,04,47,232,35,16,14,046,00,08,21,192,33*76
$GPGSV,3,3,11,10,13,300,00,33,07,250,00,20,08,122,00*42
$GPGGA,133901,4940.8648,N,01052.7631,E,1,06,2.50,315.2,M,47.453,M,,*70
$GPRMC,133901,A,4940.8648,N,01052.7631,E,0.0000,0.000,050507,,*2D
$GPGSA,A,3,25,13,27,23,04,08,,,,,,,4.2,2.5,3.3*3E
$PGRME,0.00,M,0.00,M,16.18,M*20
$GPGSV,3,1,11,25,59,079,50,13,74,045,48,27,49,180,21,23,42,067,18*7A
$GPGSV,3,2,11,02,40,289,07,04,47,232,35,16,14,046,00,08,21,192,37*7D
$GPGSV,3,3,11,10,13,300,00,33,07,250,00,20,08,122,00*42
$GPGGA,133902,4940.8653,N,01052.7634,E,1,06,2.50,313.2,M,47.453,M,,*7A
$GPRMC,133902,A,4940.8653,N,01052.7634,E,0.0000,0.000,050507,,*21
$GPGSA,A,3,25,13,27,23,04,08,,,,,,,4.2,2.5,3.3*3E
$PGRME,0.00,M,0.00,M,16.18,M*20
$GPGSV,3,1,11,25,59,079,54,13,74,045,49,27,49,180,22,23,42,067,17*73
$GPGSV,3,2,11,02,40,289,07,04,47,232,37,16,14,046,00,08,22,192,40*7C
$GPGSV,3,3,11,10,13,300,00,33,07,250,00,20,08,122,00*42
$GPGGA,133903,4940.8653,N,01052.7636,E,1,06,2.50,311.8,M,47.453,M,,*71
$GPRMC,133903,A,4940.8653,N,01052.7636,E,0.0000,0.000,050507,,*22
$GPGSA,A,3,25,13,27,23,04,08,,,,,,,4.2,2.5,3.3*3E
$PGRME,0.00,M,0.00,M,16.18,M*20
$GPGSV,3,1,11,25,59,079,55,13,74,045,49,27,49,180,23,23,42,067,16*72
$GPGSV,3,2,11,02,40,289,06,04,47,232,38,16,14,046,00,08,22,192,41*73
$GPGSV,3,3,11,10,13,300,00,33,07,250,00,20,08,122,00*42
$GPGGA,133904,4940.8650,N,01052.7645,E,1,06,2.50,309.8,M,47.453,M,,*78
$GPRMC,133904,A,4940.8650,N,01052.7645,E,0.0000,0.000,050507,,*22
$GPGSA,A,3,25,13,27,23,04,08,,,,,,,4.2,2.5,3.3*3E
$PGRME,0.00,M,0.00,M,16.18,M*20
$GPGSV,3,1,11,25,59,079,56,13,74,045,49,27,49,180,23,23,42,067,16*71
$GPGSV,3,2,11,02,40,289,06,04,47,232,39,16,14,046,00,08,22,192,41*72
$GPGSV,3,3,11,10,13,300,00,33,07,250,00,20,08,122,00*42
$GPGGA,133905,4940.8654,N,01052.7639,E,1,06,2.50,309.0,M,47.453,M,,*7E
$GPRMC,133905,A,4940.8654,N,01052.7639,E,0.0000,0.000,050507,,*2C
$GPGSA,A,3,25,13,27,23,04,08,,,,,,,4.2,2.5,3.3*3E
$PGRME,0.00,M,0.00,M,16.18,M*20
$GPGSV,3,1,11,25,59,079,56,13,74,045,48,27,49,180,24,23,42,067,16*77
$GPGSV,3,2,11,02,40,289,07,04,47,232,39,16,14,046,20,08,22,192,41*71
$GPGSV,3,3,11,10,13,300,00,33,07,250,00,20,08,122,00*42
$GPGGA,133906,4940.8654,N,01052.7639,E,1,06,2.50,309.0,M,47.453,M,,*7D
$GPRMC,133906,A,4940.8654,N,01052.7639,E,0.0000,0.000,050507,,*2F
$GPGSA,A,3,25,13,27,23,04,08,,,,,,,5.7,3.0,4.8*32
$PGRME,0.00,M,0.00,M,16.18,M*20
