{"class":"VERSION","release":"2.92","rev":"svn","proto_major":3,"proto_minor":1}
{"class":"DEVICES","devices":[{"class":"DEVICE","path":"/dev/ttyUSB0","activated":1292698679.49,"flags":1,"driver":"SiRF binary","subtype":"GSW3.5.0_3.5.00.00-SDK-3EP2.01 ","native":1,"bps":4800,"parity":"N","stopbits":1,"cycle":1.00}]}
{"class":"WATCH","enable":true,"json":false,"nmea":true,"raw":0,"scaled":false,"timing":false}
$GPGGA,185800,5018.2193,N,00918.0199,E,2,10,0.80,163.72,M,47.732,M,,*4C
$GPRMC,185800,A,5018.2193,N,00918.0199,E,0.0000,0.000,181210,,*26
$GPGSA,A,3,23,13,10,07,04,20,02,16,08,05,,,0.0,0.8,0.0*31
$GPGGA,185801,5018.2193,N,00918.0199,E,2,10,0.80,163.72,M,47.732,M,,*4D
$GPRMC,185801,A,5018.2193,N,00918.0199,E,0.0000,0.000,181210,,*27
$GPGSA,A,3,23,13,10,07,04,20,02,16,08,05,,,0.0,0.8,0.0*31
$GPGSV,3,1,12,23,44,066,37,13,78,046,42,10,52,295,41,04,50,237,45*7F
$GPGSV,3,2,12,20,15,120,36,02,41,289,42,16,15,055,29,07,42,172,41*71
$GPGSV,3,3,12,30,04,018,23,08,13,189,34,05,07,297,18,120,27,210,42*4C
$GPGGA,185802,5018.2193,N,00918.0199,E,2,10,0.80,163.72,M,47.732,M,,*4E
$GPRMC,185802,A,5018.2193,N,00918.0199,E,0.0000,0.000,181210,,*24
$GPGSA,A,3,23,13,10,07,04,20,02,16,08,05,,,1.5,0.8,1.2*36
$GPGGA,185803,5018.2193,N,00918.0199,E,2,10,0.80,163.72,M,47.732,M,,*4F
$GPRMC,185803,A,5018.2193,N,00918.0199,E,0.0000,0.000,181210,,*25
$GPGSA,A,3,23,13,10,07,04,20,02,16,08,05,,,0.0,0.8,0.0*31
$GPGGA,185804,5018.2193,N,00918.0199,E,2,10,0.80,163.72,M,47.732,M,,*48
$GPRMC,185804,A,5018.2193,N,00918.0199,E,0.0000,0.000,181210,,*22
$GPGSA,A,3,23,13,10,07,04,20,02,16,08,05,,,0.0,0.8,0.0*31
$GPGSV,3,1,12,23,44,066,37,13,78,046,42,10,52,295,41,04,50,237,45*7F
$GPGSV,3,2,12,20,15,120,36,02,41,289,42,16,15,055,29,07,42,172,41*71
$GPGSV,3,3,12,30,04,018,23,08,13,189,34,05,07,297,18,120,27,210,42*4C
$GPGGA,185805,5018.2193,N,00918.0199,E,2,10,0.80,163.72,M,47.732,M,,*49
$GPRMC,185805,A,5018.2193,N,00918.0199,E,0.0000,0.000,181210,,*23
$GPGSA,A,3,23,13,10,07,04,20,02,16,08,05,,,1.5,0.8,1.2*36
$GPGGA,185806,5018.2193,N,00918.0199,E,2,10,0.80,163.72,M,47.732,M,,*4A
$GPRMC,185806,A,5018.2193,N,00918.0199,E,0.0000,0.000,181210,,*20
$GPGSA,A,3,23,13,10,07,04,20,02,16,08,05,,,0.0,0.8,0.0*31
$GPGGA,185807,5018.2193,N,00918.0199,E,2,10,0.80,163.72,M,47.732,M,,*4B
$GPRMC,185807,A,5018.2193,N,00918.0199,E,0.0000,0.000,181210,,*21
$GPGSA,A,3,23,13,10,07,04,20,02,16,08,05,,,0.0,0.8,0.0*31
$GPGSV,3,1,12,23,44,066,38,13,78,046,42,10,52,295,41,04,50,237,45*70
$GPGSV,3,2,12,20,15,120,36,02,41,289,42,16,15,055,29,07,42,172,42*72
$GPGSV,3,3,12,30,04,018,00,08,13,189,34,05,07,297,20,120,27,210,41*45
$GPGGA,185808,5018.2193,N,00918.0199,E,2,10,0.80,163.72,M,47.732,M,,*44
$GPRMC,185808,A,5018.2193,N,00918.0199,E,0.0000,0.000,181210,,*2E
$GPGSA,A,3,23,13,10,07,04,20,02,16,08,05,,,1.5,0.8,1.2*36
$GPGGA,185809,5018.2193,N,00918.0199,E,2,10,0.80,163.72,M,47.732,M,,*45
$GPRMC,185809,A,5018.2193,N,00918.0199,E,0.0000,0.000,181210,,*2F
$GPGSA,A,3,23,13,10,07,04,20,02,16,08,05,,,0.0,0.8,0.0*31
$GPGGA,185810,5018.2193,N,00918.0199,E,2,10,0.80,163.72,M,47.732,M,,*4D
$GPRMC,185810,A,5018.2193,N,00918.0199,E,0.0000,0.000,181210,,*27
$GPGSA,A,3,23,13,10,07,04,20,02,16,08,05,,,0.0,0.8,0.0*31
$GPGSV,3,1,11,23,44,066,38,13,78,046,42,10,52,295,40,04,50,237,44*73
$GPGSV,3,2,11,20,15,120,36,02,41,289,42,16,15,055,30,07,42,172,41*7A
$GPGSV,3,3,11,08,13,189,30,05,07,297,25,120,27,210,40*78
$GPGGA,185811,5018.2189,N,00918.0197,E,2,10,0.80,164.35,M,47.732,M,,*4D
$GPRMC,185811,A,5018.2189,N,00918.0197,E,0.0000,0.000,181210,,*23
$GPGSA,A,3,23,13,10,07,04,20,02,16,08,05,,,1.4,0.8,1.1*34
$GPGGA,185812,5018.2189,N,00918.0197,E,2,10,0.80,164.35,M,47.732,M,,*4E
$GPRMC,185812,A,5018.2189,N,00918.0197,E,0.0000,0.000,181210,,*20
$GPGSA,A,3,23,13,10,07,04,20,02,16,08,05,,,0.0,0.8,0.0*31
$GPGGA,185813,5018.2189,N,00918.0197,E,2,10,0.80,164.35,M,47.732,M,,*4F
$GPRMC,185813,A,5018.2189,N,00918.0197,E,0.0000,0.000,181210,,*21
$GPGSA,A,3,23,13,10,07,04,20,02,16,08,05,,,0.0,0.8,0.0*31
$GPGSV,3,1,11,23,44,066,39,13,78,046,41,10,52,295,40,04,50,237,43*76
$GPGSV,3,2,11,20,15,120,35,02,41,289,42,16,15,055,31,07,42,172,39*77
$GPGSV,3,3,11,08,13,189,27,05,07,297,24,120,27,210,40*7F
$GPGGA,185814,5018.2189,N,00918.0197,E,2,10,0.80,164.35,M,47.732,M,,*48
$GPRMC,185814,A,5018.2189,N,00918.0197,E,0.0000,0.000,181210,,*26
$GPGSA,A,3,23,13,10,07,04,20,02,16,08,05,,,1.4,0.8,1.1*34
$GPGGA,185815,5018.2189,N,00918.0197,E,2,10,0.80,164.35,M,47.732,M,,*49
$GPRMC,185815,A,5018.2189,N,00918.0197,E,0.0000,0.000,181210,,*27
$GPGSA,A,3,23,13,10,07,04,20,02,16,08,05,,,0.0,0.8,0.0*31
$GPGGA,185816,5018.2189,N,00918.0197,E,2,10,0.80,164.35,M,47.732,M,,*4A
$GPRMC,185816,A,5018.2189,N,00918.0197,E,0.0000,0.000,181210,,*24
$GPGSA,A,3,23,13,10,07,04,20,02,16,08,05,,,0.0,0.8,0.0*31
$GPGSV,3,1,11,23,44,066,39,13,78,046,40,10,52,295,40,04,50,237,43*77
$GPGSV,3,2,11,20,15,120,35,02,41,289,42,16,15,055,32,07,42,172,37*7A
$GPGSV,3,3,11,08,13,189,27,05,07,297,24,120,27,210,39*71
$GPGGA,185817,5018.2189,N,00918.0197,E,2,10,0.80,164.35,M,47.732,M,,*4B
$GPRMC,185817,A,5018.2189,N,00918.0197,E,0.0000,0.000,181210,,*25
$GPGSA,A,3,23,13,10,07,04,20,02,16,08,05,,,1.4,0.8,1.1*34
$GPGGA,185818,5018.2189,N,00918.0197,E,2,10,0.80,164.35,M,47.732,M,,*44
$GPRMC,185818,A,5018.2189,N,00918.0197,E,0.1886,192.015,181210,,*23
$GPGSA,A,3,23,13,10,07,04,20,02,16,08,05,,,0.0,0.8,0.0*31
$GPGGA,185819,5018.2189,N,00918.0197,E,2,10,0.80,164.35,M,47.732,M,,*45
$GPRMC,185819,A,5018.2189,N,00918.0197,E,0.1552,0.000,181210,,*28
$GPGSA,A,3,23,13,10,07,04,20,02,16,08,05,,,0.0,0.8,0.0*31
$GPGSV,3,1,11,23,44,066,39,13,78,046,40,10,52,295,40,04,50,237,43*77
$GPGSV,3,2,11,20,15,120,34,02,41,289,42,16,15,055,32,07,42,172,37*7B
$GPGSV,3,3,11,08,13,189,22,05,07,297,24,120,27,210,39*74
$GPGGA,185820,5018.2189,N,00918.0197,E,2,10,0.80,164.35,M,47.732,M,,*4F
$GPRMC,185820,A,5018.2189,N,00918.0197,E,0.1552,0.000,181210,,*22
$GPGSA,A,3,23,13,10,07,04,20,02,16,08,05,,,1.4,0.8,1.1*34
$GPGGA,185821,5018.2189,N,00918.0197,E,2,10,0.80,164.35,M,47.732,M,,*4E
$GPRMC,185821,A,5018.2189,N,00918.0197,E,0.0490,233.267,181210,,*2C
$GPGSA,A,3,23,13,10,07,04,20,02,16,08,05,,,0.0,0.8,0.0*31
$GPGGA,185822,5018.2185,N,00918.0196,E,2,10,0.80,164.98,M,47.732,M,,*47
$GPRMC,185822,A,5018.2185,N,00918.0196,E,0.5774,163.783,181210,,*27
$GPGSA,A,3,23,13,10,07,04,20,02,16,08,05,,,0.0,0.8,0.0*31
$GPGSV,3,1,11,23,44,066,39,13,78,046,39,10,52,295,40,04,50,237,42*78
$GPGSV,3,2,11,20,15,120,28,02,41,289,42,16,15,055,29,07,42,172,37*7C
$GPGSV,3,3,11,08,13,189,35,05,07,297,24,120,27,210,39*72
$GPGGA,185823,5018.2184,N,00918.0204,E,2,10,0.80,165.09,M,47.732,M,,*46
$GPRMC,185823,A,5018.2184,N,00918.0204,E,1.2952,139.490,181210,,*2D
$GPGSA,A,3,23,13,10,07,04,20,02,16,08,05,,,1.4,0.8,1.1*34
$GPGGA,185824,5018.2181,N,00918.0204,E,2,10,0.80,164.32,M,47.732,M,,*4D
$GPRMC,185824,A,5018.2181,N,00918.0204,E,2.5434,145.437,181210,,*20
$GPGSA,A,3,23,13,10,07,04,20,02,16,08,05,,,0.0,0.8,0.0*31
$GPGGA,185825,5018.2173,N,00918.0211,E,2,10,0.80,164.28,M,47.732,M,,*4E
$GPRMC,185825,A,5018.2173,N,00918.0211,E,3.2508,144.599,181210,,*24
$GPGSA,A,3,23,13,10,07,04,20,02,16,08,05,,,0.0,0.8,0.0*31
$GPGSV,3,1,12,23,44,066,38,13,78,046,37,10,52,295,39,04,50,237,42*7A
$GPGSV,3,2,12,20,15,120,30,02,41,289,42,16,15,055,32,07,42,172,38*73
$GPGSV,3,3,12,30,04,018,21,08,13,189,36,05,07,297,24,120,27,210,35*43
$GPGGA,185826,5018.2164,N,00918.0226,E,2,10,0.80,164.35,M,47.732,M,,*43
$GPRMC,185826,A,5018.2164,N,00918.0226,E,3.8342,142.699,181210,,*22
$GPGSA,A,3,23,13,10,07,04,20,02,16,08,05,,,1.5,0.8,1.2*36
$GPGGA,185827,5018.2156,N,00918.0233,E,2,10,0.80,164.31,M,47.732,M,,*43
$GPRMC,185827,A,5018.2156,N,00918.0233,E,4.2510,144.231,181210,,*2A
$GPGSA,A,3,23,13,10,07,04,20,02,16,08,05,,,0.0,0.8,0.0*31
$GPGGA,185828,5018.2147,N,00918.0249,E,2,10,0.80,164.38,M,47.732,M,,*48
$GPRMC,185828,A,5018.2147,N,00918.0249,E,4.9292,147.534,181210,,*2F
$GPGSA,A,3,23,13,10,07,04,20,02,16,08,05,,,0.0,0.8,0.0*31
$GPGSV,3,1,12,23,44,066,35,13,78,046,36,10,52,295,39,04,50,237,42*76
$GPGSV,3,2,12,20,15,120,28,02,41,289,42,16,15,055,37,07,42,172,39*7E
$GPGSV,3,3,12,30,04,018,20,08,13,189,36,05,07,297,33,120,27,210,36*47
$GPGGA,185829,5018.2135,N,00918.0254,E,2,10,0.80,164.97,M,47.732,M,,*45
$GPRMC,185829,A,5018.2135,N,00918.0254,E,5.2025,153.422,181210,,*20
$GPGSA,A,3,23,13,10,07,04,20,02,16,08,05,,,1.5,0.8,1.2*36
$GPGGA,185830,5018.2123,N,00918.0261,E,2,10,0.80,164.17,M,47.732,M,,*44
$GPRMC,185830,A,5018.2123,N,00918.0261,E,4.8066,157.388,181210,,*26
$GPGSA,A,3,23,13,10,07,04,20,02,16,08,05,,,0.0,0.8,0.0*31
$GPGGA,185831,5018.2111,N,00918.0268,E,2,10,0.80,163.36,M,47.732,M,,*49
$GPRMC,185831,A,5018.2111,N,00918.0268,E,3.5399,158.701,181210,,*2C
$GPGSA,A,3,23,13,10,07,04,20,02,16,08,05,,,0.0,0.8,0.0*31
$GPGSV,3,1,12,23,44,066,30,13,78,046,35,10,52,295,38,04,50,237,39*7D
$GPGSV,3,2,12,20,15,120,37,02,41,289,41,16,15,055,26,07,42,172,41*7C
$GPGSV,3,3,12,30,04,018,21,08,13,189,39,05,07,297,32,120,27,210,39*47
$GPGGA,185832,5018.2103,N,00918.0275,E,2,10,0.80,163.33,M,47.732,M,,*40
$GPRMC,185832,A,5018.2103,N,00918.0275,E,2.1305,160.147,181210,,*2F
$GPGSA,A,3,23,13,10,07,04,20,02,16,08,05,,,1.5,0.8,1.2*36
$GPGGA,185833,5018.2095,N,00918.0274,E,2,10,0.80,163.19,M,47.732,M,,*46
$GPRMC,185833,A,5018.2095,N,00918.0274,E,1.9587,172.845,181210,,*2E
$GPGSA,A,3,23,13,10,07,04,20,02,16,08,05,,,0.0,0.8,0.0*31
$GPGGA,185834,5018.2091,N,00918.0272,E,2,09,0.80,163.82,M,47.732,M,,*49
$GPRMC,185834,A,5018.2091,N,00918.0272,E,3.3098,191.710,181210,,*2A
$GPGSA,A,3,23,13,07,04,20,02,16,08,05,,,,0.0,0.8,0.0*30
$GPGSV,3,1,12,23,44,066,42,13,78,046,30,10,52,295,42,04,50,237,40*7E
$GPGSV,3,2,12,20,15,120,41,02,41,289,45,16,15,055,33,07,42,172,43*7F
$GPGSV,3,3,12,30,04,018,21,08,13,189,40,05,07,297,32,120,27,210,35*45
$GPGGA,185835,5018.2081,N,00918.0263,E,2,10,0.80,162.81,M,47.732,M,,*43
$GPRMC,185835,A,5018.2081,N,00918.0263,E,4.7138,225.949,181210,,*2C
$GPGSA,A,3,23,13,10,07,04,20,02,16,08,05,,,1.5,0.8,1.2*36
$GPGGA,185836,5018.2071,N,00918.0243,E,2,10,0.80,163.09,M,47.732,M,,*4C
$GPRMC,185836,A,5018.2071,N,00918.0243,E,6.0526,237.517,181210,,*28
$GPGSA,A,3,23,13,10,07,04,20,02,16,08,05,,,0.0,0.8,0.0*31
$GPGGA,185837,5018.2060,N,00918.0224,E,2,10,0.80,163.38,M,47.732,M,,*4E
$GPRMC,185837,A,5018.2060,N,00918.0224,E,7.5469,238.321,181210,,*2A
$GPGSA,A,3,23,13,10,07,04,20,02,16,08,05,,,0.0,0.8,0.0*31
$GPGSV,3,1,12,23,44,066,43,13,78,046,34,10,52,295,40,04,50,237,40*79
$GPGSV,3,2,12,20,15,120,33,02,41,289,43,16,15,055,27,07,42,172,34*79
$GPGSV,3,3,12,30,04,018,21,08,13,189,40,05,07,297,32,120,27,210,39*49
$GPGGA,185838,5018.2048,N,00918.0188,E,2,10,0.80,162.68,M,47.733,M,,*4B
$GPRMC,185838,A,5018.2048,N,00918.0188,E,9.4366,233.823,181210,,*2F
$GPGSA,A,3,23,13,10,07,04,20,02,16,08,05,,,1.5,0.8,1.2*36
$GPGGA,185839,5018.2034,N,00918.0159,E,2,10,0.80,163.50,M,47.733,M,,*47
$GPRMC,185839,A,5018.2034,N,00918.0159,E,9.3894,236.368,181210,,*29
$GPGSA,A,3,23,13,10,07,04,20,02,16,08,05,,,0.0,0.8,0.0*31
$GPGGA,185840,5018.2022,N,00918.0123,E,2,10,0.80,162.81,M,47.733,M,,*4E
$GPRMC,185840,A,5018.2022,N,00918.0123,E,9.6795,239.004,181210,,*20
$GPGSA,A,3,23,13,10,07,04,20,02,16,08,05,,,0.0,0.8,0.0*31
$GPGSV,3,1,12,23,44,066,42,13,78,046,35,10,52,295,39,04,50,237,40*77
$GPGSV,3,2,12,20,15,120,31,02,41,289,38,16,15,055,25,07,42,172,35*74
$GPGSV,3,3,12,30,04,018,20,08,13,189,37,05,07,297,26,120,27,210,38*4C
$GPGGA,185841,5018.2005,N,00918.0086,E,2,10,0.80,162.74,M,47.733,M,,*4E
$GPRMC,185841,A,5018.2005,N,00918.0086,E,9.8918,237.434,181210,,*26
$GPGSA,A,3,23,13,10,07,04,20,02,16,08,05,,,1.5,0.8,1.2*36
$GPGGA,185842,5018.1992,N,00918.0048,E,2,10,0.80,163.45,M,47.733,M,,*48
$GPRMC,185842,A,5018.1992,N,00918.0048,E,8.8029,236.011,181210,,*2B
$GPGSA,A,3,23,13,10,07,04,20,02,16,08,05,,,0.0,0.8,0.0*31
$GPGGA,185843,5018.1979,N,00918.0029,E,2,10,0.80,162.97,M,47.733,M,,*45
$GPRMC,185843,A,5018.1979,N,00918.0029,E,5.9239,231.957,181210,,*2B
$GPGSA,A,3,23,13,10,07,04,20,02,16,08,05,,,0.0,0.8,0.0*31
$GPGSV,3,1,12,23,44,066,42,13,78,046,36,10,52,295,39,04,50,237,40*74
$GPGSV,3,2,12,20,15,120,30,02,41,289,42,16,15,055,31,07,42,172,28*71
$GPGSV,3,3,12,30,04,018,21,08,13,189,30,05,07,297,26,120,27,210,39*4B
$GPGGA,185844,5018.1972,N,00918.0011,E,2,10,0.80,162.62,M,47.733,M,,*48
$GPRMC,185844,A,5018.1972,N,00918.0011,E,2.5901,228.954,181210,,*2C
$GPGSA,A,3,23,13,10,07,04,20,02,16,08,05,,,1.5,0.8,1.2*36
$GPGGA,185845,5018.1968,N,00918.0010,E,2,10,0.80,163.25,M,47.733,M,,*41
$GPRMC,185845,A,5018.1968,N,00918.0010,E,1.0406,233.562,181210,,*28
$GPGSA,A,3,23,13,10,07,04,20,02,16,08,05,,,0.0,0.8,0.0*31
$GPGGA,185846,5018.1965,N,00918.0000,E,2,10,0.80,163.78,M,47.733,M,,*46
$GPRMC,185846,A,5018.1965,N,00918.0000,E,0.4649,223.216,181210,,*2E
$GPGSA,A,3,23,13,10,07,04,20,02,16,08,05,,,0.0,0.8,0.0*31
$GPGSV,3,1,11,23,44,066,42,13,78,046,36,10,52,295,39,04,50,237,40*77
$GPGSV,3,2,11,20,15,120,26,02,41,289,44,16,15,055,32,07,42,172,35*7C
$GPGSV,3,3,11,30,04,018,26,08,13,189,30,05,07,297,26*40
$GPGGA,185847,5018.1965,N,00918.0000,E,2,10,0.80,163.78,M,47.733,M,,*47
$GPRMC,185847,A,5018.1965,N,00918.0000,E,2.1769,230.274,181210,,*2D
$GPGSA,A,3,23,13,10,07,04,20,02,16,08,05,,,1.5,0.8,1.2*36
$GPGGA,185848,5018.1954,N,00917.9989,E,2,10,0.80,164.17,M,47.733,M,,*4A
$GPRMC,185848,A,5018.1954,N,00917.9989,E,5.3321,227.736,181210,,*26
$GPGSA,A,3,23,13,10,07,04,20,02,16,08,05,,,0.0,0.8,0.0*31
$GPGGA,185849,5018.1944,N,00917.9970,E,2,10,0.80,164.45,M,47.733,M,,*4B
$GPRMC,185849,A,5018.1944,N,00917.9970,E,8.4458,225.056,181210,,*20
$GPGSA,A,3,23,13,10,07,04,20,02,16,08,05,,,0.0,0.8,0.0*31
$GPGSV,3,1,12,23,44,066,43,13,78,046,37,10,52,295,39,04,50,237,35*76
$GPGSV,3,2,12,20,15,120,26,02,41,289,44,16,15,055,33,07,42,172,42*7E
$GPGSV,3,3,12,30,04,018,26,08,13,189,21,05,07,297,25,126,30,159,38*40
$GPGGA,185850,5018.1922,N,00917.9939,E,2,10,0.80,165.13,M,47.733,M,,*4C
$GPRMC,185850,A,5018.1922,N,00917.9939,E,9.2458,222.920,181210,,*2D
$GPGSA,A,3,23,13,10,07,04,20,02,16,08,05,,,1.5,0.8,1.2*36
$GPGGA,185851,5018.1905,N,00917.9910,E,2,10,0.80,165.17,M,47.733,M,,*47
$GPRMC,185851,A,5018.1905,N,00917.9910,E,9.3790,225.910,181210,,*20
$GPGSA,A,3,23,13,10,07,04,20,02,16,08,05,,,0.0,0.8,0.0*31
$GPGGA,185852,5018.1888,N,00917.9881,E,2,10,0.80,165.21,M,47.733,M,,*4C
$GPRMC,185852,A,5018.1888,N,00917.9881,E,10.1612,237.568,181210,,*1F
$GPGSA,A,3,23,13,10,07,04,20,02,16,08,05,,,0.0,0.8,0.0*31
$GPGSV,3,1,12,23,44,066,41,13,78,046,37,10,52,295,39,04,50,237,38*79
$GPGSV,3,2,12,20,15,120,24,02,41,289,44,16,15,055,26,07,42,172,38*75
$GPGSV,3,3,12,30,04,018,24,08,13,189,42,05,07,297,30,126,30,159,21*4B
$GPGGA,185853,5018.1880,N,00917.9837,E,2,10,0.80,165.19,M,47.733,M,,*43
$GPRMC,185853,A,5018.1880,N,00917.9837,E,10.9264,251.104,181210,,*18
$GPGSA,A,3,23,13,10,07,04,20,02,16,08,05,,,1.5,0.8,1.2*36
$GPGGA,185854,5018.1871,N,00917.9793,E,1,09,0.80,165.16,M,47.733,M,,*4F
$GPRMC,185854,A,5018.1871,N,00917.9793,E,11.4319,267.718,181210,,*19
$GPGSA,A,3,23,13,10,07,04,02,16,08,05,,,,0.0,0.8,0.0*33
$GPGGA,185855,5018.1879,N,00917.9743,E,1,09,0.80,165.31,M,47.733,M,,*4E
$GPRMC,185855,A,5018.1879,N,00917.9743,E,11.7861,281.511,181210,,*19
$GPGSA,A,3,23,13,10,07,04,02,16,08,05,,,,0.0,0.8,0.0*33
$GPGSV,3,1,11,23,44,066,40,13,78,046,33,10,52,295,40,04,50,237,40*7E
$GPGSV,3,2,11,02,41,289,39,16,15,055,29,07,42,172,35,30,04,018,19*7B
$GPGSV,3,3,11,08,13,189,20,05,07,297,31,126,30,159,30*75
$GPGGA,185856,5018.1891,N,00917.9694,E,1,09,0.80,164.83,M,47.733,M,,*48
$GPRMC,185856,A,5018.1891,N,00917.9694,E,12.2628,293.626,181210,,*16
$GPGSA,A,3,23,13,10,07,04,02,16,08,05,,,,1.6,0.8,1.2*37
$GPGGA,185857,5018.1906,N,00917.9637,E,1,10,0.80,165.02,M,47.733,M,,*4F
$GPRMC,185857,A,5018.1906,N,00917.9637,E,13.0542,297.333,181210,,*18
$GPGSA,A,3,23,13,10,07,04,20,02,16,08,05,,,0.0,0.8,0.0*31
$GPGGA,185858,5018.1921,N,00917.9589,E,1,10,0.80,165.31,M,47.733,M,,*43
$GPRMC,185858,A,5018.1921,N,00917.9589,E,12.8275,297.705,181210,,*1F
$GPGSA,A,3,23,13,10,07,04,20,02,16,08,05,,,0.0,0.8,0.0*31
$GPGSV,3,1,12,23,44,066,41,13,78,046,35,10,52,295,40,04,50,237,39*74
$GPGSV,3,2,12,20,15,120,29,02,41,289,39,16,15,055,25,07,42,172,38*71
$GPGSV,3,3,12,30,04,018,18,08,13,189,31,05,07,297,28,126,30,159,31*48
$GPGGA,185859,5018.1940,N,00917.9542,E,1,10,0.80,164.97,M,47.733,M,,*4F
$GPRMC,185859,A,5018.1940,N,00917.9542,E,12.1878,299.962,181210,,*11
$GPGSA,A,3,23,13,10,07,04,20,02,16,08,05,,,1.5,0.8,1.2*36
$GPGGA,185900,5018.1963,N,00917.9495,E,1,10,0.80,165.39,M,47.733,M,,*4D
$GPRMC,185900,A,5018.1963,N,00917.9495,E,13.4607,306.625,181210,,*1F
$GPGSA,A,3,23,13,10,07,04,20,02,16,08,05,,,0.0,0.8,0.0*31
$GPGGA,185901,5018.1985,N,00917.9448,E,1,10,0.80,165.82,M,47.732,M,,*45
$GPRMC,185901,A,5018.1985,N,00917.9448,E,13.6228,309.418,181210,,*1E
$GPGSA,A,3,23,13,10,07,04,20,02,16,08,05,,,0.0,0.8,0.0*31
$GPGSV,3,1,12,23,44,066,41,13,78,046,36,10,52,295,46,04,50,237,39*71
$GPGSV,3,2,12,20,15,120,26,02,41,289,46,16,15,055,35,07,42,172,43*7B
$GPGSV,3,3,12,30,04,018,19,08,13,189,19,05,07,297,24,126,30,159,36*48
$GPGGA,185902,5018.2011,N,00917.9410,E,1,10,0.80,165.72,M,47.732,M,,*43
$GPRMC,185902,A,5018.2011,N,00917.9410,E,13.4007,311.953,181210,,*11
$GPGSA,A,3,23,13,10,07,04,20,02,16,08,05,,,1.5,0.8,1.2*36
$GPGGA,185903,5018.2035,N,00917.9364,E,1,10,0.80,164.75,M,47.732,M,,*46
$GPRMC,185903,A,5018.2035,N,00917.9364,E,13.2029,312.552,181210,,*16
$GPGSA,A,3,23,13,10,07,04,20,02,16,08,05,,,0.0,0.8,0.0*31
$GPGGA,185904,5018.2057,N,00917.9317,E,1,10,0.80,165.18,M,47.732,M,,*4B
$GPRMC,185904,A,5018.2057,N,00917.9317,E,13.4065,313.735,181210,,*1D
$GPGSA,A,3,23,13,10,07,04,20,02,16,08,05,,,0.0,0.8,0.0*31
$GPGSV,3,1,12,23,44,066,41,13,78,046,36,10,52,295,46,04,50,237,39*71
$GPGSV,3,2,12,20,15,120,26,02,41,289,46,16,15,055,25,07,42,172,42*7B
$GPGSV,3,3,12,30,04,018,18,08,13,189,30,05,07,297,23,126,30,159,32*41
$GPGGA,185905,5018.2087,N,00917.9280,E,1,10,0.80,165.85,M,47.732,M,,*4C
$GPRMC,185905,A,5018.2087,N,00917.9280,E,13.7080,313.602,181210,,*13
$GPGSA,A,3,23,13,10,07,04,20,02,16,08,05,,,1.5,0.8,1.2*36
$GPGGA,185906,5018.2110,N,00917.9234,E,1,09,0.80,164.88,M,47.732,M,,*4B
$GPRMC,185906,A,5018.2110,N,00917.9234,E,13.1939,312.760,181210,,*19
$GPGSA,A,3,23,13,10,07,04,20,02,16,05,,,,0.0,0.8,0.0*39
$GPGGA,185907,5018.2136,N,00917.9196,E,1,10,0.80,164.78,M,47.732,M,,*42
$GPRMC,185907,A,5018.2136,N,00917.9196,E,13.3912,312.159,181210,,*10
$GPGSA,A,3,23,13,10,07,04,20,02,16,08,05,,,0.0,0.8,0.0*31
$GPGSV,3,1,12,23,44,066,42,13,78,046,36,10,52,295,46,04,50,237,33*78
$GPGSV,3,2,12,20,15,120,26,02,41,289,46,16,15,055,27,07,42,172,35*79
$GPGSV,3,3,12,30,04,018,18,08,13,189,21,05,07,297,24,126,30,159,27*42
$GPGGA,185908,5018.2158,N,00917.9149,E,1,10,0.80,165.21,M,47.732,M,,*4A
$GPRMC,185908,A,5018.2158,N,00917.9149,E,12.9009,312.665,181210,,*15
$GPGSA,A,3,23,13,10,07,04,20,02,16,08,05,,,1.5,0.8,1.2*36
$GPGGA,185909,5018.2181,N,00917.9112,E,1,10,0.80,164.34,M,47.732,M,,*44
$GPRMC,185909,A,5018.2181,N,00917.9112,E,10.9179,311.280,181210,,*16
$GPGSA,A,3,23,13,10,07,04,20,02,16,08,05,,,0.0,0.8,0.0*31
$GPGGA,185910,5018.2198,N,00917.9090,E,1,10,0.80,164.31,M,47.732,M,,*4A
$GPRMC,185910,A,5018.2198,N,00917.9090,E,8.4266,310.536,181210,,*2F
$GPGSA,A,3,23,13,10,07,04,20,02,16,08,05,,,0.0,0.8,0.0*31
$GPGSV,3,1,11,23,44,066,41,13,78,046,37,10,52,295,45,04,50,237,36*7F
$GPGSV,3,2,11,20,15,120,26,02,41,289,47,16,15,055,35,07,42,172,35*78
$GPGSV,3,3,11,30,04,018,18,08,13,189,27,05,07,297,24*49
$GPGGA,185911,5018.2204,N,00917.9066,E,1,10,0.80,163.37,M,47.732,M,,*45
$GPRMC,185911,A,5018.2204,N,00917.9066,E,5.4725,305.731,181210,,*2F
$GPGSA,A,3,23,13,10,07,04,20,02,16,08,05,,,1.5,0.8,1.2*36
$GPGGA,185912,5018.2212,N,00917.9059,E,1,10,0.80,163.41,M,47.732,M,,*4C
$GPRMC,185912,A,5018.2212,N,00917.9059,E,2.9718,306.070,181210,,*22
$GPGSA,A,3,23,13,10,07,04,20,02,16,08,05,,,0.0,0.8,0.0*31
$GPGGA,185913,5018.2213,N,00917.9051,E,1,10,0.80,163.30,M,47.732,M,,*42
$GPRMC,185913,A,5018.2213,N,00917.9051,E,1.2905,303.091,181210,,*2A
$GPGSA,A,3,23,13,10,07,04,20,02,16,08,05,,,0.0,0.8,0.0*31
$GPGSV,3,1,11,23,44,066,37,13,78,046,37,10,52,295,39,04,50,237,37*74
$GPGSV,3,2,11,20,15,120,27,02,41,289,42,16,15,055,30,07,42,172,43*78
$GPGSV,3,3,11,30,04,018,18,08,13,189,34,05,07,297,23*4C
$GPGGA,185914,5018.2218,N,00917.9044,E,1,10,0.80,162.57,M,47.732,M,,*4A
$GPRMC,185914,A,5018.2218,N,00917.9044,E,0.7886,305.649,181210,,*29
$GPGSA,A,3,23,13,10,07,04,20,02,16,08,05,,,1.5,0.8,1.2*36
$GPGGA,185915,5018.2218,N,00917.9044,E,1,10,0.80,162.57,M,47.732,M,,*4B
$GPRMC,185915,A,5018.2218,N,00917.9044,E,0.7886,305.649,181210,,*28
$GPGSA,A,3,23,13,10,07,04,20,02,16,08,05,,,0.0,0.8,0.0*31
$GPGGA,185916,5018.2218,N,00917.9035,E,1,09,1.00,162.47,M,47.732,M,,*4E
$GPRMC,185916,A,5018.2218,N,00917.9035,E,0.7886,305.649,181210,,*2D
$GPGSA,A,3,23,13,10,07,04,20,02,16,08,,,,0.0,1.0,0.0*3D
$GPGSV,3,1,10,23,44,066,38,13,78,046,37,10,52,295,40,04,50,237,37*74
$GPGSV,3,2,10,20,15,120,38,02,41,289,41,16,15,055,25,07,42,172,42*71
$GPGSV,3,3,10,30,04,018,18,08,13,189,34*72
$GPGGA,185917,5018.2218,N,00917.9035,E,1,09,1.00,162.47,M,47.732,M,,*4F
$GPRMC,185917,A,5018.2218,N,00917.9035,E,0.5038,299.084,181210,,*20
$GPGSA,A,3,23,13,10,07,04,20,02,16,08,,,,1.8,1.0,1.5*30
$GPGGA,185918,5018.2222,N,00917.9037,E,1,09,1.00,161.84,M,47.732,M,,*47
$GPRMC,185918,A,5018.2222,N,00917.9037,E,0.2938,316.956,181210,,*2A
$GPGSA,A,3,23,13,10,07,04,20,02,16,08,,,,0.0,1.0,0.0*3D
$GPGGA,185919,5018.2222,N,00917.9037,E,1,09,1.00,161.84,M,47.732,M,,*46
$GPRMC,185919,A,5018.2222,N,00917.9037,E,0.1886,12.013,181210,,*13
$GPGSA,A,3,23,13,10,07,04,20,02,16,08,,,,0.0,1.0,0.0*3D
$GPGSV,3,1,10,23,44,066,38,13,78,046,37,10,52,295,40,04,50,237,38*7B
$GPGSV,3,2,10,20,15,120,38,02,41,289,40,16,15,055,25,07,42,172,42*70
$GPGSV,3,3,10,30,04,018,18,08,13,189,38*7E
$GPGGA,185920,5018.2223,N,00917.9029,E,1,09,1.00,161.73,M,47.732,M,,*4A
$GPRMC,185920,A,5018.2223,N,00917.9029,E,0.1886,12.013,181210,,*17
$GPGSA,A,3,23,13,10,07,04,20,02,16,08,,,,1.8,1.0,1.5*30
$GPGGA,185921,5018.2223,N,00917.9029,E,1,09,1.00,161.73,M,47.732,M,,*4B
$GPRMC,185921,A,5018.2223,N,00917.9029,E,0.1886,12.013,181210,,*16
$GPGSA,A,3,23,13,10,07,04,20,02,16,08,,,,0.0,1.0,0.0*3D
$GPGGA,185922,5018.2223,N,00917.9029,E,1,09,1.00,161.73,M,47.732,M,,*48
$GPRMC,185922,A,5018.2223,N,00917.9029,E,0.0000,0.000,181210,,*23
$GPGSA,A,3,23,13,10,07,04,20,02,16,08,,,,0.0,1.0,0.0*3D
$GPGSV,3,1,10,23,44,066,37,13,78,046,37,10,52,295,40,04,50,237,38*74
$GPGSV,3,2,10,20,15,120,38,02,41,289,39,16,15,055,25,07,42,172,41*7D
$GPGSV,3,3,10,08,13,189,38,126,30,159,28*48
$GPGGA,185923,5018.2223,N,00917.9029,E,1,09,1.00,161.73,M,47.732,M,,*49
$GPRMC,185923,A,5018.2223,N,00917.9029,E,0.0000,0.000,181210,,*22
$GPGSA,A,3,23,13,10,07,04,20,02,16,08,,,,1.9,1.0,1.6*32
$GPGGA,185924,5018.2223,N,00917.9029,E,1,09,1.00,161.73,M,47.732,M,,*4E
$GPRMC,185924,A,5018.2223,N,00917.9029,E,0.0000,0.000,181210,,*25
$GPGSA,A,3,23,13,10,07,04,20,02,16,08,,,,0.0,1.0,0.0*3D
$GPGGA,185925,5018.2227,N,00917.9030,E,1,09,1.00,161.10,M,47.732,M,,*46
$GPRMC,185925,A,5018.2227,N,00917.9030,E,0.2417,277.180,181210,,*23
$GPGSA,A,3,23,13,10,07,04,20,02,16,08,,,,0.0,1.0,0.0*3D
$GPGSV,3,1,10,23,44,066,37,13,78,046,37,10,52,295,40,04,50,237,38*74
$GPGSV,3,2,10,20,15,120,38,02,41,289,39,16,15,055,28,07,42,172,40*71
$GPGSV,3,3,10,08,13,189,35,126,30,159,29*44
$GPGGA,185926,5018.2220,N,00917.9020,E,1,09,1.00,160.86,M,47.732,M,,*4D
$GPRMC,185926,A,5018.2220,N,00917.9020,E,2.7230,265.958,181210,,*2C
$GPGSA,A,3,23,13,10,07,04,20,02,16,08,,,,1.9,1.0,1.6*32
$GPGGA,185927,5018.2215,N,00917.8994,E,1,09,1.00,160.41,M,47.732,M,,*46
$GPRMC,185927,A,5018.2215,N,00917.8994,E,5.3515,241.630,181210,,*28
$GPGSA,A,3,23,13,10,07,04,20,02,16,08,,,,0.0,1.0,0.0*3D
$GPGGA,185928,5018.2200,N,00917.8983,E,1,09,1.00,160.03,M,47.732,M,,*4D
$GPRMC,185928,A,5018.2200,N,00917.8983,E,6.9043,209.720,181210,,*26
$GPGSA,A,3,23,13,10,07,04,20,02,16,08,,,,0.0,1.0,0.0*3D
$GPGSV,3,1,10,23,44,066,43,13,78,046,35,10,52,295,40,04,50,237,42*78
$GPGSV,3,2,10,20,15,120,27,02,41,289,43,16,15,055,28,07,42,172,44*76
$GPGSV,3,3,10,08,13,189,40,126,30,159,37*49
$GPGGA,185929,5018.2178,N,00917.8979,E,1,09,1.00,159.61,M,47.732,M,,*4B
$GPRMC,185929,A,5018.2178,N,00917.8979,E,8.2785,185.413,181210,,*22
$GPGSA,A,3,23,13,10,07,04,20,02,16,08,,,,1.9,1.0,1.6*32
$GPGGA,185930,5018.2151,N,00917.8973,E,1,09,1.00,159.83,M,47.732,M,,*4E
$GPRMC,185930,A,5018.2151,N,00917.8973,E,10.0340,181.473,181210,,*1F
$GPGSA,A,3,23,13,10,07,04,20,02,16,08,,,,0.0,1.0,0.0*3D
$GPGGA,185931,5018.2124,N,00917.8968,E,1,09,1.00,160.04,M,47.732,M,,*42
$GPRMC,185931,A,5018.2124,N,00917.8968,E,10.5142,187.078,181210,,*1A
$GPGSA,A,3,23,13,10,07,04,20,02,16,08,,,,0.0,1.0,0.0*3D
$GPGSV,3,1,12,23,44,066,42,13,78,046,26,10,52,295,40,04,50,237,38*74
$GPGSV,3,2,12,20,15,120,32,02,41,289,39,16,15,055,29,07,42,172,43*7B
$GPGSV,3,3,12,30,04,018,21,08,13,189,40,05,07,297,19,126,30,159,35*42
$GPGGA,185932,5018.2090,N,00917.8961,E,1,10,0.80,160.11,M,47.732,M,,*43
$GPRMC,185932,A,5018.2090,N,00917.8961,E,12.4479,191.540,181210,,*19
$GPGSA,A,3,23,13,10,07,04,20,02,16,08,05,,,1.5,0.8,1.2*36
$GPGGA,185933,5018.2050,N,00917.8936,E,1,08,1.20,159.84,M,47.732,M,,*48
$GPRMC,185933,A,5018.2050,N,00917.8936,E,15.2070,199.202,181210,,*13
$GPGSA,A,3,23,13,10,07,04,20,02,08,,,,,0.0,1.2,0.0*38
$GPGGA,185934,5018.2008,N,00917.8920,E,1,08,1.20,159.67,M,47.732,M,,*48
$GPRMC,185934,A,5018.2008,N,00917.8920,E,16.2041,197.672,181210,,*12
$GPGSA,A,3,23,13,10,07,04,20,02,08,,,,,0.0,1.2,0.0*38
$GPGSV,3,1,11,23,44,066,43,13,78,046,30,10,52,295,40,04,50,237,41*7F
$GPGSV,3,2,11,20,15,120,29,02,41,289,42,07,42,172,44,30,04,018,21*7C
$GPGSV,3,3,11,08,13,189,27,05,07,297,21,126,30,159,34*77
$GPGGA,185935,5018.1967,N,00917.8903,E,1,09,0.80,159.50,M,47.732,M,,*45
$GPRMC,185935,A,5018.1967,N,00917.8903,E,15.8495,191.058,181210,,*1D
$GPGSA,A,3,23,13,10,07,04,20,02,05,08,,,,1.5,0.8,1.2*31
$GPGGA,185936,5018.1924,N,00917.8902,E,1,09,0.80,160.94,M,47.732,M,,*42
$GPRMC,185936,A,5018.1924,N,00917.8902,E,15.6819,184.101,181210,,*17
$GPGSA,A,3,23,13,10,07,04,20,02,05,08,,,,0.0,0.8,0.0*36
$GPGGA,185937,5018.1874,N,00917.8901,E,1,10,0.80,160.84,M,47.733,M,,*4C
$GPRMC,185937,A,5018.1874,N,00917.8901,E,16.6385,178.082,181210,,*15
$GPGSA,A,3,23,13,10,07,04,20,02,05,08,16,,,0.0,0.8,0.0*31
$GPGSV,3,1,12,23,44,066,40,13,78,046,37,10,52,295,39,04,50,237,39*79
$GPGSV,3,2,12,20,15,120,42,02,41,289,42,16,15,055,24,07,42,172,35*7C
$GPGSV,3,3,12,30,04,018,18,08,13,189,28,05,07,297,29,126,30,159,30*40
$GPGGA,185938,5018.1830,N,00917.8918,E,1,10,0.80,161.09,M,47.733,M,,*4F
$GPRMC,185938,A,5018.1830,N,00917.8918,E,17.4708,170.132,181210,,*12
$GPGSA,A,3,23,13,10,07,04,20,02,05,08,16,,,1.5,0.8,1.2*36
$GPGGA,185939,5018.1783,N,00917.8934,E,1,09,1.00,160.56,M,47.733,M,,*4D
$GPRMC,185939,A,5018.1783,N,00917.8934,E,18.1449,162.453,181210,,*17
$GPGSA,A,3,23,13,10,07,04,20,02,08,16,,,,0.0,1.0,0.0*3D
$GPGGA,185940,5018.1735,N,00917.8968,E,1,09,1.00,160.24,M,47.733,M,,*42
$GPRMC,185940,A,5018.1735,N,00917.8968,E,19.7298,156.745,181210,,*13
$GPGSA,A,3,23,13,10,07,04,20,02,08,16,,,,0.0,1.0,0.0*3D
$GPGSV,3,1,11,23,44,066,36,13,78,046,38,10,52,295,38,04,50,237,37*7B
$GPGSV,3,2,11,20,15,120,31,02,41,289,38,16,15,055,38,07,42,172,42*7B
$GPGSV,3,3,11,30,04,018,12,08,13,189,29,05,07,297,16*4C
$GPGGA,185941,5018.1685,N,00917.9010,E,1,10,0.80,160.03,M,47.733,M,,*4A
$GPRMC,185941,A,5018.1685,N,00917.9010,E,20.6036,151.268,181210,,*1F
$GPGSA,A,3,23,13,10,07,04,20,02,05,08,16,,,1.5,0.8,1.2*36
$GPGGA,185942,5018.1632,N,00917.9060,E,1,10,0.80,159.14,M,47.733,M,,*4E
$GPRMC,185942,A,5018.1632,N,00917.9060,E,21.4520,151.408,181210,,*16
$GPGSA,A,3,23,13,10,07,04,20,02,05,08,16,,,0.0,0.8,0.0*31
$GPGGA,185943,5018.1579,N,00917.9100,E,1,10,0.80,159.56,M,47.733,M,,*42
$GPRMC,185943,A,5018.1579,N,00917.9100,E,22.2938,150.594,181210,,*19
$GPGSA,A,3,23,13,10,07,04,20,02,05,08,16,,,0.0,0.8,0.0*31
$GPGSV,3,1,12,23,44,066,30,13,78,046,38,10,52,295,39,04,50,237,41*7E
$GPGSV,3,2,12,20,15,120,22,02,41,289,40,16,15,055,26,07,42,172,42*7A
$GPGSV,3,3,12,30,04,018,11,08,13,189,26,05,07,297,14,126,30,159,36*4F
$GPGGA,185944,5018.1525,N,00917.9150,E,1,10,0.80,158.68,M,47.733,M,,*45
$GPRMC,185944,A,5018.1525,N,00917.9150,E,21.7381,150.375,181210,,*15
$GPGSA,A,3,23,13,10,07,04,20,02,05,08,16,,,1.5,0.8,1.2*36
$GPGGA,185945,5018.1476,N,00917.9192,E,1,10,0.80,158.46,M,47.733,M,,*41
$GPRMC,185945,A,5018.1476,N,00917.9192,E,19.7830,151.678,181210,,*1E
$GPGSA,A,3,23,13,10,07,04,20,02,05,08,16,,,0.0,0.8,0.0*31
$GPGGA,185946,5018.1439,N,00917.9218,E,1,09,0.80,158.95,M,47.733,M,,*4E
$GPRMC,185946,A,5018.1439,N,00917.9218,E,15.4531,151.803,181210,,*16
$GPGSA,A,3,23,13,10,07,04,20,02,05,08,,,,0.0,0.8,0.0*36
$GPGSV,3,1,10,23,44,066,30,13,78,046,38,10,52,295,38,04,50,237,28*72
$GPGSV,3,2,10,20,15,120,38,02,41,289,41,07,42,172,41,30,04,018,11*78
$GPGSV,3,3,10,08,13,189,25,05,07,297,13*79
$GPGGA,185947,5018.1410,N,00917.9246,E,1,09,0.80,159.58,M,47.733,M,,*4F
$GPRMC,185947,A,5018.1410,N,00917.9246,E,11.6738,152.127,181210,,*16
$GPGSA,A,3,23,13,10,07,04,20,02,05,08,,,,1.5,0.8,1.2*31
$GPGGA,185948,5018.1389,N,00917.9258,E,1,09,0.80,160.13,M,47.733,M,,*4D
$GPRMC,185948,A,5018.1389,N,00917.9258,E,7.4810,154.901,181210,,*2B
$GPGSA,A,3,23,13,10,07,04,20,02,05,08,,,,0.0,0.8,0.0*36
$GPGGA,185949,5018.1380,N,00917.9264,E,1,10,0.80,161.50,M,47.733,M,,*44
$GPRMC,185949,A,5018.1380,N,00917.9264,E,3.5285,150.710,181210,,*25
$GPGSA,A,3,23,13,10,07,04,20,02,05,08,16,,,0.0,0.8,0.0*31
$GPGSV,3,1,10,23,44,066,36,13,78,046,38,10,52,295,29,04,50,237,42*78
$GPGSV,3,2,10,20,15,120,28,02,41,289,31,16,15,055,33,07,42,172,41*73
$GPGSV,3,3,10,08,13,189,34,120,27,210,35*46
$GPGGA,185950,5018.1377,N,00917.9264,E,1,09,1.00,160.73,M,47.733,M,,*45
$GPRMC,185950,A,5018.1377,N,00917.9264,E,0.8611,158.003,181210,,*2F
$GPGSA,A,3,23,13,10,07,04,20,02,08,16,,,,1.9,1.0,1.6*32
$GPGGA,185951,5018.1376,N,00917.9272,E,1,09,1.00,160.83,M,47.733,M,,*4D
$GPRMC,185951,A,5018.1376,N,00917.9272,E,0.1319,342.680,181210,,*28
$GPGSA,A,3,23,13,10,07,04,20,02,08,16,,,,0.0,1.0,0.0*3D
$GPGGA,185952,5018.1372,N,00917.9271,E,1,09,1.00,161.46,M,47.733,M,,*41
$GPRMC,185952,A,5018.1372,N,00917.9271,E,0.0490,233.269,181210,,*2F
$GPGSA,A,3,23,13,10,07,04,20,02,08,16,,,,0.0,1.0,0.0*3D
$GPGSV,3,1,11,23,44,066,33,13,78,046,37,10,52,295,31,04,50,237,42*7A
$GPGSV,3,2,11,20,15,120,27,02,41,289,30,16,15,055,32,07,42,172,40*7C
$GPGSV,3,3,11,05,07,297,21,08,13,189,33,120,27,210,33*7B
$GPGGA,185953,5018.1372,N,00917.9271,E,1,10,0.80,161.46,M,47.733,M,,*41
$GPRMC,185953,A,5018.1372,N,00917.9271,E,0.0490,233.269,181210,,*2E
$GPGSA,A,3,23,13,10,07,04,20,02,05,08,16,,,1.4,0.8,1.1*34
$GPGGA,185954,5018.1372,N,00917.9271,E,1,10,0.80,161.46,M,47.733,M,,*46
$GPRMC,185954,A,5018.1372,N,00917.9271,E,0.1552,0.000,181210,,*28
$GPGSA,A,3,23,13,10,07,04,20,02,05,08,16,,,0.0,0.8,0.0*31
$GPGGA,185955,5018.1372,N,00917.9271,E,1,10,0.80,161.46,M,47.733,M,,*47
$GPRMC,185955,A,5018.1372,N,00917.9271,E,0.1552,0.000,181210,,*29
$GPGSA,A,3,23,13,10,07,04,20,02,05,08,16,,,0.0,0.8,0.0*31
$GPGSV,3,1,11,23,44,066,33,13,78,046,37,10,52,295,31,04,50,237,42*7A
$GPGSV,3,2,11,20,15,120,27,02,41,289,30,16,15,055,32,07,42,172,40*7C
$GPGSV,3,3,11,05,07,297,22,08,13,189,33,120,27,210,33*78
$GPGGA,185956,5018.1372,N,00917.9271,E,1,10,0.80,161.46,M,47.733,M,,*44
$GPRMC,185956,A,5018.1372,N,00917.9271,E,0.1552,0.000,181210,,*2A
$GPGSA,A,3,23,13,10,07,04,20,02,05,08,16,,,1.4,0.8,1.1*34
$GPGGA,185957,5018.1367,N,00917.9278,E,1,10,0.80,162.20,M,47.733,M,,*4B
$GPRMC,185957,A,5018.1367,N,00917.9278,E,0.5950,132.262,181210,,*2A
$GPGSA,A,3,23,13,10,07,04,20,02,05,08,16,,,0.0,0.8,0.0*31
$GPGGA,185958,5018.1363,N,00917.9286,E,1,10,0.80,161.53,M,47.733,M,,*46
$GPRMC,185958,A,5018.1363,N,00917.9286,E,2.2506,154.657,181210,,*28
$GPGSA,A,3,23,13,10,07,04,20,02,05,08,16,,,0.0,0.8,0.0*31
$GPGSV,3,1,10,23,44,066,34,13,78,046,37,10,52,295,31,04,50,237,42*7C
$GPGSV,3,2,10,20,15,120,25,02,41,289,30,16,15,055,32,07,42,172,40*7F
$GPGSV,3,3,10,05,07,297,22,08,13,189,33*7C
$GPGGA,185959,5018.1351,N,00917.9292,E,1,10,0.80,162.12,M,47.733,M,,*45
$GPRMC,185959,A,5018.1351,N,00917.9292,E,4.3778,145.417,181210,,*27
$GPGSA,A,3,23,13,10,07,04,20,02,05,08,16,,,1.4,0.8,1.1*34
$GPGGA,190000,5018.1345,N,00917.9325,E,1,10,0.80,161.77,M,47.733,M,,*4C
$GPRMC,190000,A,5018.1345,N,00917.9325,E,6.5544,111.993,181210,,*27
$GPGSA,A,3,23,13,10,07,04,20,02,05,08,16,,,0.0,0.8,0.0*31
$GPGGA,190001,5018.1347,N,00917.9351,E,1,10,0.80,161.45,M,47.733,M,,*4D
$GPRMC,190001,A,5018.1347,N,00917.9351,E,6.7916,75.930,181210,,*14
$GPGSA,A,3,23,13,10,07,04,20,02,05,08,16,,,0.0,0.8,0.0*31
$GPGSV,3,1,11,23,44,066,43,13,78,046,34,10,52,295,41,04,50,237,41*7A
$GPGSV,3,2,11,20,15,120,25,02,41,289,42,16,15,055,37,07,42,172,43*7D
$GPGSV,3,3,11,05,07,297,27,08,13,189,33,30,04,018,22*46
$GPGGA,190002,5018.1360,N,00917.9371,E,1,10,0.80,161.93,M,47.733,M,,*42
$GPRMC,190002,A,5018.1360,N,00917.9371,E,7.5166,45.282,181210,,*1D
$GPGSA,A,3,23,13,10,07,04,20,02,05,08,16,,,1.4,0.8,1.1*34
$GPGGA,190003,5018.1378,N,00917.9391,E,1,10,0.80,161.79,M,47.733,M,,*40
$GPRMC,190003,A,5018.1378,N,00917.9391,E,8.8905,28.026,181210,,*13
$GPGSA,A,3,23,13,10,07,04,20,02,05,08,16,,,0.0,0.8,0.0*31
$GPGGA,190004,5018.1408,N,00917.9406,E,1,09,1.00,161.04,M,47.733,M,,*45
$GPRMC,190004,A,5018.1408,N,00917.9406,E,10.5791,17.909,181210,,*22
$GPGSA,A,3,23,13,10,07,04,20,02,08,16,,,,0.0,1.0,0.0*3D
$GPGSV,3,1,10,23,44,066,44,13,78,046,38,10,52,295,33,04,50,237,41*75
$GPGSV,3,2,10,20,15,120,33,02,41,289,27,16,15,055,30,07,42,172,42*7E
$GPGSV,3,3,10,08,13,189,27,30,04,018,23*78
$GPGGA,190005,5018.1438,N,00917.9420,E,1,09,1.00,161.70,M,47.733,M,,*40
$GPRMC,190005,A,5018.1438,N,00917.9420,E,11.8861,15.470,181210,,*29
$GPGSA,A,3,23,13,10,07,04,20,02,08,16,,,,1.9,1.0,1.6*32
$GPGGA,190006,5018.1471,N,00917.9444,E,1,09,1.00,161.84,M,47.733,M,,*47
$GPRMC,190006,A,5018.1471,N,00917.9444,E,14.2549,17.998,181210,,*24
$GPGSA,A,3,23,13,10,07,04,20,02,08,16,,,,0.0,1.0,0.0*3D
$GPGGA,190007,5018.1511,N,00917.9468,E,1,09,1.00,162.11,M,47.733,M,,*40
$GPRMC,190007,A,5018.1511,N,00917.9468,E,16.0162,23.083,181210,,*25
$GPGSA,A,3,23,13,10,07,04,20,02,08,16,,,,0.0,1.0,0.0*3D
$GPGSV,3,1,10,23,44,066,43,13,78,046,38,10,52,295,33,04,50,237,43*70
$GPGSV,3,2,10,20,15,120,21,02,41,289,32,16,15,055,29,07,42,172,42*71
$GPGSV,3,3,10,08,13,189,28,30,04,018,22*76
$GPGGA,190008,5018.1555,N,00917.9511,E,1,09,1.00,161.96,M,47.733,M,,*4C
$GPRMC,190008,A,5018.1555,N,00917.9511,E,17.6890,29.962,181210,,*2A
$GPGSA,A,3,23,13,10,07,04,20,02,08,16,,,,1.9,1.0,1.6*32
$GPGGA,190009,5018.1590,N,00917.9553,E,1,09,1.00,161.66,M,47.733,M,,*4D
$GPRMC,190009,A,5018.1590,N,00917.9553,E,18.2185,36.956,181210,,*2B
$GPGSA,A,3,23,13,10,07,04,20,02,08,16,,,,0.0,1.0,0.0*3D
$GPGGA,190010,5018.1632,N,00917.9612,E,1,10,0.80,161.72,M,47.733,M,,*4C
$GPRMC,190010,A,5018.1632,N,00917.9612,E,19.8376,39.095,181210,,*22
$GPGSA,A,3,23,13,10,07,04,20,02,05,08,16,,,0.0,0.8,0.0*31
$GPGSV,3,1,11,23,44,066,44,13,78,046,31,10,52,295,32,04,50,237,43*7E
$GPGSV,3,2,11,20,15,120,26,02,41,289,37,16,15,055,34,07,42,172,38*73
$GPGSV,3,3,11,05,07,297,20,08,13,189,22,30,04,018,22*41
$GPGGA,190011,5018.1675,N,00917.9663,E,1,10,0.80,161.67,M,47.733,M,,*4C
$GPRMC,190011,A,5018.1675,N,00917.9663,E,19.0504,40.422,181210,,*2B
$GPGSA,A,3,23,13,10,07,04,20,02,05,08,16,,,1.4,0.8,1.1*34
$GPGGA,190012,5018.1713,N,00917.9713,E,1,09,1.00,162.25,M,47.733,M,,*4C
$GPRMC,190012,A,5018.1713,N,00917.9713,E,17.8822,42.828,181210,,*24
$GPGSA,A,3,23,13,10,07,04,20,02,08,16,,,,0.0,1.0,0.0*3D
$GPGGA,190013,5018.1744,N,00917.9761,E,1,09,1.00,162.69,M,47.733,M,,*42
$GPRMC,190013,A,5018.1744,N,00917.9761,E,16.9048,38.133,181210,,*28
$GPGSA,A,3,23,13,10,07,04,20,02,08,16,,,,0.0,1.0,0.0*3D
$GPGSV,3,1,10,23,44,066,39,13,78,046,35,10,52,295,26,04,50,237,44*73
$GPGSV,3,2,10,20,15,120,22,02,41,289,21,16,15,055,24,07,42,172,41*7E
$GPGSV,3,3,10,08,13,189,22,30,04,018,28*76
$GPGGA,190014,5018.1779,N,00917.9801,E,1,09,1.00,163.80,M,47.733,M,,*44
$GPRMC,190014,A,5018.1779,N,00917.9801,E,15.0814,35.713,181210,,*2A
$GPGSA,A,3,23,13,10,07,04,20,02,08,16,,,,1.9,1.0,1.6*32
$GPGGA,190015,5018.1815,N,00917.9843,E,1,10,0.80,163.51,M,47.733,M,,*4B
$GPRMC,190015,A,5018.1815,N,00917.9843,E,14.4113,37.456,181210,,*23
$GPGSA,A,3,23,13,10,07,04,20,02,05,08,16,,,0.0,0.8,0.0*31
$GPGGA,190016,5018.1842,N,00917.9881,E,1,10,0.80,164.48,M,47.733,M,,*4B
$GPRMC,190016,A,5018.1842,N,00917.9881,E,13.9573,39.754,181210,,*2B
$GPGSA,A,3,23,13,10,07,04,20,02,05,08,16,,,0.0,0.8,0.0*31
$GPGSV,3,1,11,23,44,066,42,13,78,046,35,10,52,295,34,04,50,237,43*7A
$GPGSV,3,2,11,20,15,120,25,02,41,289,39,16,15,055,36,07,42,172,32*76
$GPGSV,3,3,11,05,07,297,29,08,13,189,19,30,04,018,31*42
$GPGGA,190017,5018.1871,N,00917.9913,E,1,10,0.80,163.95,M,47.733,M,,*47
$GPRMC,190017,A,5018.1871,N,00917.9913,E,13.1381,40.930,181210,,*21
$GPGSA,A,3,23,13,10,07,04,20,02,05,08,16,,,1.4,0.8,1.1*34
$GPGGA,190018,5018.1899,N,00917.9943,E,1,10,0.80,164.81,M,47.733,M,,*49
$GPRMC,190018,A,5018.1899,N,00917.9943,E,12.3447,35.276,181210,,*28
$GPGSA,A,3,23,13,10,07,04,20,02,05,08,16,,,0.0,0.8,0.0*31
$GPGGA,190019,5018.1929,N,00917.9967,E,1,10,0.80,164.18,M,47.733,M,,*44
$GPRMC,190019,A,5018.1929,N,00917.9967,E,11.3751,21.736,181210,,*26
$GPGSA,A,3,23,13,10,07,04,20,02,05,08,16,,,0.0,0.8,0.0*31
$GPGSV,3,1,11,23,44,066,43,13,78,046,37,10,52,295,41,04,50,237,43*7B
$GPGSV,3,2,11,20,15,120,26,02,41,289,32,16,15,055,36,07,42,172,39*75
$GPGSV,3,3,11,05,07,297,23,08,13,189,21,30,04,018,30*42
$GPGGA,190020,5018.1962,N,00917.9972,E,1,10,0.80,165.50,M,47.733,M,,*48
$GPRMC,190020,A,5018.1962,N,00917.9972,E,12.0360,6.933,181210,,*1F
$GPGSA,A,3,23,13,10,07,04,20,02,05,08,16,,,1.4,0.8,1.1*34
$GPGGA,190021,5018.1997,N,00917.9971,E,1,10,0.80,165.32,M,47.733,M,,*44
$GPRMC,190021,A,5018.1997,N,00917.9971,E,13.5735,354.642,181210,,*1A
$GPGSA,A,3,23,13,10,07,04,20,02,05,08,16,,,0.0,0.8,0.0*31
$GPGGA,190022,5018.2041,N,00917.9954,E,1,10,0.80,165.08,M,47.732,M,,*49
$GPRMC,190022,A,5018.2041,N,00917.9954,E,15.5140,347.986,181210,,*18
$GPGSA,A,3,23,13,10,07,04,20,02,05,08,16,,,0.0,0.8,0.0*31
$GPGSV,3,1,11,23,43,066,42,13,77,048,37,10,53,295,39,04,50,235,33*77
$GPGSV,3,2,11,20,14,120,34,02,42,286,40,16,15,055,32,07,43,172,39*7B
$GPGSV,3,3,11,05,08,297,32,08,15,189,31,30,03,016,24*46
$GPGGA,190023,5018.2088,N,00917.9947,E,1,10,0.80,164.31,M,47.732,M,,*44
$GPRMC,190023,A,5018.2088,N,00917.9947,E,17.0704,347.302,181210,,*19
$GPGSA,A,3,23,13,10,07,04,20,02,05,08,16,,,1.4,0.8,1.2*37
$GPGGA,190024,5018.2135,N,00917.9930,E,1,10,0.80,164.83,M,47.732,M,,*4D
$GPRMC,190024,A,5018.2135,N,00917.9930,E,17.8899,348.278,181210,,*19
$GPGSA,A,3,23,13,10,07,04,20,02,05,08,16,,,0.0,0.8,0.0*31
$GPGGA,190025,5018.2183,N,00917.9915,E,1,10,0.80,163.96,M,47.732,M,,*45
$GPRMC,190025,A,5018.2183,N,00917.9915,E,17.9972,350.805,181210,,*1E
$GPGSA,A,3,23,13,10,07,04,20,02,05,08,16,,,0.0,0.8,0.0*31
$GPGSV,3,1,11,23,43,066,41,13,77,048,37,10,53,295,39,04,50,235,36*71
$GPGSV,3,2,11,20,14,120,33,02,42,286,39,16,15,055,28,07,43,172,40*77
$GPGSV,3,3,11,05,08,297,31,08,15,189,31,30,03,016,37*47
$GPGGA,190026,5018.2234,N,00917.9908,E,1,10,0.80,163.96,M,47.732,M,,*45
$GPRMC,190026,A,5018.2234,N,00917.9908,E,17.8490,354.609,181210,,*18
$GPGSA,A,3,23,13,10,07,04,20,02,05,08,16,,,1.4,0.8,1.2*37
$GPGGA,190027,5018.2284,N,00917.9909,E,1,10,0.80,164.06,M,47.732,M,,*40
$GPRMC,190027,A,5018.2284,N,00917.9909,E,18.2105,1.006,181210,,*15
$GPGSA,A,3,23,13,10,07,04,20,02,05,08,16,,,0.0,0.8,0.0*31
$GPGGA,190028,5018.2337,N,00917.9920,E,1,10,0.80,163.63,M,47.732,M,,*49
$GPRMC,190028,A,5018.2337,N,00917.9920,E,18.8243,6.455,181210,,*16
$GPGSA,A,3,23,13,10,07,04,20,02,05,08,16,,,0.0,0.8,0.0*31
$GPGSV,3,1,11,23,43,066,41,13,77,048,37,10,53,295,39,04,50,235,40*70
$GPGSV,3,2,11,20,14,120,31,02,42,286,35,16,15,055,37,07,43,172,39*79
$GPGSV,3,3,11,05,08,297,34,08,15,189,33,30,03,016,35*42
$GPGGA,190029,5018.2391,N,00917.9931,E,1,10,0.80,163.21,M,47.732,M,,*42
$GPRMC,190029,A,5018.2391,N,00917.9931,E,19.5081,7.879,181210,,*18
$GPGSA,A,3,23,13,10,07,04,20,02,05,08,16,,,1.4,0.8,1.2*37
$GPGGA,190030,5018.2448,N,00917.9942,E,1,10,0.80,163.55,M,47.732,M,,*4E
$GPRMC,190030,A,5018.2448,N,00917.9942,E,20.2245,7.250,181210,,*11
$GPGSA,A,3,23,13,10,07,04,20,02,05,08,16,,,0.0,0.8,0.0*31
$GPGGA,190031,5018.2501,N,00917.9952,E,1,10,0.80,163.12,M,47.732,M,,*41
$GPRMC,190031,A,5018.2501,N,00917.9952,E,19.8501,6.462,181210,,*1C
$GPGSA,A,3,23,13,10,07,04,20,02,05,08,16,,,0.0,0.8,0.0*31
$GPGSV,3,1,11,23,43,066,42,13,77,048,37,10,53,295,39,04,50,235,40*73
$GPGSV,3,2,11,20,14,120,34,02,42,286,36,16,15,055,38,07,43,172,39*70
$GPGSV,3,3,11,05,08,297,42,08,15,189,35,30,03,016,35*45
$GPGGA,190032,5018.2558,N,00917.9963,E,1,10,0.80,163.47,M,47.732,M,,*4C
$GPRMC,190032,A,5018.2558,N,00917.9963,E,19.6671,5.705,181210,,*1A
$GPGSA,A,3,23,13,10,07,04,20,02,05,08,16,,,1.4,0.8,1.2*37
$GPGGA,190033,5018.2612,N,00917.9974,E,1,09,1.00,163.04,M,47.732,M,,*40
$GPRMC,190033,A,5018.2612,N,00917.9974,E,19.1458,4.904,181210,,*10
$GPGSA,A,3,23,13,10,07,04,20,02,08,16,,,,0.0,1.0,0.0*3D
$GPGGA,190034,5018.2662,N,00917.9975,E,1,09,1.00,163.14,M,47.732,M,,*40
$GPRMC,190034,A,5018.2662,N,00917.9975,E,18.1001,3.928,181210,,*11
$GPGSA,A,3,23,13,10,07,04,20,02,08,16,,,,0.0,1.0,0.0*3D
$GPGSV,3,1,11,23,43,066,43,13,77,048,37,10,53,295,40,04,50,235,39*72
$GPGSV,3,2,11,20,14,120,32,02,42,286,37,16,15,055,39,07,43,172,39*76
$GPGSV,3,3,11,05,08,297,32,08,15,189,36,30,03,016,26*43
$GPGGA,190035,5018.2711,N,00917.9985,E,1,10,0.80,163.35,M,47.732,M,,*49
$GPRMC,190035,A,5018.2711,N,00917.9985,E,17.2408,5.461,181210,,*1D
$GPGSA,A,3,23,13,10,07,04,20,02,05,08,16,,,1.4,0.8,1.2*37
$GPGGA,190036,5018.2753,N,00917.9993,E,1,10,0.80,163.41,M,47.732,M,,*48
$GPRMC,190036,A,5018.2753,N,00917.9993,E,16.0278,5.312,181210,,*1E
$GPGSA,A,3,23,13,10,07,04,20,02,05,08,16,,,0.0,0.8,0.0*31
$GPGGA,190037,5018.2795,N,00917.9993,E,1,10,0.80,163.38,M,47.732,M,,*4D
$GPRMC,190037,A,5018.2795,N,00917.9993,E,13.9439,4.974,181210,,*11
$GPGSA,A,3,23,13,10,07,04,20,02,05,08,16,,,0.0,0.8,0.0*31
$GPGSV,3,1,11,23,43,066,44,13,77,048,37,10,53,295,40,04,50,235,39*75
$GPGSV,3,2,11,20,14,120,28,02,42,286,38,16,15,055,39,07,43,172,39*72
$GPGSV,3,3,11,05,08,297,41,08,15,189,35,30,03,016,24*46
$GPGGA,190038,5018.2825,N,00917.9998,E,1,10,0.80,163.93,M,47.732,M,,*4C
$GPRMC,190038,A,5018.2825,N,00917.9998,E,11.6976,5.759,181210,,*1A
$GPGSA,A,3,23,13,10,07,04,20,02,05,08,16,,,1.4,0.8,1.2*37
$GPGGA,190039,5018.2852,N,00918.0004,E,1,10,0.80,163.72,M,47.732,M,,*48
$GPRMC,190039,A,5018.2852,N,00918.0004,E,9.1168,5.411,181210,,*27
$GPGSA,A,3,23,13,10,07,04,20,02,05,08,16,,,0.0,0.8,0.0*31
$GPGGA,190040,5018.2875,N,00918.0008,E,1,10,0.80,164.14,M,47.732,M,,*48
$GPRMC,190040,A,5018.2875,N,00918.0008,E,6.8729,6.891,181210,,*22
$GPGSA,A,3,23,13,10,07,04,20,02,05,08,16,,,0.0,0.8,0.0*31
$GPGSV,3,1,11,23,43,066,44,13,77,048,37,10,53,295,41,04,50,235,39*74
$GPGSV,3,2,11,20,14,120,30,02,42,286,38,16,15,055,39,07,43,172,39*7B
$GPGSV,3,3,11,05,08,297,41,08,15,189,35,30,03,016,24*46
$GPGGA,190041,5018.2886,N,00918.0011,E,1,10,0.80,163.65,M,47.732,M,,*4C
$GPRMC,190041,A,5018.2886,N,00918.0011,E,5.1631,6.989,181210,,*2D
$GPGSA,A,3,23,13,10,07,04,20,02,05,08,16,,,1.4,0.8,1.2*37
$GPGGA,190042,5018.2909,N,00918.0015,E,1,10,0.80,164.06,M,47.732,M,,*4F
$GPRMC,190042,A,5018.2909,N,00918.0015,E,6.5366,4.788,181210,,*21
$GPGSA,A,3,23,13,10,07,04,20,02,05,08,16,,,0.0,0.8,0.0*31
$GPGGA,190043,5018.2936,N,00918.0020,E,1,10,0.80,163.85,M,47.732,M,,*48
$GPRMC,190043,A,5018.2936,N,00918.0020,E,9.3042,5.544,181210,,*25
$GPGSA,A,3,23,13,10,07,04,20,02,05,08,16,,,0.0,0.8,0.0*31
$GPGSV,3,1,11,23,43,066,44,13,77,048,37,10,53,295,41,04,50,235,39*74
$GPGSV,3,2,11,20,14,120,34,02,42,286,38,16,15,055,39,07,43,172,40*71
$GPGSV,3,3,11,05,08,297,26,08,15,189,34,30,03,016,24*46
$GPGGA,190044,5018.2963,N,00918.0017,E,1,10,0.80,163.53,M,47.731,M,,*43
$GPRMC,190044,A,5018.2963,N,00918.0017,E,10.8679,4.515,181210,,*1E
$GPGSA,A,3,23,13,10,07,04,20,02,05,08,16,,,1.4,0.8,1.2*37
$GPGGA,190045,5018.3001,N,00918.0024,E,1,10,0.80,164.23,M,47.731,M,,*4E
$GPRMC,190045,A,5018.3001,N,00918.0024,E,12.5891,3.698,181210,,*15
$GPGSA,A,3,23,13,10,07,04,20,02,05,08,16,,,0.0,0.8,0.0*31
$GPGGA,190046,5018.3043,N,00918.0024,E,1,10,0.80,164.19,M,47.731,M,,*42
$GPRMC,190046,A,5018.3043,N,00918.0024,E,15.3855,2.555,181210,,*1A
$GPGSA,A,3,23,13,10,07,04,20,02,05,08,16,,,0.0,0.8,0.0*31
$GPGSV,3,1,11,23,43,066,44,13,77,048,36,10,53,295,41,04,50,235,39*75
$GPGSV,3,2,11,20,14,120,34,02,42,286,38,16,15,055,37,07,43,172,39*71
$GPGSV,3,3,11,05,08,297,22,08,15,189,34,30,03,016,24*42
$GPGGA,190047,5018.3093,N,00918.0025,E,1,10,0.80,164.29,M,47.731,M,,*4C
$GPRMC,190047,A,5018.3093,N,00918.0025,E,17.8403,0.775,181210,,*13
$GPGSA,A,3,23,13,10,07,04,20,02,05,08,16,,,1.4,0.8,1.2*37
$GPGGA,190048,5018.3143,N,00918.0026,E,1,10,0.80,164.39,M,47.731,M,,*4D
$GPRMC,190048,A,5018.3143,N,00918.0026,E,18.4240,359.503,181210,,*1D
$GPGSA,A,3,23,13,10,07,04,20,02,05,08,16,,,0.0,0.8,0.0*31
$GPGGA,190049,5018.3197,N,00918.0029,E,1,10,0.80,163.87,M,47.731,M,,*48
$GPRMC,190049,A,5018.3197,N,00918.0029,E,19.3651,357.631,181210,,*14
$GPGSA,A,3,23,13,10,07,04,20,02,05,08,16,,,0.0,0.8,0.0*31
$GPGSV,3,1,11,23,43,066,43,13,77,048,36,10,53,295,38,04,50,235,33*76
$GPGSV,3,2,11,20,14,120,35,02,42,286,34,16,15,055,36,07,43,172,38*7C
$GPGSV,3,3,11,05,08,297,26,08,15,189,35,30,03,016,21*42
$GPGGA,190050,5018.3256,N,00918.0015,E,1,10,0.80,163.90,M,47.731,M,,*47
$GPRMC,190050,A,5018.3256,N,00918.0015,E,20.7350,355.567,181210,,*15
$GPGSA,A,3,23,13,10,07,04,20,02,05,08,16,,,1.4,0.8,1.2*37
$GPGGA,190051,5018.3314,N,00918.0009,E,1,10,0.80,164.04,M,47.731,M,,*46
$GPRMC,190051,A,5018.3314,N,00918.0009,E,21.6609,354.693,181210,,*1E
$GPGSA,A,3,23,13,10,07,04,20,02,05,08,16,,,0.0,0.8,0.0*31
$GPGGA,190052,5018.3373,N,00917.9995,E,1,10,0.80,164.07,M,47.731,M,,*4D
$GPRMC,190052,A,5018.3373,N,00917.9995,E,22.1037,353.652,181210,,*13
$GPGSA,A,3,23,13,10,07,04,20,02,05,08,16,,,0.0,0.8,0.0*31
$GPGSV,3,1,11,23,43,066,31,13,77,048,36,10,53,295,37,04,50,235,34*7B
$GPGSV,3,2,11,20,14,120,28,02,42,286,36,16,15,055,21,07,43,172,37*7B
$GPGSV,3,3,11,05,08,297,26,08,15,189,23,30,03,016,18*4F
$GPGGA,190053,5018.3436,N,00917.9982,E,1,10,0.80,163.48,M,47.731,M,,*40
$GPRMC,190053,A,5018.3436,N,00917.9982,E,22.2416,350.471,181210,,*16
$GPGSA,A,3,23,13,10,07,04,20,02,05,08,16,,,1.4,0.8,1.2*37
$GPGGA,190054,5018.3499,N,00917.9960,E,1,10,0.80,164.18,M,47.731,M,,*4C
$GPRMC,190054,A,5018.3499,N,00917.9960,E,22.8721,347.163,181210,,*15
$GPGSA,A,3,23,13,10,07,04,20,02,05,08,16,,,0.0,0.8,0.0*31
$GPGGA,190055,5018.3559,N,00917.9938,E,1,10,0.80,164.11,M,47.731,M,,*44
$GPRMC,190055,A,5018.3559,N,00917.9938,E,22.7222,345.731,181210,,*1E
$GPGSA,A,3,23,13,10,07,04,20,02,05,08,16,,,0.0,0.8,0.0*31
$GPGSV,3,1,11,23,43,066,40,13,77,048,36,10,53,295,43,04,50,235,28*73
$GPGSV,3,2,11,20,14,120,24,02,42,286,39,16,15,055,31,07,43,172,39*77
$GPGSV,3,3,11,05,08,297,31,08,15,189,22,30,03,016,21*42
$GPGGA,190056,5018.3619,N,00917.9907,E,1,10,0.80,163.94,M,47.731,M,,*46
$GPRMC,190056,A,5018.3619,N,00917.9907,E,21.9555,343.603,181210,,*1A
$GPGSA,A,3,23,13,10,07,04,20,02,05,08,16,,,1.4,0.8,1.2*37
$GPGGA,190057,5018.3679,N,00917.9876,E,1,10,0.80,163.76,M,47.731,M,,*4A
$GPRMC,190057,A,5018.3679,N,00917.9876,E,22.1978,341.084,181210,,*19
$GPGSA,A,3,23,13,10,07,04,20,02,05,08,16,,,0.0,0.8,0.0*31
$GPGGA,190058,5018.3732,N,00917.9844,E,1,10,0.80,163.45,M,47.731,M,,*4A
$GPRMC,190058,A,5018.3732,N,00917.9844,E,22.5985,338.085,181210,,*10
$GPGSA,A,3,23,13,10,07,04,20,02,05,08,16,,,0.0,0.8,0.0*31
$GPGSV,3,1,12,23,43,066,40,13,77,048,36,10,53,295,43,04,50,235,33*7A
$GPGSV,3,2,12,20,14,120,24,02,42,286,44,16,15,055,31,07,43,172,39*7E
$GPGSV,3,3,12,05,08,297,24,08,15,189,33,30,03,016,20,126,30,159,32*4E
$GPGGA,190059,5018.3793,N,00917.9805,E,1,10,0.80,163.18,M,47.731,M,,*4D
$GPRMC,190059,A,5018.3793,N,00917.9805,E,23.0487,335.079,181210,,*1A
$GPGSA,A,3,23,13,10,07,04,20,02,05,08,16,,,1.4,0.8,1.2*37
$GPGGA,190100,5018.3846,N,00917.9755,E,1,10,0.80,164.06,M,47.730,M,,*44
$GPRMC,190100,A,5018.3846,N,00917.9755,E,22.3065,330.844,181210,,*13
$GPGSA,A,3,23,13,10,07,04,20,02,05,08,16,,,0.0,0.8,0.0*31
$GPGGA,190101,5018.3896,N,00917.9705,E,1,10,0.80,164.17,M,47.730,M,,*4D
$GPRMC,190101,A,5018.3896,N,00917.9705,E,21.8507,325.736,181210,,*1D
$GPGSA,A,3,23,13,10,07,04,20,02,05,08,16,,,0.0,0.8,0.0*31
$GPGSV,3,1,12,23,43,066,41,13,77,048,37,10,53,295,42,04,50,235,40*7F
$GPGSV,3,2,12,20,14,120,24,02,42,286,43,16,15,055,33,07,43,172,40*75
$GPGSV,3,3,12,05,08,297,34,08,15,189,23,30,03,016,20,126,30,159,34*48
$GPGGA,190102,5018.3947,N,00917.9647,E,1,10,0.80,164.18,M,47.730,M,,*4B
$GPRMC,190102,A,5018.3947,N,00917.9647,E,21.5438,323.219,181210,,*1A
$GPGSA,A,3,23,13,10,07,04,20,02,05,08,16,,,1.4,0.8,1.2*37
$GPGGA,190103,5018.3997,N,00917.9589,E,1,10,0.80,164.19,M,47.730,M,,*47
$GPRMC,190103,A,5018.3997,N,00917.9589,E,21.5896,322.381,181210,,*1E
$GPGSA,A,3,23,13,10,07,04,20,02,05,08,16,,,0.0,0.8,0.0*31
$GPGGA,190104,5018.4043,N,00917.9537,E,1,10,0.80,164.93,M,47.730,M,,*40
$GPRMC,190104,A,5018.4043,N,00917.9537,E,21.4200,322.840,181210,,*19
$GPGSA,A,3,23,13,10,07,04,20,02,05,08,16,,,0.0,0.8,0.0*31
$GPGSV,3,1,12,23,43,066,42,13,77,048,37,10,53,295,43,04,50,235,40*7D
$GPGSV,3,2,12,20,14,120,25,02,42,286,44,16,15,055,34,07,43,172,40*74
$GPGSV,3,3,12,05,08,297,31,08,15,189,32,30,03,016,20,126,30,159,34*4D
$GPGGA,190105,5018.4094,N,00917.9479,E,1,10,0.80,164.94,M,47.730,M,,*47
$GPRMC,190105,A,5018.4094,N,00917.9479,E,21.4200,322.840,181210,,*19
$GPGSA,A,3,23,13,10,07,04,20,02,05,08,16,,,1.4,0.8,1.2*37
$GPGGA,190106,5018.4140,N,00917.9428,E,1,10,0.80,165.69,M,47.730,M,,*4B
$GPRMC,190106,A,5018.4140,N,00917.9428,E,21.6683,323.465,181210,,*11
$GPGSA,A,3,23,13,10,07,04,20,02,05,08,16,,,0.0,0.8,0.0*31
$GPGGA,190107,5018.4190,N,00917.9369,E,1,10,0.80,165.70,M,47.730,M,,*4D
$GPRMC,190107,A,5018.4190,N,00917.9369,E,22.0459,324.440,181210,,*1F
$GPGSA,A,3,23,13,10,07,04,20,02,05,08,16,,,0.0,0.8,0.0*31
$GPGSV,3,1,12,23,43,066,42,13,77,048,38,10,53,295,43,04,50,235,40*72
$GPGSV,3,2,12,20,14,120,24,02,42,286,44,16,15,055,34,07,43,172,40*75
$GPGSV,3,3,12,05,08,297,39,08,15,189,33,30,03,016,23,126,30,159,35*46
$GPGGA,190108,5018.4241,N,00917.9311,E,1,10,0.80,165.71,M,47.730,M,,*43
$GPRMC,190108,A,5018.4241,N,00917.9311,E,22.2694,325.845,181210,,*19
$GPGSA,A,3,23,13,10,07,04,20,02,05,08,16,,,1.4,0.8,1.2*37
$GPGGA,190109,5018.4295,N,00917.9262,E,1,10,0.80,165.19,M,47.730,M,,*40
$GPRMC,190109,A,5018.4295,N,00917.9262,E,21.9317,327.623,181210,,*1E
$GPGSA,A,3,23,13,10,07,04,20,02,05,08,16,,,0.0,0.8,0.0*31
$GPGGA,190110,5018.4345,N,00917.9212,E,1,10,0.80,165.30,M,47.730,M,,*48
$GPRMC,190110,A,5018.4345,N,00917.9212,E,21.6271,328.611,181210,,*1D
$GPGSA,A,3,23,13,10,07,04,20,02,05,08,16,,,0.0,0.8,0.0*31
$GPGSV,3,1,12,23,43,066,43,13,77,048,38,10,53,295,42,04,50,235,41*73
$GPGSV,3,2,12,20,14,120,31,02,42,286,38,16,15,055,36,07,43,172,41*79
$GPGSV,3,3,12,05,08,297,25,08,15,189,38,30,03,016,23,126,30,159,34*41
$GPGGA,190111,5018.4398,N,00917.9171,E,1,10,0.80,166.29,M,47.730,M,,*44
$GPRMC,190111,A,5018.4398,N,00917.9171,E,21.8794,330.703,181210,,*11
$GPGSA,A,3,23,13,10,07,04,20,02,05,08,16,,,1.4,0.8,1.2*37
$GPGGA,190112,5018.4455,N,00917.9122,E,1,10,0.80,166.54,M,47.730,M,,*4D
$GPRMC,190112,A,5018.4455,N,00917.9122,E,22.0223,332.560,181210,,*15
$GPGSA,A,3,23,13,10,07,04,20,02,05,08,16,,,0.0,0.8,0.0*31
$GPGGA,190113,5018.4509,N,00917.9082,E,1,10,0.80,166.13,M,47.730,M,,*4C
$GPRMC,190113,A,5018.4509,N,00917.9082,E,22.3281,334.563,181210,,*19
$GPGSA,A,3,23,13,10,07,04,20,02,05,08,16,,,0.0,0.8,0.0*31
$GPGSV,3,1,12,23,43,066,44,13,77,048,38,10,53,295,43,04,50,235,40*74
$GPGSV,3,2,12,20,14,120,28,02,42,286,46,16,15,055,37,07,43,172,41*79
$GPGSV,3,3,12,05,08,297,26,08,15,189,37,30,03,016,30,126,30,159,33*48
$GPGGA,190114,5018.4565,N,00917.9041,E,1,10,0.80,166.48,M,47.730,M,,*40
$GPRMC,190114,A,5018.4565,N,00917.9041,E,21.8337,336.827,181210,,*10
$GPGSA,A,3,23,13,10,07,04,20,02,05,08,16,,,1.4,0.8,1.2*37
$GPGGA,190115,5018.4621,N,00917.9009,E,1,10,0.80,166.94,M,47.730,M,,*4F
$GPRMC,190115,A,5018.4621,N,00917.9009,E,21.3614,339.065,181210,,*10
$GPGSA,A,3,23,13,10,07,04,20,02,05,08,16,,,0.0,0.8,0.0*31
$GPGGA,190116,5018.4674,N,00917.8977,E,1,10,0.80,166.63,M,47.729,M,,*4D
$GPRMC,190116,A,5018.4674,N,00917.8977,E,21.1379,340.220,181210,,*13
$GPGSA,A,3,23,13,10,07,04,20,02,05,08,16,,,0.0,0.8,0.0*31
$GPGSV,3,1,11,23,43,066,44,13,77,048,38,10,53,295,42,04,50,235,35*74
$GPGSV,3,2,11,20,14,120,28,02,42,286,45,16,15,055,20,07,43,172,41*7F
$GPGSV,3,3,11,05,08,297,31,08,15,189,35,126,30,159,35*7D
$GPGGA,190117,5018.4730,N,00917.8945,E,1,10,0.80,167.09,M,47.729,M,,*41
$GPRMC,190117,A,5018.4730,N,00917.8945,E,21.0858,341.661,181210,,*1B
$GPGSA,A,3,23,13,10,07,04,20,02,05,08,16,,,1.4,0.8,1.2*37
$GPGGA,190118,5018.4790,N,00917.8923,E,1,10,0.80,167.02,M,47.729,M,,*4F
$GPRMC,190118,A,5018.4790,N,00917.8923,E,21.6078,343.004,181210,,*15
$GPGSA,A,3,23,13,10,07,04,20,02,05,08,16,,,0.0,0.8,0.0*31
$GPGGA,190119,5018.4850,N,00917.8892,E,1,10,0.80,166.85,M,47.729,M,,*48
$GPRMC,190119,A,5018.4850,N,00917.8892,E,22.0663,344.980,181210,,*17
$GPGSA,A,3,23,13,10,07,04,20,02,05,08,16,,,0.0,0.8,0.0*31
$GPGSV,3,1,11,23,43,066,41,13,77,048,38,10,53,295,41,04,50,235,34*73
$GPGSV,3,2,11,20,14,120,24,02,42,286,39,16,15,055,29,07,43,172,41*71
$GPGSV,3,3,11,05,08,297,27,08,15,189,27,126,30,159,35*79
$GPGGA,190120,5018.4910,N,00917.8870,E,1,10,0.80,166.78,M,47.729,M,,*49
$GPRMC,190120,A,5018.4910,N,00917.8870,E,22.2956,345.878,181210,,*18
$GPGSA,A,3,23,13,10,07,04,20,02,05,08,16,,,1.4,0.8,1.2*37
$GPGGA,190121,5018.4969,N,00917.8847,E,1,10,0.80,166.71,M,47.729,M,,*4B
$GPRMC,190121,A,5018.4969,N,00917.8847,E,22.5499,346.873,181210,,*12
$GPGSA,A,3,23,13,10,07,04,20,02,05,08,16,,,0.0,0.8,0.0*31
$GPGGA,190122,5018.5032,N,00917.8825,E,1,10,0.80,167.41,M,47.729,M,,*48
$GPRMC,190122,A,5018.5032,N,00917.8825,E,22.7905,347.733,181210,,*13
$GPGSA,A,3,23,13,10,07,04,20,02,05,08,16,,,0.0,0.8,0.0*31
$GPGSV,3,1,11,23,43,066,40,13,77,048,38,10,53,295,36,04,50,235,32*74
$GPGSV,3,2,11,20,14,120,32,02,42,286,37,16,15,055,28,07,43,172,40*78
$GPGSV,3,3,11,05,08,297,27,08,15,189,28,126,30,159,36*75
$GPGGA,190123,5018.5096,N,00917.8804,E,1,10,0.80,166.71,M,47.729,M,,*46
$GPRMC,190123,A,5018.5096,N,00917.8804,E,23.1144,348.007,181210,,*1A
$GPGSA,A,3,23,13,10,07,04,20,02,05,08,16,,,1.4,0.8,1.2*37
$GPGGA,190124,5018.5159,N,00917.8782,E,1,10,0.80,167.41,M,47.729,M,,*40
$GPRMC,190124,A,5018.5159,N,00917.8782,E,23.5907,348.350,181210,,*14
$GPGSA,A,3,23,13,10,07,04,20,02,05,08,16,,,0.0,0.8,0.0*31
$GPGGA,190125,5018.5223,N,00917.8761,E,1,10,0.80,166.72,M,47.729,M,,*43
$GPRMC,190125,A,5018.5223,N,00917.8761,E,23.5907,348.350,181210,,*16
$GPGSA,A,3,23,13,10,07,04,20,02,05,08,16,,,0.0,0.8,0.0*31
$GPGSV,3,1,11,23,43,066,40,13,77,048,37,10,53,295,37,04,50,235,33*7B
$GPGSV,3,2,11,20,14,120,26,02,42,286,37,16,15,055,26,07,43,172,40*73
$GPGSV,3,3,11,05,08,297,39,08,15,189,28,126,30,159,37*7B
$GPGGA,190126,5018.5286,N,00917.8738,E,1,10,0.80,167.42,M,47.729,M,,*41
$GPRMC,190126,A,5018.5286,N,00917.8738,E,23.5907,348.350,181210,,*16
$GPGSA,A,3,23,13,10,07,04,20,02,05,08,16,,,1.4,0.8,1.2*37
$GPGGA,190127,5018.5353,N,00917.8717,E,1,10,0.80,167.49,M,47.729,M,,*4F
$GPRMC,190127,A,5018.5353,N,00917.8717,E,23.9923,349.226,181210,,*18
$GPGSA,A,3,23,13,10,07,04,20,02,05,08,16,,,0.0,0.8,0.0*31
$GPGGA,190128,5018.5420,N,00917.8696,E,1,10,0.80,167.56,M,47.729,M,,*45
$GPRMC,190128,A,5018.5420,N,00917.8696,E,24.4932,349.636,181210,,*13
$GPGSA,A,3,23,13,10,07,04,20,02,05,08,16,,,0.0,0.8,0.0*31
$GPGSV,3,1,11,23,43,066,40,13,77,048,37,10,53,295,38,04,50,235,34*73
$GPGSV,3,2,11,20,14,120,21,02,42,286,38,16,15,055,37,07,43,172,40*7B
$GPGSV,3,3,11,05,08,297,39,08,15,189,27,126,30,159,37*74
$GPGGA,190129,5018.5487,N,00917.8675,E,1,10,0.80,167.63,M,47.729,M,,*42
$GPRMC,190129,A,5018.5487,N,00917.8675,E,24.8205,349.866,181210,,*1A
$GPGSA,A,3,23,13,10,07,04,20,02,05,08,16,,,1.4,0.8,1.2*37
$GPGGA,190130,5018.5557,N,00917.8654,E,1,10,0.80,168.47,M,47.728,M,,*4D
$GPRMC,190130,A,5018.5557,N,00917.8654,E,24.6678,349.803,181210,,*1E
$GPGSA,A,3,23,13,10,07,04,20,02,05,08,16,,,0.0,0.8,0.0*31
$GPGGA,190131,5018.5625,N,00917.8633,E,1,10,0.80,168.54,M,47.728,M,,*49
$GPRMC,190131,A,5018.5625,N,00917.8633,E,24.3183,348.315,181210,,*13
$GPGSA,A,3,23,13,10,07,04,20,02,05,08,16,,,0.0,0.8,0.0*31
$GPGSV,3,1,12,23,43,066,40,13,77,048,37,10,53,295,38,04,50,235,34*70
$GPGSV,3,2,12,20,14,120,28,02,42,286,38,16,15,055,29,07,43,172,40*7E
$GPGSV,3,3,12,05,08,297,34,08,15,189,34,30,03,016,21,126,30,159,37*4C
$GPGGA,190132,5018.5688,N,00917.8612,E,1,10,0.80,167.84,M,47.728,M,,*4C
$GPRMC,190132,A,5018.5688,N,00917.8612,E,24.0890,348.784,181210,,*10
$GPGSA,A,3,23,13,10,07,04,20,02,05,08,16,,,1.4,0.8,1.2*37
$GPGGA,190133,5018.5751,N,00917.8598,E,1,10,0.80,168.65,M,47.728,M,,*49
$GPRMC,190133,A,5018.5751,N,00917.8598,E,23.9368,348.712,181210,,*18
$GPGSA,A,3,23,13,10,07,04,20,02,05,08,16,,,0.0,0.8,0.0*31
$GPGGA,190134,5018.5818,N,00917.8577,E,1,10,0.80,168.72,M,47.728,M,,*4B
$GPRMC,190134,A,5018.5818,N,00917.8577,E,24.3406,349.570,181210,,*19
$GPGSA,A,3,23,13,10,07,04,20,02,05,08,16,,,0.0,0.8,0.0*31
$GPGSV,3,1,11,23,43,066,40,13,77,048,37,10,53,295,38,04,50,235,35*72
$GPGSV,3,2,11,20,14,120,33,02,42,286,39,16,15,055,32,07,43,172,40*7C
$GPGSV,3,3,11,05,08,297,31,08,15,189,29,126,30,159,37*72
$GPGGA,190135,5018.5889,N,00917.8558,E,1,10,0.80,168.16,M,47.728,M,,*4D
$GPRMC,190135,A,5018.5889,N,00917.8558,E,24.4437,350.279,181210,,*1E
$GPGSA,A,3,23,13,10,07,04,20,02,05,08,16,,,1.4,0.8,1.2*37
$GPGGA,190136,5018.5955,N,00917.8545,E,1,10,0.80,168.33,M,47.728,M,,*45
$GPRMC,190136,A,5018.5955,N,00917.8545,E,24.1542,351.314,181210,,*1C
$GPGSA,A,3,23,13,10,07,04,20,02,05,08,16,,,0.0,0.8,0.0*31
$GPGGA,190137,5018.6022,N,00917.8532,E,1,10,0.80,168.51,M,47.728,M,,*4A
$GPRMC,190137,A,5018.6022,N,00917.8532,E,24.2986,353.171,181210,,*13
$GPGSA,A,3,23,13,10,07,04,20,02,05,08,16,,,0.0,0.8,0.0*31
$GPGSV,3,1,12,23,43,066,40,13,77,048,37,10,53,295,38,04,50,235,42*71
$GPGSV,3,2,12,20,14,120,34,02,42,286,40,16,15,055,37,07,43,172,40*73
$GPGSV,3,3,12,05,08,297,40,08,15,189,36,30,03,016,26,126,30,159,35*48
$GPGGA,190138,5018.6088,N,00917.8520,E,1,10,0.80,168.68,M,47.728,M,,*4C
$GPRMC,190138,A,5018.6088,N,00917.8520,E,24.4184,355.559,181210,,*1B
$GPGSA,A,3,23,13,10,07,04,20,02,05,08,16,,,1.4,0.8,1.2*37
$GPGGA,190139,5018.6154,N,00917.8515,E,1,10,0.80,168.96,M,47.728,M,,*4A
$GPRMC,190139,A,5018.6154,N,00917.8515,E,24.3873,358.467,181210,,*1B
$GPGSA,A,3,23,13,10,07,04,20,02,05,08,16,,,0.0,0.8,0.0*31
$GPGGA,190140,5018.6224,N,00917.8512,E,1,10,0.80,168.61,M,47.728,M,,*4F
$GPRMC,190140,A,5018.6224,N,00917.8512,E,25.1525,0.420,181210,,*16
$GPGSA,A,3,23,13,10,07,04,20,02,05,08,16,,,0.0,0.8,0.0*31
$GPGSV,3,1,12,23,43,066,40,13,77,048,37,10,53,295,42,04,50,235,41*7F
$GPGSV,3,2,12,20,14,120,34,02,42,286,40,16,15,055,39,07,43,172,37*7D
$GPGSV,3,3,12,05,08,297,40,08,15,189,38,30,03,016,26,126,30,159,36*45
$GPGGA,190141,5018.6296,N,00917.8518,E,1,10,0.80,169.13,M,47.728,M,,*49
$GPRMC,190141,A,5018.6296,N,00917.8518,E,25.7593,2.186,181210,,*14
$GPGSA,A,3,23,13,10,07,04,20,02,05,08,16,,,1.4,0.8,1.2*37
$GPGGA,190142,5018.6369,N,00917.8532,E,1,10,0.80,168.35,M,47.728,M,,*46
$GPRMC,190142,A,5018.6369,N,00917.8532,E,26.3986,4.996,181210,,*1E
$GPGSA,A,3,23,13,10,07,04,20,02,05,08,16,,,0.0,0.8,0.0*31
