$GPGGA,154245,4946.5706,N,01018.5714,E,1,06,2.70,251.4,M,47.809,M,,*76
$GPRMC,154245,A,4946.5706,N,01018.5714,E,0.0000,0.000,020807,,*27
$GPGSA,A,3,09,05,30,14,12,47,,,,,,,5.0,2.7,4.2*3E
$GPGSV,3,1,10,09,62,131,33,04,18,084,00,05,59,266,45,17,11,040,00*7D
$GPGSV,3,2,10,30,40,260,35,02,13,120,00,14,35,304,22,12,80,284,40*7A
$GPGSV,3,3,10,01,06,330,00,47,07,249,00*74
$GPGGA,154246,4946.5706,N,01018.5714,E,1,05,2.70,251.4,M,47.809,M,,*76
$GPRMC,154246,A,4946.5706,N,01018.5714,E,0.0000,0.000,020807,,*24
$GPGSA,A,3,09,05,30,14,12,,,,,,,,5.0,2.7,4.2*3D
$GPGSV,3,1,10,09,62,131,31,04,18,084,00,05,59,266,45,17,11,040,00*7F
$GPGSV,3,2,10,30,40,260,34,02,13,120,00,14,35,304,21,12,80,284,39*76
$GPGSV,3,3,10,01,06,330,00,35,07,249,00*71
$GPGGA,154247,4946.5706,N,01018.5714,E,1,06,2.70,251.4,M,47.809,M,,*74
$GPRMC,154247,A,4946.5706,N,01018.5714,E,0.0000,0.000,020807,,*25
$GPGSA,A,3,09,05,30,14,12,35,,,,,,,5.0,2.7,4.2*3B
$PGRME,0.00,M,0.00,M,19.27,M*23
$GPGSV,3,1,10,09,62,131,33,04,18,084,00,05,59,266,45,17,11,040,00*7D
$GPGSV,3,2,10,30,40,260,34,02,13,120,00,14,35,304,22,12,80,284,39*75
$GPGSV,3,3,10,01,06,330,00,35,07,249,00*71
$GPGGA,154248,4946.5706,N,01018.5714,E,1,05,2.70,251.4,M,47.809,M,,*78
$GPRMC,154248,A,4946.5706,N,01018.5714,E,0.0000,0.000,020807,,*2A
$GPGSA,A,3,09,05,30,14,12,,,,,,,,5.0,2.7,4.2*3D
$GPGSV,3,1,10,09,62,131,34,04,18,084,00,05,59,266,46,17,11,040,00*79
$GPGSV,3,2,10,30,40,260,35,02,13,120,00,14,35,304,21,12,80,284,41*78
$GPGSV,3,3,10,01,06,330,00,35,07,249,00*71
$GPGGA,154249,4946.5706,N,01018.5714,E,1,05,2.70,251.4,M,47.809,M,,*79
$GPRMC,154249,A,4946.5706,N,01018.5714,E,0.0000,0.000,020807,,*2B
$GPGSA,A,3,09,05,30,14,12,,,,,,,,5.0,2.7,4.2*3D
$GPGSV,3,1,10,09,62,131,34,04,18,084,00,05,59,266,46,17,11,040,00*79
$GPGSV,3,2,10,30,40,260,36,02,13,120,00,14,35,304,21,12,80,284,41*7B
$GPGSV,3,3,10,01,06,330,00,35,07,249,00*71
$GPGGA,154250,4946.5706,N,01018.5714,E,1,05,2.70,251.4,M,47.809,M,,*71
$GPRMC,154250,A,4946.5706,N,01018.5714,E,0.0000,0.000,020807,,*23
$GPGSA,A,3,09,05,30,14,12,,,,,,,,5.0,2.7,4.2*3D
$PGRME,0.00,M,0.00,M,19.27,M*23
$GPGSV,3,1,10,09,62,131,33,04,18,084,00,05,59,266,45,17,11,040,00*7D
$GPGSV,3,2,10,30,40,260,36,02,13,120,00,14,35,304,22,12,80,284,41*78
$GPGSV,3,3,10,01,06,330,00,35,07,249,00*71
$GPGGA,154251,4946.5706,N,01018.5714,E,1,05,2.70,251.4,M,47.809,M,,*70
$GPRMC,154251,A,4946.5706,N,01018.5714,E,0.0000,0.000,020807,,*22
$GPGSA,A,3,09,05,30,14,12,,,,,,,,5.0,2.7,4.2*3D
$GPGSV,3,1,10,09,62,131,33,04,18,084,00,05,59,266,43,17,11,040,00*7B
$GPGSV,3,2,10,30,40,260,34,02,13,120,00,14,35,304,22,12,80,284,40*7B
$GPGSV,3,3,10,01,06,330,00,35,07,249,00*71
$GPGGA,154252,4946.5706,N,01018.5714,E,1,06,2.70,251.4,M,47.809,M,,*70
$GPRMC,154252,A,4946.5706,N,01018.5714,E,0.0000,0.000,020807,,*21
$GPGSA,A,3,09,05,30,14,12,35,,,,,,,5.0,2.7,4.2*3B
$PGRME,0.00,M,0.00,M,19.27,M*23
$GPGSV,3,1,10,09,62,131,32,04,18,084,00,05,59,266,44,17,11,040,00*7D
$GPGSV,3,2,10,30,40,260,34,02,13,120,00,14,35,304,22,12,80,284,41*7A
$GPGSV,3,3,10,01,06,330,00,35,07,249,00*71
$GPGGA,154253,4946.5706,N,01018.5714,E,1,05,2.70,251.4,M,47.809,M,,*72
$GPRMC,154253,A,4946.5706,N,01018.5714,E,0.0000,0.000,020807,,*20
$GPGSA,A,3,09,05,30,14,12,,,,,,,,5.0,2.7,4.2*3D
$GPGSV,3,1,10,09,62,131,34,04,18,084,00,05,59,266,43,17,11,040,00*7C
$GPGSV,3,2,10,30,40,260,36,02,13,120,00,14,35,304,22,12,80,284,39*77
$GPGSV,3,3,10,01,06,330,00,35,07,249,00*71
$GPGGA,154254,4946.5706,N,01018.5714,E,1,05,2.70,251.4,M,47.809,M,,*75
$GPRMC,154254,A,4946.5706,N,01018.5714,E,0.0000,0.000,020807,,*27
$GPGSA,A,3,09,05,30,14,12,,,,,,,,5.0,2.7,4.2*3D
$PGRME,0.00,M,0.00,M,19.27,M*23
$GPGSV,3,1,10,09,62,131,35,04,18,084,00,05,59,266,44,17,11,040,00*7A
$GPGSV,3,2,10,30,40,260,36,02,13,120,00,14,35,304,23,12,80,284,40*78
$GPGSV,3,3,10,01,06,330,00,35,07,249,00*71
$GPGGA,154255,4946.5706,N,01018.5714,E,1,05,2.70,251.4,M,47.809,M,,*74
$GPRMC,154255,A,4946.5706,N,01018.5714,E,0.0000,0.000,020807,,*26
$GPGSA,A,3,09,05,30,14,12,,,,,,,,5.0,2.7,4.2*3D
$GPGSV,3,1,10,09,62,131,35,04,18,084,00,05,59,266,44,17,11,040,00*7A
$GPGSV,3,2,10,30,40,260,36,02,13,120,00,14,35,304,24,12,80,284,39*71
$GPGSV,3,3,10,01,06,330,00,35,07,249,00*71
$GPGGA,154256,4946.5706,N,01018.5714,E,1,05,2.70,251.4,M,47.809,M,,*77
$GPRMC,154256,A,4946.5706,N,01018.5714,E,0.0000,0.000,020807,,*25
$GPGSA,A,3,09,05,30,14,12,,,,,,,,5.0,2.7,4.2*3D
$PGRME,0.00,M,0.00,M,19.27,M*23
$GPGSV,3,1,10,09,62,131,35,04,18,084,00,05,59,266,45,17,11,040,00*7B
$GPGSV,3,2,10,30,40,260,36,02,13,120,00,14,35,304,22,12,80,284,39*77
$GPGSV,3,3,10,01,06,330,00,35,07,249,00*71
$GPGGA,154257,4946.5706,N,01018.5714,E,1,05,2.70,251.4,M,47.809,M,,*76
$GPRMC,154257,A,4946.5706,N,01018.5714,E,0.0000,0.000,020807,,*24
$GPGSA,A,3,09,05,30,14,12,,,,,,,,5.0,2.7,4.2*3D
$GPGSV,3,1,10,09,62,131,33,04,18,084,00,05,59,266,43,17,11,040,00*7B
$GPGSV,3,2,10,30,40,260,35,02,13,120,00,14,35,304,21,12,80,284,39*77
$GPGSV,3,3,10,01,06,330,00,35,07,249,00*71
$GPGGA,154258,4946.5706,N,01018.5714,E,1,05,2.70,251.4,M,47.809,M,,*79
$GPRMC,154258,A,4946.5706,N,01018.5714,E,0.0000,0.000,020807,,*2B
$GPGSA,A,3,09,05,30,14,12,,,,,,,,5.0,2.7,4.2*3D
$PGRME,0.00,M,0.00,M,19.27,M*23
$GPGSV,3,1,10,09,62,131,34,04,18,084,00,05,59,266,42,17,11,040,00*7D
$GPGSV,3,2,10,30,40,260,38,02,13,120,00,14,35,304,21,12,80,284,40*74
$GPGSV,3,3,10,01,06,330,00,35,07,249,00*71
$GPGGA,154259,4946.5706,N,01018.5714,E,1,06,2.70,251.4,M,47.809,M,,*7B
$GPRMC,154259,A,4946.5706,N,01018.5714,E,0.0000,0.000,020807,,*2A
$GPGSA,A,3,09,05,30,14,12,35,,,,,,,5.0,2.7,4.2*3B
$GPGSV,3,1,10,09,62,131,34,04,18,084,00,05,59,266,42,17,11,040,00*7D
$GPGSV,3,2,10,30,40,260,37,02,13,120,00,14,35,304,22,12,80,284,40*78
$GPGSV,3,3,10,01,06,330,00,35,07,249,00*71
$GPGGA,154300,4946.5706,N,01018.5714,E,1,05,2.70,251.4,M,47.809,M,,*75
$GPRMC,154300,A,4946.5706,N,01018.5714,E,0.0000,0.000,020807,,*27
$GPGSA,A,3,09,05,30,14,12,,,,,,,,5.0,2.7,4.2*3D
$PGRME,0.00,M,0.00,M,19.27,M*23
$GPGSV,3,1,10,09,62,131,35,04,18,084,00,05,59,266,41,17,11,040,00*7F
$GPGSV,3,2,10,30,40,260,36,02,13,120,00,14,35,304,21,12,80,284,40*7A
$GPGSV,3,3,10,01,06,330,00,35,07,249,00*71
$GPGGA,154301,4946.5706,N,01018.5714,E,1,06,2.70,251.4,M,47.809,M,,*77
$GPRMC,154301,A,4946.5706,N,01018.5714,E,0.0000,0.000,020807,,*26
$GPGSA,A,3,09,05,30,14,12,35,,,,,,,5.0,2.7,4.2*3B
$GPGSV,3,1,10,09,62,131,36,04,18,084,00,05,59,266,43,17,11,040,00*7E
$GPGSV,3,2,10,30,40,260,36,02,13,120,00,14,35,304,22,12,80,284,40*79
$GPGSV,3,3,10,01,06,330,00,35,07,249,00*71
$GPGGA,154302,4946.5703,N,01018.5714,E,1,05,2.70,250.6,M,47.809,M,,*71
$GPRMC,154302,A,4946.5703,N,01018.5714,E,0.0000,0.000,020807,,*20
$GPGSA,A,3,09,05,30,14,12,,,,,,,,5.0,2.7,4.2*3D
$GPGSV,3,1,10,09,62,131,36,04,19,084,00,05,59,266,42,17,11,040,00*7E
$GPGSV,3,2,10,30,40,260,39,02,13,120,00,14,35,304,21,12,80,284,41*74
$GPGSV,3,3,10,01,06,330,00,35,07,249,00*71
$GPGGA,154303,4946.5703,N,01018.5714,E,1,05,2.70,250.6,M,47.809,M,,*70
$GPRMC,154303,A,4946.5703,N,01018.5714,E,0.0000,0.000,020807,,*21
$GPGSA,A,3,09,05,30,14,12,,,,,,,,5.0,2.7,4.2*3D
$PGRME,0.00,M,0.00,M,19.27,M*23
$GPGSV,3,1,10,09,62,131,35,04,19,084,00,05,59,266,43,17,11,040,00*7C
$GPGSV,3,2,10,30,40,260,39,02,13,120,00,14,35,304,21,12,80,284,41*74
$GPGSV,3,3,10,01,06,330,00,35,07,249,00*71
$GPGGA,154304,4946.5703,N,01018.5714,E,1,06,2.70,250.6,M,47.809,M,,*74
$GPRMC,154304,A,4946.5703,N,01018.5714,E,0.0000,0.000,020807,,*26
$GPGSA,A,3,09,05,30,14,12,35,,,,,,,5.0,2.7,4.2*3B
$GPGSV,3,1,10,09,62,131,33,04,19,084,00,05,59,266,43,17,11,040,00*7A
$GPGSV,3,2,10,30,40,260,40,02,13,120,00,14,35,304,21,12,80,284,41*7A
$GPGSV,3,3,10,01,06,330,00,35,07,249,00*71
$GPGGA,154305,4946.5703,N,01018.5714,E,1,06,2.70,250.6,M,47.809,M,,*75
$GPRMC,154305,A,4946.5703,N,01018.5714,E,0.0000,0.000,020807,,*27
$GPGSA,A,3,09,05,30,14,12,35,,,,,,,5.0,2.7,4.2*3B
$GPGSV,3,1,10,09,62,131,34,04,19,084,00,05,59,266,44,17,11,040,00*7A
$GPGSV,3,2,10,30,40,260,37,02,13,120,00,14,35,304,23,12,80,284,43*7A
$GPGSV,3,3,10,01,06,330,00,35,07,249,00*71
$GPGGA,154306,4946.5703,N,01018.5714,E,1,05,2.70,250.6,M,47.809,M,,*75
$GPRMC,154306,A,4946.5703,N,01018.5714,E,0.0000,0.000,020807,,*24
$GPGSA,A,3,09,05,30,14,12,,,,,,,,5.0,2.7,4.2*3D
$GPGSV,3,1,10,09,62,131,35,04,19,084,00,05,59,266,48,17,11,040,00*77
$GPGSV,3,2,10,30,40,260,38,02,13,120,00,14,35,304,23,12,80,284,44*72
$GPGSV,3,3,10,01,06,330,00,35,07,249,00*71
$GPGGA,154307,4946.5703,N,01018.5714,E,1,05,2.70,250.6,M,47.809,M,,*74
$GPRMC,154307,A,4946.5703,N,01018.5714,E,0.0000,0.000,020807,,*25
$GPGSA,A,3,09,05,30,14,12,,,,,,,,5.0,2.7,4.2*3D
$GPGSV,3,1,10,09,62,131,36,04,19,084,00,05,59,266,48,17,11,040,00*74
$GPGSV,3,2,10,30,40,260,38,02,13,120,00,14,35,304,24,12,80,284,45*74
$GPGSV,3,3,10,01,06,330,00,35,07,249,00*71
$GPGGA,154308,4946.5703,N,01018.5714,E,1,05,2.70,250.6,M,47.809,M,,*7B
$GPRMC,154308,A,4946.5703,N,01018.5714,E,0.0000,0.000,020807,,*2A
$GPGSA,A,3,09,05,30,14,12,,,,,,,,5.0,2.7,4.2*3D
$GPGSV,3,1,10,09,62,131,36,04,19,084,00,05,59,266,46,17,11,040,00*7A
$GPGSV,3,2,10,30,40,260,37,02,13,120,00,14,35,304,23,12,80,284,44*7D
$GPGSV,3,3,10,01,06,330,00,35,07,249,00*71
$GPGGA,154309,4946.5703,N,01018.5714,E,1,05,2.70,250.6,M,47.809,M,,*7A
$GPRMC,154309,A,4946.5703,N,01018.5714,E,0.0000,0.000,020807,,*2B
$GPGSA,A,3,09,05,30,14,12,,,,,,,,5.0,2.7,4.2*3D
$GPGSV,3,1,10,09,62,131,34,04,19,084,00,05,59,266,45,17,11,040,00*7B
$GPGSV,3,2,10,30,40,260,36,02,13,120,00,14,35,304,20,12,80,284,41*7A
$GPGSV,3,3,10,01,06,330,00,35,07,249,00*71
$GPGGA,154310,4946.5703,N,01018.5714,E,1,05,2.70,250.6,M,47.809,M,,*72
$GPRMC,154310,A,4946.5703,N,01018.5714,E,0.0000,0.000,020807,,*23
$GPGSA,A,3,09,05,30,14,12,,,,,,,,5.0,2.7,4.2*3D
$GPGSV,3,1,10,09,62,131,34,04,19,084,00,05,59,266,49,17,11,040,00*77
$GPGSV,3,2,10,30,40,260,34,02,13,120,00,14,35,304,17,12,80,285,43*7F
$GPGSV,3,3,10,01,06,330,00,35,07,249,00*71
$GPGGA,154311,4946.5703,N,01018.5714,E,1,05,2.70,250.6,M,47.809,M,,*73
$GPRMC,154311,A,4946.5703,N,01018.5714,E,0.0000,0.000,020807,,*22
$GPGSA,A,3,09,05,30,14,12,,,,,,,,5.0,2.7,4.2*3D
$GPGSV,3,1,10,09,62,131,34,04,19,084,00,05,59,266,48,17,11,040,00*76
$GPGSV,3,2,10,30,40,260,34,02,13,120,00,14,35,304,16,12,80,285,42*7F
$GPGSV,3,3,10,01,06,330,00,35,07,249,00*71
$GPGGA,154312,4946.5702,N,01018.5723,E,1,05,2.70,250.7,M,47.809,M,,*74
$GPRMC,154312,A,4946.5702,N,01018.5723,E,0.0000,0.000,020807,,*24
$GPGSA,A,3,09,05,30,14,12,,,,,,,,5.0,2.7,4.2*3D
$GPGSV,3,1,10,09,62,131,34,04,19,084,00,05,59,266,50,17,11,040,00*7F
$GPGSV,3,2,10,30,40,260,34,02,13,120,00,14,35,304,16,12,80,285,42*7F
$GPGSV,3,3,10,01,06,330,00,35,07,249,00*71
$GPGGA,154313,4946.5702,N,01018.5723,E,1,06,2.70,250.7,M,47.809,M,,*76
$GPRMC,154313,A,4946.5702,N,01018.5723,E,0.0000,0.000,020807,,*25
$GPGSA,A,3,09,05,30,14,12,35,,,,,,,5.0,2.7,4.2*3B
$GPGSV,3,1,10,09,62,131,31,04,19,084,00,05,59,266,49,17,11,040,00*72
$GPGSV,3,2,10,30,40,260,34,02,13,120,00,14,35,304,15,12,80,285,42*7C
$GPGSV,3,3,10,01,06,330,00,35,07,249,00*71
$GPGGA,154314,4946.5702,N,01018.5723,E,1,05,2.70,250.7,M,47.809,M,,*72
$GPRMC,154314,A,4946.5702,N,01018.5723,E,0.0000,0.000,020807,,*22
$GPGSA,A,3,09,05,30,14,12,,,,,,,,4.9,4.8,0.9*33
$GPGSV,3,1,10,09,62,131,30,04,19,084,00,05,59,266,48,17,11,040,00*72
$GPGSV,3,2,10,30,40,260,34,02,13,120,00,14,35,304,14,12,80,285,42*7D
$GPGSV,3,3,10,01,06,330,00,35,07,249,00*71
$GPGGA,154315,4946.5702,N,01018.5723,E,1,04,4.80,250.7,M,47.809,M,,*7B
$GPRMC,154315,A,4946.5702,N,01018.5723,E,0.0000,0.000,020807,,*23
$GPGSA,A,3,09,05,30,12,,,,,,,,,5.0,2.7,4.2*38
$GPGSV,3,1,10,09,62,131,29,04,19,084,00,05,59,266,46,17,11,040,00*74
$GPGSV,3,2,10,30,40,260,34,02,13,120,00,14,35,304,13,12,80,285,41*79
$GPGSV,3,3,10,01,06,330,00,35,07,249,00*71
$GPGGA,154316,4946.5702,N,01018.5723,E,1,05,2.70,250.7,M,47.809,M,,*70
$GPRMC,154316,A,4946.5702,N,01018.5723,E,0.0000,0.000,020807,,*20
$GPGSA,A,3,09,05,30,14,12,,,,,,,,5.0,2.7,4.2*3D
$GPGSV,3,1,10,09,62,131,30,04,19,084,00,05,59,266,46,17,11,040,00*7C
$GPGSV,3,2,10,30,40,260,34,02,13,120,00,14,35,304,13,12,80,285,41*79
$GPGSV,3,3,10,01,06,330,00,35,07,249,00*71
$GPGGA,154317,4946.5702,N,01018.5723,E,1,06,2.70,250.7,M,47.809,M,,*72
$GPRMC,154317,A,4946.5702,N,01018.5723,E,0.0000,0.000,020807,,*21
$GPGSA,A,3,09,05,30,14,12,35,,,,,,,5.0,2.7,4.2*3B
$GPGSV,3,1,10,09,62,131,30,04,19,084,00,05,59,266,47,17,11,040,00*7D
$GPGSV,3,2,10,30,40,260,35,02,13,120,00,14,35,304,13,12,80,285,42*7B
$GPGSV,3,3,10,01,06,330,00,35,07,249,00*71
$GPGGA,154318,4946.5702,N,01018.5723,E,1,05,2.70,250.7,M,47.809,M,,*7E
$GPRMC,154318,A,4946.5702,N,01018.5723,E,0.0000,0.000,020807,,*2E
$GPGSA,A,3,09,05,30,14,12,,,,,,,,5.0,2.7,4.2*3D
$GPGSV,3,1,10,09,62,131,31,04,19,084,00,05,59,266,46,17,11,040,00*7D
$GPGSV,3,2,10,30,40,260,33,02,13,120,00,14,35,304,13,12,80,285,41*7E
$GPGSV,3,3,10,01,06,330,00,35,07,249,00*71
$GPGGA,154319,4946.5699,N,01018.5723,E,1,05,2.70,249.9,M,47.809,M,,*7A
$GPRMC,154319,A,4946.5699,N,01018.5723,E,0.0000,0.000,020807,,*2C
$GPGSA,A,3,09,05,30,14,12,,,,,,,,5.0,2.7,4.2*3D
$GPGSV,3,1,10,09,62,131,32,04,19,084,00,05,59,266,46,17,11,040,00*7E
$GPGSV,3,2,10,30,40,260,33,02,13,120,00,14,35,304,14,12,80,285,41*79
$GPGSV,3,3,10,01,06,330,00,35,07,249,00*71
$GPGGA,154320,4946.5699,N,01018.5723,E,1,05,2.70,249.9,M,47.809,M,,*70
$GPRMC,154320,A,4946.5699,N,01018.5723,E,0.0000,0.000,020807,,*26
$GPGSA,A,3,09,05,30,14,12,,,,,,,,5.0,2.7,4.2*3D
$GPGSV,3,1,10,09,62,131,32,04,19,084,00,05,59,266,47,17,11,040,00*7F
$GPGSV,3,2,10,30,40,260,33,02,13,120,00,14,35,304,13,12,80,285,42*7D
$GPGSV,3,3,10,01,06,330,00,35,07,249,00*71
$GPGGA,154321,4946.5699,N,01018.5723,E,1,06,2.70,249.9,M,47.809,M,,*72
$GPRMC,154321,A,4946.5699,N,01018.5723,E,0.0000,0.000,020807,,*27
$GPGSA,A,3,09,05,30,14,12,35,,,,,,,5.0,2.7,4.2*3B
$GPGSV,3,1,10,09,62,131,32,04,19,084,00,05,59,266,46,17,11,040,00*7E
$GPGSV,3,2,10,30,40,260,33,02,13,120,00,14,35,304,13,12,80,285,39*71
$GPGSV,3,3,10,01,06,330,00,35,07,249,00*71
$GPGGA,154322,4946.5699,N,01018.5723,E,1,05,2.70,249.9,M,47.809,M,,*72
$GPRMC,154322,A,4946.5699,N,01018.5723,E,0.0000,0.000,020807,,*24
$GPGSA,A,3,09,05,30,14,12,,,,,,,,5.0,2.7,4.2*3D
$GPGSV,3,1,10,09,62,131,33,04,19,084,00,05,59,266,47,17,11,040,00*7E
$GPGSV,3,2,10,30,40,260,34,02,13,120,00,14,35,304,13,12,80,285,43*7B
$GPGSV,3,3,10,01,06,330,00,35,07,249,00*71
$GPGGA,154323,4946.5699,N,01018.5723,E,1,06,2.70,249.9,M,47.809,M,,*70
$GPRMC,154323,A,4946.5699,N,01018.5723,E,0.0000,0.000,020807,,*25
$GPGSA,A,3,09,05,30,14,12,35,,,,,,,5.0,2.7,4.2*3B
$GPGSV,3,1,10,09,62,131,34,04,19,084,00,05,59,266,47,17,11,040,00*79
$GPGSV,3,2,10,30,40,260,33,02,13,120,00,14,35,304,14,12,80,285,46*7E
$GPGSV,3,3,10,01,06,330,00,35,07,249,00*71
$GPGGA,154324,4946.5699,N,01018.5723,E,1,05,2.70,249.9,M,47.809,M,,*74
$GPRMC,154324,A,4946.5699,N,01018.5723,E,0.0000,0.000,020807,,*22
$GPGSA,A,3,09,05,30,14,12,,,,,,,,5.0,2.7,4.2*3D
$GPGSV,3,1,10,09,62,131,35,04,19,084,00,05,59,266,48,17,11,040,00*77
$GPGSV,3,2,10,30,40,260,37,02,13,120,00,14,35,304,15,12,80,285,46*7B
$GPGSV,3,3,10,01,06,330,00,35,07,249,00*71
$GPGGA,154325,4946.5699,N,01018.5723,E,1,05,2.70,249.9,M,47.809,M,,*75
$GPRMC,154325,A,4946.5699,N,01018.5723,E,0.0000,0.000,020807,,*23
$GPGSA,A,3,09,05,30,14,12,,,,,,,,5.0,2.8,4.2*32
$GPGSV,3,1,10,09,62,131,36,04,19,084,00,05,59,266,48,17,11,040,00*74
$GPGSV,3,2,10,30,40,260,39,02,13,120,00,14,35,304,16,12,80,285,47*77
$GPGSV,3,3,10,01,06,330,00,35,07,249,00*71
$GPGGA,154326,4946.5699,N,01018.5723,E,1,06,2.80,249.9,M,47.809,M,,*7A
$GPRMC,154326,A,4946.5699,N,01018.5723,E,0.0000,0.000,020807,,*20
$GPGSA,A,3,09,05,30,14,12,35,,,,,,,5.0,2.8,4.2*34
$GPGSV,3,1,10,09,62,131,35,04,19,084,00,05,59,266,48,17,11,040,00*77
$GPGSV,3,2,10,30,40,260,38,02,13,120,00,14,35,304,18,12,80,285,46*79
$GPGSV,3,3,10,01,06,330,00,35,07,249,00*71
$GPGGA,154327,4946.5699,N,01018.5723,E,1,06,2.80,249.9,M,47.809,M,,*7B
$GPRMC,154327,A,4946.5699,N,01018.5723,E,0.0000,0.000,020807,,*21
$GPGSA,A,3,09,05,30,14,12,35,,,,,,,5.0,2.8,4.2*34
$GPGSV,3,1,10,09,62,131,33,04,19,084,00,05,59,266,48,17,11,040,00*71
$GPGSV,3,2,10,30,40,260,36,02,13,120,00,14,35,304,17,12,80,285,47*79
$GPGSV,3,3,10,01,06,330,00,35,07,249,00*71
$GPGGA,154328,4946.5699,N,01018.5723,E,1,05,2.80,249.9,M,47.809,M,,*77
$GPRMC,154328,A,4946.5699,N,01018.5723,E,0.0000,0.000,020807,,*2E
$GPGSA,A,3,09,05,30,14,12,,,,,,,,5.0,2.8,4.2*32
$GPGSV,3,1,10,09,62,131,30,04,19,084,00,05,59,266,49,17,11,040,00*73
$GPGSV,3,2,10,30,40,260,35,02,13,120,00,14,35,304,19,12,80,285,48*7B
$GPGSV,3,3,10,01,06,330,00,35,07,249,00*71
$GPGGA,154329,4946.5699,N,01018.5723,E,1,06,2.80,249.9,M,47.809,M,,*75
$GPRMC,154329,A,4946.5699,N,01018.5723,E,0.0000,0.000,020807,,*2F
$GPGSA,A,3,09,05,30,14,12,35,,,,,,,5.0,2.8,4.2*34
$GPGSV,3,1,10,09,62,131,30,04,19,084,00,05,59,266,47,17,11,040,00*7D
$GPGSV,3,2,10,30,40,260,33,02,13,120,00,14,35,304,18,12,80,285,48*7C
$GPGSV,3,3,10,01,06,330,00,35,07,249,00*71
$GPGGA,154330,4946.5703,N,01018.5724,E,1,05,2.80,249.3,M,47.809,M,,*71
$GPRMC,154330,A,4946.5703,N,01018.5724,E,0.0000,0.000,020807,,*22
$GPGSA,A,3,09,05,30,14,12,,,,,,,,5.0,2.8,4.2*32
$GPGSV,3,1,10,09,62,131,32,04,19,084,00,05,59,266,47,17,11,040,00*7F
$GPGSV,3,2,10,30,40,260,33,02,13,120,00,14,35,304,18,12,80,285,48*7C
$GPGSV,3,3,10,01,06,330,00,35,07,249,00*71
$GPGGA,154331,4946.5703,N,01018.5724,E,1,06,2.80,249.3,M,47.809,M,,*73
$GPRMC,154331,A,4946.5703,N,01018.5724,E,0.0000,0.000,020807,,*23
$GPGSA,A,3,09,05,30,14,12,35,,,,,,,5.0,2.8,4.2*34
$GPGSV,3,1,10,09,62,131,33,04,19,084,00,05,59,266,46,17,11,040,00*7F
$GPGSV,3,2,10,30,40,260,33,02,13,120,00,14,35,304,19,12,80,285,47*72
$GPGSV,3,3,10,01,06,330,00,35,07,249,00*71
$GPGGA,154332,4946.5703,N,01018.5724,E,1,06,2.80,249.3,M,47.809,M,,*70
$GPRMC,154332,A,4946.5703,N,01018.5724,E,0.0000,0.000,020807,,*20
$GPGSA,A,3,09,05,30,14,12,35,,,,,,,5.0,2.8,4.2*34
$GPGSV,3,1,10,09,62,131,34,04,19,084,00,05,59,266,46,17,11,040,00*78
$GPGSV,3,2,10,30,40,260,34,02,13,120,00,14,35,304,20,12,80,285,46*7E
$GPGSV,3,3,10,01,06,330,00,35,07,249,00*71
$GPGGA,154333,4946.5703,N,01018.5724,E,1,05,2.80,249.3,M,47.809,M,,*72
$GPRMC,154333,A,4946.5703,N,01018.5724,E,0.0000,0.000,020807,,*21
$GPGSA,A,3,09,05,30,14,12,,,,,,,,5.0,2.8,4.2*32
$GPGSV,3,1,10,09,62,131,35,04,19,084,00,05,59,266,48,17,11,040,00*77
$GPGSV,3,2,10,30,40,260,34,02,13,120,00,14,35,304,18,12,80,285,45*76
$GPGSV,3,3,10,01,06,330,00,35,07,249,00*71
$GPGGA,154334,4946.5703,N,01018.5724,E,1,05,2.80,249.3,M,47.809,M,,*75
$GPRMC,154334,A,4946.5703,N,01018.5724,E,0.0000,0.000,020807,,*26
$GPGSA,A,3,09,05,30,14,12,,,,,,,,5.0,2.8,4.2*32
$GPGSV,3,1,10,09,62,131,34,04,19,084,00,05,59,266,50,17,11,040,00*7F
$GPGSV,3,2,10,30,40,260,33,02,13,120,00,14,35,304,21,12,80,285,47*79
$GPGSV,3,3,10,01,06,330,00,35,07,249,00*71
$GPGGA,154335,4946.5703,N,01018.5724,E,1,05,2.80,249.3,M,47.809,M,,*74
$GPRMC,154335,A,4946.5703,N,01018.5724,E,0.0000,0.000,020807,,*27
$GPGSA,A,3,09,05,30,14,12,,,,,,,,5.0,2.8,4.2*32
$GPGSV,3,1,10,09,62,131,36,04,19,084,00,05,59,266,49,17,11,040,00*75
$GPGSV,3,2,10,30,40,260,33,02,13,120,00,14,35,304,19,12,80,285,45*70
$GPGSV,3,3,10,01,06,330,00,33,07,249,00*77
$GPGGA,154336,4946.5703,N,01018.5724,E,1,05,2.80,249.3,M,47.809,M,,*77
$GPRMC,154336,A,4946.5703,N,01018.5724,E,0.0000,0.000,020807,,*24
$GPGSA,A,3,09,05,30,14,12,,,,,,,,5.0,2.8,4.2*32
$GPGSV,3,1,10,09,62,131,35,04,19,084,00,05,59,266,50,17,11,040,00*7E
$GPGSV,3,2,10,30,40,260,34,02,13,120,00,14,35,304,18,12,80,285,45*76
$GPGSV,3,3,10,01,06,330,00,33,07,249,00*77
$GPGGA,154337,4946.5699,N,01018.5724,E,1,06,2.80,248.5,M,47.809,M,,*70
$GPRMC,154337,A,4946.5699,N,01018.5724,E,0.0000,0.000,020807,,*27
$GPGSA,A,3,09,05,30,14,12,33,,,,,,,5.0,2.8,4.2*32
$GPGSV,3,1,10,09,62,131,34,04,19,084,00,05,59,266,48,17,11,040,00*76
$GPGSV,3,2,10,30,40,260,34,02,13,120,00,14,35,304,16,12,80,285,44*79
$GPGSV,3,3,10,01,06,330,00,33,07,249,00*77
$GPGGA,154338,4946.5699,N,01018.5724,E,1,05,2.80,248.5,M,47.809,M,,*7C
$GPRMC,154338,A,4946.5699,N,01018.5724,E,0.0000,0.000,020807,,*28
$GPGSA,A,3,09,05,30,14,12,,,,,,,,5.0,2.8,4.2*32
$GPGSV,3,1,10,09,62,131,33,04,19,084,00,05,59,266,47,17,11,040,00*7E
$GPGSV,3,2,10,30,40,260,34,02,13,120,00,14,35,304,15,12,80,285,45*7B
$GPGSV,3,3,10,01,06,330,00,33,07,249,00*77
$GPGGA,154339,4946.5699,N,01018.5724,E,1,05,2.80,248.5,M,47.809,M,,*7D
$GPRMC,154339,A,4946.5699,N,01018.5724,E,0.0000,0.000,020807,,*29
$GPGSA,A,3,09,05,30,14,12,,,,,,,,5.0,2.8,4.2*32
$GPGSV,3,1,10,09,62,131,33,04,19,084,00,05,59,266,47,17,11,040,00*7E
$GPGSV,3,2,10,30,40,260,34,02,13,120,00,14,35,304,15,12,80,285,45*7B
$GPGSV,3,3,10,01,06,330,00,33,07,249,00*77
$GPGGA,154340,4946.5699,N,01018.5724,E,1,05,2.80,248.5,M,47.809,M,,*73
$GPRMC,154340,A,4946.5699,N,01018.5724,E,0.0000,0.000,020807,,*27
$GPGSA,A,3,09,05,30,14,12,,,,,,,,5.0,2.8,4.2*32
$GPGSV,3,1,10,09,62,131,33,04,19,084,00,05,59,266,46,17,11,040,00*7F
$GPGSV,3,2,10,30,40,260,33,02,13,120,00,14,35,304,15,12,80,285,45*7C
$GPGSV,3,3,10,01,06,330,00,33,07,249,00*77
$GPGGA,154341,4946.5699,N,01018.5724,E,1,05,2.80,248.5,M,47.809,M,,*72
$GPRMC,154341,A,4946.5699,N,01018.5724,E,0.0000,0.000,020807,,*26
$GPGSA,A,3,09,05,30,14,12,,,,,,,,5.0,2.8,4.2*32
$GPGSV,3,1,10,09,62,131,34,04,19,084,00,05,59,266,46,17,11,040,00*78
$GPGSV,3,2,10,30,40,260,32,02,13,120,00,14,35,304,15,12,80,286,47*7C
$GPGSV,3,3,10,01,06,330,00,33,07,249,00*77
$GPGGA,154342,4946.5699,N,01018.5732,E,1,05,2.80,248.7,M,47.809,M,,*74
$GPRMC,154342,A,4946.5699,N,01018.5732,E,0.0000,0.000,020807,,*22
$GPGSA,A,3,09,05,30,14,12,,,,,,,,5.0,2.8,4.2*32
$GPGSV,3,1,10,09,62,131,32,04,19,084,00,05,59,266,46,17,11,040,00*7E
$GPGSV,3,2,10,30,40,260,33,02,13,120,00,14,35,304,16,12,80,286,47*7E
$GPGSV,3,3,10,01,06,330,00,33,07,249,00*77
$GPGGA,154343,4946.5699,N,01018.5732,E,1,06,2.80,248.7,M,47.809,M,,*76
$GPRMC,154343,A,4946.5699,N,01018.5732,E,0.0000,0.000,020807,,*23
$GPGSA,A,3,09,05,30,14,12,33,,,,,,,5.0,2.8,4.2*32
$GPGSV,3,1,10,09,62,131,33,04,19,084,00,05,59,266,48,17,11,040,00*71
$GPGSV,3,2,10,30,40,260,31,02,13,120,00,14,35,304,17,12,80,286,46*7C
$GPGSV,3,3,10,01,06,330,00,33,07,249,00*77
$GPGGA,154344,4946.5699,N,01018.5732,E,1,06,2.80,248.7,M,47.809,M,,*71
$GPRMC,154344,A,4946.5699,N,01018.5732,E,0.0000,0.000,020807,,*24
$GPGSA,A,3,09,05,30,14,12,33,,,,,,,5.0,2.8,4.2*32
$GPGSV,3,1,10,09,62,131,32,04,19,084,00,05,59,266,49,17,11,040,00*71
$GPGSV,3,2,10,30,40,260,32,02,13,120,00,14,35,304,17,12,80,286,46*7F
$GPGSV,3,3,10,01,06,330,00,33,07,249,00*77
$GPGGA,154345,4946.5699,N,01018.5732,E,1,05,2.80,248.7,M,47.809,M,,*73
$GPRMC,154345,A,4946.5699,N,01018.5732,E,0.0000,0.000,020807,,*25
$GPGSA,A,3,09,05,30,14,12,,,,,,,,5.0,2.8,4.2*32
$GPGSV,3,1,10,09,62,131,31,04,19,084,00,05,59,266,50,17,11,040,00*7A
$GPGSV,3,2,10,30,40,260,31,02,13,120,00,14,35,304,18,12,80,286,47*72
$GPGSV,3,3,10,01,06,330,00,33,07,249,00*77
$GPGGA,154346,4946.5699,N,01018.5732,E,1,05,2.80,248.7,M,47.809,M,,*70
$GPRMC,154346,A,4946.5699,N,01018.5732,E,0.0000,0.000,020807,,*26
$GPGSA,A,3,09,05,30,14,12,,,,,,,,5.0,2.8,4.2*32
$GPGSV,3,1,10,09,62,131,31,04,19,084,00,05,59,266,50,17,11,040,00*7A
$GPGSV,3,2,10,30,40,260,30,02,13,120,00,14,35,304,18,12,80,286,47*73
$GPGSV,3,3,10,01,06,330,00,33,07,249,00*77
$GPGGA,154347,4946.5699,N,01018.5732,E,1,06,2.80,248.7,M,47.809,M,,*72
$GPRMC,154347,A,4946.5699,N,01018.5732,E,0.0000,0.000,020807,,*27
$GPGSA,A,3,09,05,30,14,12,33,,,,,,,5.0,2.8,4.2*32
$GPGSV,3,1,10,09,62,131,32,04,19,084,00,05,59,266,50,17,11,040,00*79
$GPGSV,3,2,10,30,40,260,30,02,13,120,00,14,35,304,18,12,80,286,45*71
$GPGSV,3,3,10,01,06,330,00,33,07,249,00*77
$GPGGA,154348,4946.5699,N,01018.5732,E,1,06,2.80,248.7,M,47.809,M,,*7D
$GPRMC,154348,A,4946.5699,N,01018.5732,E,0.0000,0.000,020807,,*28
$GPGSA,A,3,09,05,30,14,12,33,,,,,,,5.0,2.8,4.2*32
$GPGSV,3,1,10,09,62,131,33,04,19,084,00,05,59,266,48,17,11,040,00*71
$GPGSV,3,2,10,30,40,260,32,02,13,120,00,14,35,304,17,12,80,286,47*7E
$GPGSV,3,3,10,01,06,330,00,33,07,249,00*77
$GPGGA,154349,4946.5699,N,01018.5732,E,1,06,2.80,248.7,M,47.809,M,,*7C
$GPRMC,154349,A,4946.5699,N,01018.5732,E,0.0000,0.000,020807,,*29
$GPGSA,A,3,09,05,30,14,12,33,,,,,,,5.0,2.8,4.2*32
$GPGSV,3,1,10,09,62,131,36,04,19,084,00,05,59,266,48,17,11,040,00*74
$GPGSV,3,2,10,30,40,260,33,02,13,120,00,14,35,304,17,12,80,286,47*7F
$GPGSV,3,3,10,01,06,330,00,33,07,249,00*77
$GPGGA,154350,4946.5699,N,01018.5732,E,1,05,2.80,248.7,M,47.809,M,,*77
$GPRMC,154350,A,4946.5699,N,01018.5732,E,0.0000,0.000,020807,,*21
$GPGSA,A,3,09,05,30,14,12,,,,,,,,5.0,2.8,4.2*32
$GPGSV,3,1,10,09,62,131,36,04,19,084,00,05,59,266,48,17,11,040,00*74
$GPGSV,3,2,10,30,40,260,33,02,13,120,00,14,35,304,16,12,80,286,48*71
$GPGSV,3,3,10,01,06,330,00,33,07,249,00*77
$GPGGA,154351,4946.5699,N,01018.5732,E,1,05,2.80,248.7,M,47.809,M,,*76
$GPRMC,154351,A,4946.5699,N,01018.5732,E,0.0000,0.000,020807,,*20
$GPGSA,A,3,09,05,30,14,12,,,,,,,,5.0,2.8,4.2*32
$GPGSV,3,1,10,09,62,131,35,04,19,084,00,05,59,266,47,17,11,040,00*78
$GPGSV,3,2,10,30,40,260,32,02,13,120,00,14,35,304,16,12,80,286,46*7E
$GPGSV,3,3,10,01,06,330,00,33,07,249,00*77
$GPGGA,154352,4946.5699,N,01018.5732,E,1,05,2.80,248.7,M,47.809,M,,*75
$GPRMC,154352,A,4946.5699,N,01018.5732,E,0.0000,0.000,020807,,*23
$GPGSA,A,3,09,05,30,14,12,,,,,,,,5.0,2.8,4.2*32
$GPGSV,3,1,10,09,62,131,36,04,19,084,00,05,59,266,48,17,11,040,00*74
$GPGSV,3,2,10,30,40,260,34,02,13,120,00,14,35,304,18,12,80,286,47*77
$GPGSV,3,3,10,01,06,330,00,33,07,249,00*77
$GPGGA,154353,4946.5699,N,01018.5732,E,1,06,2.80,248.7,M,47.809,M,,*77
$GPRMC,154353,A,4946.5699,N,01018.5732,E,0.0000,0.000,020807,,*22
$GPGSA,A,3,09,05,30,14,12,33,,,,,,,5.0,2.8,4.2*32
$GPGSV,3,1,10,09,62,131,36,04,19,084,00,05,59,266,50,17,11,040,00*7D
$GPGSV,3,2,10,30,40,260,35,02,13,120,00,14,35,304,17,12,80,286,46*78
$GPGSV,3,3,10,01,06,330,00,33,07,249,00*77
$GPGGA,154354,4946.5699,N,01018.5732,E,1,05,2.80,248.7,M,47.809,M,,*73
$GPRMC,154354,A,4946.5699,N,01018.5732,E,0.0000,0.000,020807,,*25
$GPGSA,A,3,09,05,30,14,12,,,,,,,,5.0,2.8,4.2*32
$PGRME,0.00,M,0.00,M,19.27,M*23
$GPGSV,3,1,10,09,62,131,34,04,19,084,00,05,59,266,50,17,11,040,00*7F
$GPGSV,3,2,10,30,40,260,35,02,13,120,00,14,35,304,18,12,80,286,46*77
$GPGSV,3,3,10,01,06,330,00,33,07,249,00*77
$GPGGA,154355,4946.5699,N,01018.5732,E,1,05,2.80,248.7,M,47.809,M,,*72
$GPRMC,154355,A,4946.5699,N,01018.5732,E,0.0000,0.000,020807,,*24
$GPGSA,A,3,09,05,30,14,12,,,,,,,,5.0,2.8,4.2*32
$GPGSV,3,1,10,09,62,131,35,04,19,084,00,05,59,266,46,17,11,040,00*79
$GPGSV,3,2,10,30,40,260,32,02,13,120,00,14,35,304,15,12,80,286,45*7E
$GPGSV,3,3,10,01,06,330,00,33,07,249,00*77
$GPGGA,154356,4946.5699,N,01018.5732,E,1,06,2.80,248.7,M,47.809,M,,*72
$GPRMC,154356,A,4946.5699,N,01018.5732,E,0.0000,0.000,020807,,*27
$GPGSA,A,3,09,05,30,14,12,33,,,,,,,5.0,2.8,4.2*32
$GPGSV,3,1,10,09,62,131,34,04,19,084,00,05,59,266,42,17,11,040,00*7C
$GPGSV,3,2,10,30,40,260,31,02,13,120,00,14,35,304,12,12,80,286,42*7D
$GPGSV,3,3,10,01,06,330,00,33,07,249,00*77
$GPGGA,154357,4946.5699,N,01018.5732,E,1,05,2.80,248.7,M,47.809,M,,*70
$GPRMC,154357,A,4946.5699,N,01018.5732,E,0.0000,0.000,020807,,*26
$GPGSA,A,3,09,05,30,14,12,,,,,,,,5.0,2.8,4.2*32
$GPGSV,3,1,10,09,62,131,37,04,19,084,00,05,59,266,46,17,11,040,00*7B
$GPGSV,3,2,10,30,40,260,32,02,13,120,00,14,35,304,15,12,80,286,45*7E
$GPGSV,3,3,10,01,06,330,00,33,07,249,00*77
$GPGGA,154358,4946.5703,N,01018.5734,E,1,05,2.80,248.0,M,47.809,M,,*7C
$GPRMC,154358,A,4946.5703,N,01018.5734,E,0.1255,0.000,020807,,*2E
$GPGSA,A,3,09,05,30,14,12,,,,,,,,5.0,2.8,4.2*32
$GPGSV,3,1,10,09,62,131,37,04,19,084,00,05,59,266,48,17,11,040,00*75
$GPGSV,3,2,10,30,41,261,32,02,13,120,00,14,35,304,14,12,80,286,46*7C
$GPGSV,3,3,10,01,06,330,00,33,07,249,00*77
$GPGGA,154359,4946.5703,N,01018.5734,E,1,05,2.80,248.0,M,47.809,M,,*7D
$GPRMC,154359,A,4946.5703,N,01018.5734,E,0.0000,0.000,020807,,*2C
$GPGSA,A,3,09,05,30,14,12,,,,,,,,5.0,2.8,4.2*32
$GPGSV,3,1,10,09,62,131,39,04,19,084,00,05,59,266,51,17,11,040,00*73
$GPGSV,3,2,10,30,41,261,33,02,13,120,00,14,35,304,15,12,80,286,46*7C
$GPGSV,3,3,10,01,06,330,00,33,07,249,00*77
$GPGGA,154400,4946.5703,N,01018.5734,E,1,06,2.80,248.0,M,47.809,M,,*75
$GPRMC,154400,A,4946.5703,N,01018.5734,E,0.0000,0.000,020807,,*27
$GPGSA,A,3,09,05,30,14,12,33,,,,,,,5.0,2.8,4.2*32
$GPGSV,3,1,10,09,62,131,38,04,19,084,00,05,59,266,48,17,11,040,00*7A
$GPGSV,3,2,10,30,41,261,35,02,13,120,00,14,35,304,16,12,80,286,46*79
$GPGSV,3,3,10,01,06,330,00,33,07,249,00*77
$GPGGA,154401,4946.5703,N,01018.5734,E,1,05,2.80,248.0,M,47.809,M,,*77
$GPRMC,154401,A,4946.5703,N,01018.5734,E,0.0000,0.000,020807,,*26
$GPGSA,A,3,09,05,30,14,12,,,,,,,,5.0,2.8,4.2*32
$GPGSV,3,1,10,09,62,131,37,04,19,084,00,05,59,266,47,17,11,040,00*7A
$GPGSV,3,2,10,30,41,261,34,02,13,120,00,14,35,304,15,12,80,286,45*78
$GPGSV,3,3,10,01,07,330,00,33,07,249,00*76
$GPGGA,154402,4946.5699,N,01018.5734,E,1,06,2.80,247.3,M,47.809,M,,*79
$GPRMC,154402,A,4946.5699,N,01018.5734,E,0.0000,0.000,020807,,*27
$GPGSA,A,3,09,05,30,14,12,33,,,,,,,5.0,2.8,4.2*32
$GPGSV,3,1,10,09,62,131,35,04,19,084,00,05,59,266,45,17,11,040,00*7A
$GPGSV,3,2,10,30,41,261,32,02,13,120,00,14,35,304,15,12,80,286,43*78
$GPGSV,3,3,10,01,07,330,00,33,07,249,00*76
$GPGGA,154403,4946.5703,N,01018.5734,E,1,05,2.80,248.0,M,47.809,M,,*75
$GPRMC,154403,A,4946.5703,N,01018.5734,E,0.0000,0.000,020807,,*24
$GPGSA,A,3,09,05,30,14,12,,,,,,,,4.8,4.7,0.9*3D
$GPGSV,3,1,10,09,62,131,33,04,19,084,00,05,59,266,46,17,11,040,00*7F
$GPGSV,3,2,10,30,41,261,33,02,13,120,00,14,35,304,13,12,80,286,47*7B
$GPGSV,3,3,10,01,07,330,00,33,07,249,00*76
$GPGGA,154404,4946.5703,N,01018.5734,E,1,04,4.70,248.0,M,47.809,M,,*7A
$GPRMC,154404,A,4946.5703,N,01018.5734,E,0.0000,0.000,020807,,*23
$GPGSA,A,3,09,05,30,12,,,,,,,,,5.0,2.8,4.2*37
$GPGSV,3,1,10,09,62,131,33,04,19,084,00,05,59,267,45,17,11,040,00*7D
$GPGSV,3,2,10,30,41,261,34,02,13,120,00,14,35,304,11,12,80,286,45*7C
$GPGSV,3,3,10,01,07,330,00,33,07,249,00*76
$GPGGA,154405,4946.5699,N,01018.5734,E,1,06,2.80,247.3,M,47.809,M,,*7E
$GPRMC,154405,A,4946.5699,N,01018.5734,E,0.0000,0.000,020807,,*20
$GPGSA,A,3,09,05,30,14,12,33,,,,,,,5.0,2.8,4.2*32
$GPGSV,3,1,10,09,62,131,34,04,19,084,00,05,59,267,45,17,11,040,00*7A
$GPGSV,3,2,10,30,41,261,34,02,13,120,00,14,35,304,14,12,80,286,46*7A
$GPGSV,3,3,10,01,07,330,00,33,07,249,00*76
$GPGGA,154406,4946.5699,N,01018.5734,E,1,05,2.80,247.3,M,47.809,M,,*7E
$GPRMC,154406,A,4946.5699,N,01018.5734,E,0.0000,0.000,020807,,*23
$GPGSA,A,3,09,05,30,14,12,,,,,,,,5.0,2.8,4.2*32
$GPGSV,3,1,10,09,62,131,35,04,19,084,00,05,59,267,45,17,11,040,00*7B
$GPGSV,3,2,10,30,41,261,33,02,13,120,00,14,35,304,16,12,80,286,47*7E
$GPGSV,3,3,10,01,07,330,00,33,07,249,00*76
$GPGGA,154407,4946.5699,N,01018.5734,E,1,06,2.80,247.3,M,47.809,M,,*7C
$GPRMC,154407,A,4946.5699,N,01018.5734,E,0.0000,0.000,020807,,*22
$GPGSA,A,3,09,05,30,14,12,33,,,,,,,5.0,2.8,4.2*32
$GPGSV,3,1,10,09,62,131,36,04,19,084,00,05,59,267,46,17,11,040,00*7B
$GPGSV,3,2,10,30,41,261,32,02,13,120,00,14,35,304,15,12,80,286,46*7D
$GPGSV,3,3,10,01,07,330,00,33,07,249,00*76
$GPGGA,154408,4946.5699,N,01018.5734,E,1,05,2.80,247.3,M,47.809,M,,*70
$GPRMC,154408,A,4946.5699,N,01018.5734,E,0.1501,193.400,020807,,*27
$GPGSA,A,3,09,05,30,14,12,,,,,,,,5.0,2.8,4.2*32
$GPGSV,3,1,10,09,62,131,36,04,19,084,00,05,59,267,47,17,11,040,00*7A
$GPGSV,3,2,10,30,41,261,31,02,13,120,00,14,35,304,13,12,80,286,46*78
$GPGSV,3,3,10,01,07,330,00,33,07,249,00*76
$GPGGA,154409,4946.5699,N,01018.5734,E,1,05,2.80,247.3,M,47.809,M,,*71
$GPRMC,154409,A,4946.5699,N,01018.5734,E,0.0000,0.000,020807,,*2C
$GPGSA,A,3,09,05,30,14,12,,,,,,,,5.0,2.8,4.2*32
$GPGSV,3,1,10,09,62,131,37,04,19,084,00,05,59,267,47,17,11,040,00*7B
$GPGSV,3,2,10,30,41,261,31,02,13,120,17,14,35,304,14,12,80,286,46*79
$GPGSV,3,3,10,01,07,330,00,33,07,249,00*76
$GPGGA,154410,4946.5699,N,01018.5734,E,1,05,2.80,247.3,M,47.809,M,,*79
$GPRMC,154410,A,4946.5699,N,01018.5734,E,0.0000,0.000,020807,,*24
$GPGSA,A,3,09,05,30,14,12,,,,,,,,5.0,2.8,4.2*32
$GPGSV,3,1,10,09,62,131,36,04,19,084,00,05,59,267,45,17,11,040,00*78
$GPGSV,3,2,10,30,41,261,31,02,13,120,17,14,35,304,14,12,80,286,46*79
$GPGSV,3,3,10,01,07,330,00,33,07,249,00*76
$GPGGA,154411,4946.5699,N,01018.5734,E,1,05,2.80,247.3,M,47.809,M,,*78
$GPRMC,154411,A,4946.5699,N,01018.5734,E,0.0000,0.000,020807,,*25
$GPGSA,A,3,09,05,30,14,12,,,,,,,,5.0,2.8,4.2*32
$GPGSV,3,1,10,09,62,131,37,04,19,084,00,05,59,267,45,17,11,040,00*79
$GPGSV,3,2,10,30,41,261,31,02,13,120,17,14,35,304,13,12,80,286,44*7C
$GPGSV,3,3,10,01,07,330,00,33,07,249,00*76
$GPGGA,154412,4946.5699,N,01018.5734,E,1,06,2.80,247.3,M,47.809,M,,*78
$GPRMC,154412,A,4946.5699,N,01018.5734,E,0.0000,0.000,020807,,*26
$GPGSA,A,3,09,05,30,14,12,33,,,,,,,5.0,2.8,4.2*32
$GPGSV,3,1,10,09,62,131,38,04,19,084,00,05,59,267,46,17,11,040,00*75
$GPGSV,3,2,10,30,41,261,30,02,13,120,17,14,35,304,14,12,80,287,44*7B
$GPGSV,3,3,10,01,07,330,00,33,07,249,00*76
$GPGGA,154413,4946.5699,N,01018.5734,E,1,05,2.80,247.3,M,47.809,M,,*7A
$GPRMC,154413,A,4946.5699,N,01018.5734,E,0.0000,0.000,020807,,*27
$GPGSA,A,3,09,05,30,14,12,,,,,,,,5.0,2.8,4.2*32
$GPGSV,3,1,10,09,62,131,37,04,19,084,00,05,59,267,45,17,11,040,00*79
$GPGSV,3,2,10,30,41,261,29,02,13,120,17,14,35,304,14,12,80,287,47*70
$GPGSV,3,3,10,01,07,330,00,33,07,249,00*76
$GPGGA,154414,4946.5699,N,01018.5734,E,1,05,2.80,247.3,M,47.809,M,,*7D
$GPRMC,154414,A,4946.5699,N,01018.5734,E,0.0000,0.000,020807,,*20
$GPGSA,A,3,09,05,30,14,12,,,,,,,,5.0,2.8,4.2*32
$GPGSV,3,1,10,09,62,131,37,04,19,084,00,05,59,267,46,17,11,040,00*7A
$GPGSV,3,2,10,30,41,261,28,02,13,120,18,14,35,303,16,12,80,287,48*74
$GPGSV,3,3,10,01,07,330,00,33,07,249,00*76
$GPGGA,154415,4946.5699,N,01018.5734,E,1,05,2.80,247.3,M,47.809,M,,*7C
$GPRMC,154415,A,4946.5699,N,01018.5734,E,0.0000,0.000,020807,,*21
$GPGSA,A,3,09,05,30,14,12,,,,,,,,5.0,2.8,4.2*32
$GPGSV,3,1,10,09,62,131,38,04,19,084,00,05,59,267,44,17,11,040,00*77
$GPGSV,3,2,10,30,41,261,27,02,13,120,18,14,35,303,15,12,80,287,49*79
$GPGSV,3,3,10,01,07,330,00,33,07,249,00*76
$GPGGA,154416,4946.5699,N,01018.5734,E,1,05,2.80,247.3,M,47.809,M,,*7F
$GPRMC,154416,A,4946.5699,N,01018.5734,E,0.0000,0.000,020807,,*22
$GPGSA,A,3,09,05,30,14,12,,,,,,,,5.0,2.8,4.2*32
$GPGSV,3,1,10,09,62,131,38,04,19,084,00,05,59,267,44,17,10,040,00*76
$GPGSV,3,2,10,30,41,261,26,02,13,120,19,14,35,303,17,12,80,287,48*7A
$GPGSV,3,3,10,01,07,330,00,33,07,249,00*76
$GPGGA,154417,4946.5699,N,01018.5734,E,1,05,2.80,247.3,M,47.809,M,,*7E
$GPRMC,154417,A,4946.5699,N,01018.5734,E,0.0000,0.000,020807,,*23
$GPGSA,A,3,09,05,30,14,12,,,,,,,,5.0,2.8,4.2*32
$GPGSV,3,1,10,09,62,131,37,04,19,084,00,05,59,267,44,17,10,040,00*79
$GPGSV,3,2,10,30,41,261,26,02,13,120,18,14,35,303,16,12,80,287,47*75
$GPGSV,3,3,10,01,07,330,00,33,07,249,00*76
$GPGGA,154418,4946.5699,N,01018.5734,E,1,05,2.80,247.3,M,47.809,M,,*71
$GPRMC,154418,A,4946.5699,N,01018.5734,E,0.0000,0.000,020807,,*2C
$GPGSA,A,3,09,05,30,14,12,,,,,,,,5.0,2.8,4.2*32
$GPGSV,3,1,10,09,62,131,34,04,19,084,00,05,59,267,45,17,10,040,00*7B
$GPGSV,3,2,10,30,41,261,26,02,13,120,18,14,35,303,16,12,80,287,46*74
$GPGSV,3,3,10,01,07,330,00,33,07,249,00*76
$GPGGA,154419,4946.5698,N,01018.5742,E,1,06,2.80,247.4,M,47.809,M,,*74
$GPRMC,154419,A,4946.5698,N,01018.5742,E,0.0000,0.000,020807,,*2D
$GPGSA,A,3,09,05,30,14,12,33,,,,,,,5.0,2.8,4.2*32
$GPGSV,3,1,10,09,62,131,36,04,19,084,00,05,59,267,45,17,10,040,00*79
$GPGSV,3,2,10,30,41,261,29,02,13,120,17,14,35,303,17,12,80,287,46*75
$GPGSV,3,3,10,01,07,330,00,33,07,249,00*76
$GPGGA,154420,4946.5698,N,01018.5742,E,1,05,2.80,247.4,M,47.809,M,,*7D
$GPRMC,154420,A,4946.5698,N,01018.5742,E,0.0000,0.000,020807,,*27
$GPGSA,A,3,09,05,30,14,12,,,,,,,,5.0,2.8,4.2*32
$GPGSV,3,1,10,09,62,131,37,04,19,084,00,05,59,267,44,17,10,040,00*79
$GPGSV,3,2,10,30,41,261,29,02,13,120,17,14,35,303,19,12,80,287,46*7B
$GPGSV,3,3,10,01,07,330,00,47,07,249,00*75
$GPGGA,154421,4946.5698,N,01018.5742,E,1,05,2.80,247.4,M,47.809,M,,*7C
$GPRMC,154421,A,4946.5698,N,01018.5742,E,0.0000,0.000,020807,,*26
$GPGSA,A,3,09,05,30,14,12,,,,,,,,5.0,2.8,4.2*32
$GPGSV,3,1,10,09,62,131,36,04,19,084,00,05,59,267,44,17,10,040,00*78
$GPGSV,3,2,10,30,41,261,31,02,13,120,16,14,35,303,18,12,80,287,47*73
$GPGSV,3,3,10,01,07,330,00,47,07,249,00*75
$GPGGA,154422,4946.5698,N,01018.5742,E,1,05,2.80,247.4,M,47.809,M,,*7F
$GPRMC,154422,A,4946.5698,N,01018.5742,E,0.0000,0.000,020807,,*25
$GPGSA,A,3,09,05,30,14,12,,,,,,,,5.0,2.8,4.2*32
$GPGSV,3,1,10,09,62,131,36,04,19,084,00,05,59,267,43,17,10,040,00*7F
$GPGSV,3,2,10,30,41,261,30,02,13,120,17,14,35,303,18,12,80,287,47*73
$GPGSV,3,3,10,01,07,330,00,47,07,249,00*75
$GPGGA,154423,4946.5698,N,01018.5742,E,1,05,2.80,247.4,M,47.809,M,,*7E
$GPRMC,154423,A,4946.5698,N,01018.5742,E,0.0000,0.000,020807,,*24
$GPGSA,A,3,09,05,30,14,12,,,,,,,,5.0,2.8,4.2*32
$GPGSV,3,1,10,09,62,131,37,04,19,084,00,05,59,267,42,17,10,040,00*7F
$GPGSV,3,2,10,30,41,261,28,02,13,120,17,14,35,303,17,12,80,287,48*7A
$GPGSV,3,3,10,01,07,330,00,47,07,249,00*75
$GPGGA,154424,4946.5698,N,01018.5742,E,1,05,2.80,247.4,M,47.809,M,,*79
$GPRMC,154424,A,4946.5698,N,01018.5742,E,0.0000,0.000,020807,,*23
$GPGSA,A,3,09,05,30,14,12,,,,,,,,5.0,2.8,4.2*32
$GPGSV,3,1,10,09,62,131,38,04,19,084,00,05,59,267,45,17,10,040,00*77
$GPGSV,3,2,10,30,41,261,29,02,13,120,19,14,35,303,17,12,80,287,48*75
$GPGSV,3,3,10,01,07,330,00,47,07,249,00*75
$GPGGA,154425,4946.5698,N,01018.5742,E,1,05,2.80,247.4,M,47.809,M,,*78
$GPRMC,154425,A,4946.5698,N,01018.5742,E,0.0000,0.000,020807,,*22
$GPGSA,A,3,09,05,30,14,12,,,,,,,,5.0,2.8,4.2*32
$GPGSV,3,1,10,09,62,131,37,04,19,084,00,05,59,267,44,17,10,040,00*79
$GPGSV,3,2,10,30,41,261,28,02,13,120,18,14,35,303,17,12,80,287,46*7B
$GPGSV,3,3,10,01,07,330,00,47,07,249,00*75
$GPGGA,154426,4946.5698,N,01018.5742,E,1,05,2.80,247.4,M,47.809,M,,*7B
$GPRMC,154426,A,4946.5698,N,01018.5742,E,0.0000,0.000,020807,,*21
$GPGSA,A,3,09,05,30,14,12,,,,,,,,5.0,2.8,4.2*32
$GPGSV,3,1,10,09,62,131,36,04,19,084,00,05,59,267,46,17,10,040,00*7A
$GPGSV,3,2,10,30,41,261,28,02,13,120,20,14,35,303,19,12,80,287,48*70
$GPGSV,3,3,10,01,07,330,00,47,07,249,00*75
$GPGGA,154427,4946.5698,N,01018.5742,E,1,05,2.80,247.4,M,47.809,M,,*7A
$GPRMC,154427,A,4946.5698,N,01018.5742,E,0.0000,0.000,020807,,*20
$GPGSA,A,3,09,05,30,14,12,,,,,,,,5.0,2.8,4.2*32
$GPGSV,3,1,10,09,62,131,37,04,19,084,00,05,59,267,46,17,10,040,00*7B
$GPGSV,3,2,10,30,41,261,27,02,13,120,21,14,35,303,19,12,80,287,47*71
$GPGSV,3,3,10,01,07,330,00,47,07,249,00*75
$GPGGA,154428,4946.5698,N,01018.5742,E,1,05,2.80,247.4,M,47.809,M,,*75
$GPRMC,154428,A,4946.5698,N,01018.5742,E,0.0000,0.000,020807,,*2F
$GPGSA,A,3,09,05,30,14,12,,,,,,,,5.0,2.8,4.2*32
$GPGSV,3,1,10,09,62,131,38,04,19,084,00,05,59,267,48,17,10,040,00*7A
$GPGSV,3,2,10,30,41,261,29,02,13,120,21,14,35,303,19,12,80,287,45*7D
$GPGSV,3,3,10,01,07,330,00,47,07,249,00*75
$GPGGA,154429,4946.5698,N,01018.5742,E,1,06,2.80,247.4,M,47.809,M,,*77
$GPRMC,154429,A,4946.5698,N,01018.5742,E,0.0000,0.000,020807,,*2E
$GPGSA,A,3,09,05,30,14,12,47,,,,,,,5.0,2.8,4.2*31
$GPGSV,3,1,10,09,62,131,38,04,19,084,00,05,59,267,49,17,10,040,00*7B
$GPGSV,3,2,10,30,41,261,31,02,13,120,19,14,35,303,18,12,80,287,45*7E
$GPGSV,3,3,10,01,07,330,00,47,07,249,00*75
$GPGGA,154430,4946.5698,N,01018.5742,E,1,05,2.80,247.4,M,47.809,M,,*7C
$GPRMC,154430,A,4946.5698,N,01018.5742,E,0.0000,0.000,020807,,*26
$GPGSA,A,3,09,05,30,14,12,,,,,,,,5.0,2.8,4.2*32
$GPGSV,3,1,10,09,62,131,38,04,19,084,00,05,59,267,50,17,10,040,00*73
$GPGSV,3,2,10,30,41,261,33,02,13,120,20,14,35,303,18,12,80,287,46*75
$GPGSV,3,3,10,01,07,330,00,47,07,249,00*75
$GPGGA,154431,4946.5698,N,01018.5742,E,1,05,2.80,247.4,M,47.809,M,,*7D
$GPRMC,154431,A,4946.5698,N,01018.5742,E,0.0000,0.000,020807,,*27
$GPGSA,A,3,09,05,30,14,12,,,,,,,,5.0,2.8,4.2*32
$GPGSV,3,1,10,09,62,131,37,04,19,084,00,05,59,267,49,17,10,040,00*74
$GPGSV,3,2,10,30,41,261,31,02,13,120,20,14,35,303,17,12,80,287,47*79
$GPGSV,3,3,10,01,07,330,00,47,07,249,00*75
$GPGGA,154432,4946.5698,N,01018.5742,E,1,05,2.80,247.4,M,47.809,M,,*7E
$GPRMC,154432,A,4946.5698,N,01018.5742,E,0.0000,0.000,020807,,*24
$GPGSA,A,3,09,05,30,14,12,,,,,,,,5.0,2.8,4.2*32
$GPGSV,3,1,10,09,62,131,39,04,19,084,00,05,59,267,46,17,10,040,00*75
$GPGSV,3,2,10,30,41,261,31,02,13,120,21,14,35,303,18,12,80,287,46*76
$GPGSV,3,3,10,01,07,330,00,47,07,249,00*75
$GPGGA,154433,4946.5698,N,01018.5742,E,1,05,2.80,247.4,M,47.809,M,,*7F
$GPRMC,154433,A,4946.5698,N,01018.5742,E,0.0000,0.000,020807,,*25
$GPGSA,A,3,09,05,30,14,12,,,,,,,,5.0,2.8,4.2*32
$GPGSV,3,1,10,09,62,131,38,04,19,084,00,05,59,267,47,17,10,040,00*75
$GPGSV,3,2,10,30,41,261,32,02,13,119,19,14,35,303,18,12,80,287,48*7A
$GPGSV,3,3,10,01,07,330,00,47,07,249,00*75
$GPGGA,154434,4946.5698,N,01018.5742,E,1,05,2.80,247.4,M,47.809,M,,*78
$GPRMC,154434,A,4946.5698,N,01018.5742,E,0.0000,0.000,020807,,*22
$GPGSA,A,3,09,05,30,14,12,,,,,,,,5.0,2.8,4.2*32
$GPGSV,3,1,10,09,62,131,38,04,19,084,00,05,59,267,47,17,10,040,00*75
$GPGSV,3,2,10,30,41,261,31,02,13,119,20,14,35,303,19,12,80,287,50*7B
$GPGSV,3,3,10,01,07,330,00,47,07,249,00*75
$GPGGA,154435,4946.5698,N,01018.5742,E,1,06,2.80,247.4,M,47.809,M,,*7A
$GPRMC,154435,A,4946.5698,N,01018.5742,E,0.0000,0.000,020807,,*23
$GPGSA,A,3,09,05,30,14,12,47,,,,,,,5.0,2.8,4.2*31
$GPGSV,3,1,10,09,62,131,38,04,19,083,00,05,59,267,49,17,10,040,00*7C
$GPGSV,3,2,10,30,41,261,31,02,13,119,20,14,35,303,19,12,80,287,50*7B
$GPGSV,3,3,10,01,07,330,00,47,07,249,00*75
$GPGGA,154436,4946.5703,N,01018.5734,E,1,05,2.80,248.0,M,47.809,M,,*73
$GPRMC,154436,A,4946.5703,N,01018.5734,E,0.0000,0.000,020807,,*22
$GPGSA,A,3,09,05,30,14,12,,,,,,,,3.0,2.5,1.7*39
$GPGSV,3,1,10,09,62,131,38,04,19,083,00,05,60,267,48,17,10,040,00*77
$GPGSV,3,2,10,30,41,261,33,02,13,119,20,14,35,303,20,12,80,287,50*73
$GPGSV,3,3,10,01,07,330,00,47,07,249,00*75
$GPGGA,154437,4946.5703,N,01018.5734,E,1,06,2.50,248.0,M,47.809,M,,*7C
$GPRMC,154437,A,4946.5703,N,01018.5734,E,0.0000,0.000,020807,,*23
$GPGSA,A,3,09,05,30,02,14,12,,,,,,,3.1,2.5,1.7*3A
$GPGSV,3,1,10,09,62,131,37,04,19,083,00,05,60,267,46,17,10,040,00*76
$GPGSV,3,2,10,30,41,261,35,02,13,119,21,14,35,303,20,12,80,287,50*74
$GPGSV,3,3,10,01,07,330,00,47,07,249,00*75
$GPGGA,154438,4946.5702,N,01018.5732,E,1,06,2.50,249.4,M,47.809,M,,*71
$GPRMC,154438,A,4946.5702,N,01018.5732,E,0.0000,0.000,020807,,*2B
$GPGSA,A,3,09,05,30,02,14,12,,,,,,,3.1,2.5,1.7*3A
$GPGSV,3,1,10,09,62,131,36,04,19,083,00,05,60,267,46,17,10,040,00*77
$GPGSV,3,2,10,30,41,261,37,02,13,119,20,14,35,303,18,12,80,287,49*74
$GPGSV,3,3,10,01,07,330,00,47,07,249,00*75
$GPGGA,154439,4946.5706,N,01018.5732,E,1,06,2.50,250.2,M,47.809,M,,*7A
$GPRMC,154439,A,4946.5706,N,01018.5732,E,0.0000,0.000,020807,,*2E
$GPGSA,A,3,09,05,30,02,14,12,,,,,,,3.1,2.5,1.7*3A
$GPGSV,3,1,10,09,62,131,35,04,19,083,00,05,60,267,45,17,10,040,00*77
$GPGSV,3,2,10,30,41,261,37,02,13,119,20,14,35,303,19,12,80,287,48*74
$GPGSV,3,3,10,01,07,330,00,47,07,249,00*75
$GPGGA,154440,4946.5717,N,01018.5663,E,1,06,2.50,262.9,M,47.809,M,,*7B
$GPRMC,154440,A,4946.5717,N,01018.5663,E,0.0000,0.000,020807,,*25
$GPGSA,A,3,09,05,30,02,14,12,,,,,,,3.1,2.5,1.7*3A
$GPGSV,3,1,10,09,61,132,35,04,19,083,00,05,60,267,46,17,10,040,00*74
$GPGSV,3,2,10,30,41,261,35,02,13,119,18,14,35,303,18,12,80,287,48*7C
$GPGSV,3,3,10,01,07,330,00,47,07,249,00*75
$GPGGA,154441,4946.5720,N,01018.5654,E,1,06,2.50,272.8,M,47.809,M,,*7A
$GPRMC,154441,A,4946.5720,N,01018.5654,E,0.0000,0.000,020807,,*24
$GPGSA,A,3,09,05,30,02,14,12,,,,,,,3.1,2.5,1.7*3A
$GPGSV,3,1,10,09,61,132,36,04,19,083,00,05,60,267,46,17,10,040,00*77
$GPGSV,3,2,10,30,41,261,35,02,13,119,20,14,35,303,17,12,80,287,49*79
$GPGSV,3,3,10,01,07,330,00,47,07,249,00*75
$GPGGA,154442,4946.5718,N,01018.5650,E,1,06,2.50,277.0,M,47.810,M,,*73
$GPRMC,154442,A,4946.5718,N,01018.5650,E,0.0000,0.000,020807,,*28
$GPGSA,A,3,09,05,30,02,14,12,,,,,,,3.1,2.5,1.7*3A
$GPGSV,3,1,10,09,61,132,35,04,19,083,00,05,60,267,47,17,10,040,00*75
$GPGSV,3,2,10,30,41,261,35,02,13,119,20,14,35,303,19,12,80,288,47*76
$GPGSV,3,3,10,01,07,330,00,47,07,249,00*75
$GPGGA,154443,4946.5721,N,01018.5648,E,1,06,2.50,279.1,M,47.810,M,,*7E
$GPRMC,154443,A,4946.5721,N,01018.5648,E,0.0000,0.000,020807,,*2A
$GPGSA,A,3,09,05,30,02,14,12,,,,,,,3.1,2.5,1.7*3A
$PGRME,0.00,M,0.00,M,11.94,M*23
$GPGSV,3,1,10,09,61,132,36,04,19,083,00,05,60,267,48,17,10,040,00*79
$GPGSV,3,2,10,30,41,261,35,02,13,119,20,14,35,303,19,12,80,288,48*79
$GPGSV,3,3,10,01,07,330,00,47,07,249,00*75
$GPGGA,154444,4946.5720,N,01018.5655,E,1,06,2.50,280.7,M,47.809,M,,*7C
$GPRMC,154444,A,4946.5720,N,01018.5655,E,0.0000,0.000,020807,,*20
$GPGSA,A,3,09,05,30,02,14,12,,,,,,,3.1,2.5,1.7*3A
$GPGSV,3,1,10,09,61,132,36,04,19,083,00,05,60,267,47,17,10,040,00*76
$GPGSV,3,2,10,30,41,261,33,02,13,119,21,14,35,303,18,12,80,288,48*7F
$GPGSV,3,3,10,01,07,330,00,47,07,249,00*75
$GPGGA,154445,4946.5720,N,01018.5653,E,1,06,2.50,282.1,M,47.809,M,,*7F
$GPRMC,154445,A,4946.5720,N,01018.5653,E,0.0000,0.000,020807,,*27
$GPGSA,A,3,09,05,30,02,14,12,,,,,,,3.1,2.5,1.7*3A
$PGRME,0.00,M,0.00,M,11.94,M*23
$GPGSV,3,1,10,09,61,132,35,04,19,083,00,05,60,267,48,17,10,040,00*7A
$GPGSV,3,2,10,30,41,261,33,02,13,119,23,14,35,303,19,12,80,288,47*73
$GPGSV,3,3,10,01,07,330,00,47,07,249,00*75
$GPGGA,154446,4946.5720,N,01018.5645,E,1,06,2.50,281.9,M,47.810,M,,*78
$GPRMC,154446,A,4946.5720,N,01018.5645,E,0.0000,0.000,020807,,*23
$GPGSA,A,3,09,05,30,02,14,12,,,,,,,3.1,2.5,1.7*3A
$GPGSV,3,1,10,09,61,132,32,04,19,083,00,05,60,267,47,17,10,040,00*72
$GPGSV,3,2,10,30,41,261,31,02,13,119,24,14,35,303,19,12,80,288,47*76
$GPGSV,3,3,10,01,07,330,00,47,07,249,00*75
$GPGGA,154447,4946.5724,N,01018.5645,E,1,06,2.50,282.7,M,47.810,M,,*70
$GPRMC,154447,A,4946.5724,N,01018.5645,E,0.0000,0.000,020807,,*26
$GPGSA,A,3,09,05,30,02,14,12,,,,,,,3.1,2.5,1.7*3A
$GPGSV,3,1,10,09,61,132,32,04,19,083,00,05,60,267,49,17,10,040,00*7C
$GPGSV,3,2,10,30,41,261,32,02,13,119,23,14,35,303,23,12,80,288,46*7A
$GPGSV,3,3,10,01,07,330,00,47,07,249,00*75
$GPGGA,154448,4946.5724,N,01018.5645,E,1,06,2.50,282.7,M,47.810,M,,*7F
$GPRMC,154448,A,4946.5724,N,01018.5645,E,0.0000,0.000,020807,,*29
$GPGSA,A,3,09,05,30,02,14,12,,,,,,,3.1,2.5,1.7*3A
$GPGSV,3,1,10,09,61,132,32,04,19,083,00,05,60,267,49,17,10,040,00*7C
$GPGSV,3,2,10,30,41,261,30,02,13,119,22,14,35,303,25,12,80,288,44*7D
$GPGSV,3,3,10,01,07,330,00,47,07,249,00*75
$GPGGA,154449,4946.5720,N,01018.5644,E,1,06,2.50,283.3,M,47.810,M,,*7E
$GPRMC,154449,A,4946.5720,N,01018.5644,E,0.0000,0.000,020807,,*2D
$GPGSA,A,3,09,05,30,02,14,12,,,,,,,3.1,2.5,1.7*3A
$PGRME,0.00,M,0.00,M,11.94,M*23
$GPGSV,3,1,10,09,61,132,30,04,19,083,00,05,60,267,47,17,10,040,00*70
$GPGSV,3,2,10,30,41,261,32,02,13,119,24,14,35,303,22,12,80,288,43*79
$GPGSV,3,3,10,01,07,330,00,47,07,249,00*75
$GPGGA,154450,4946.5720,N,01018.5644,E,1,06,2.50,283.3,M,47.810,M,,*76
$GPRMC,154450,A,4946.5720,N,01018.5644,E,0.0000,0.000,020807,,*25
$GPGSA,A,3,09,05,30,02,14,12,,,,,,,3.1,2.5,1.7*3A
$PGRME,0.00,M,0.00,M,11.94,M*23
$GPGSV,3,1,10,09,61,132,31,04,19,083,00,05,60,267,46,17,10,040,00*70
$GPGSV,3,2,10,30,41,261,34,02,13,119,24,14,35,303,20,12,80,288,43*7D
$GPGSV,3,3,10,01,07,330,00,47,07,249,00*75
$GPGGA,154451,4946.5723,N,01018.5644,E,1,06,2.50,284.1,M,47.810,M,,*71
$GPRMC,154451,A,4946.5723,N,01018.5644,E,0.0000,0.000,020807,,*27
$GPGSA,A,3,09,05,30,02,14,12,,,,,,,3.1,2.5,1.7*3A
$PGRME,0.00,M,0.00,M,11.94,M*23
$GPGSV,3,1,10,09,61,132,30,04,19,083,00,05,60,267,44,17,10,040,00*73
$GPGSV,3,2,10,30,41,261,31,02,13,119,22,14,35,303,20,12,80,288,42*7F
$GPGSV,3,3,10,01,07,330,00,47,07,249,00*75
$GPGGA,154452,4946.5723,N,01018.5644,E,1,06,2.50,284.1,M,47.810,M,,*72
$GPRMC,154452,A,4946.5723,N,01018.5644,E,0.0000,0.000,020807,,*24
$GPGSA,A,3,09,05,30,02,14,12,,,,,,,3.1,2.5,1.7*3A
$PGRME,0.00,M,0.00,M,11.94,M*23
$GPGSV,3,1,10,09,61,132,29,04,19,083,00,05,60,267,43,17,10,040,00*7C
$GPGSV,3,2,10,30,41,261,31,02,13,119,20,14,35,303,21,12,80,288,41*7F
$GPGSV,3,3,10,01,07,330,00,47,07,249,00*75
$GPGGA,154453,4946.5723,N,01018.5644,E,1,06,2.50,284.1,M,47.810,M,,*73
$GPRMC,154453,A,4946.5723,N,01018.5644,E,0.0000,0.000,020807,,*25
$GPGSA,A,3,09,05,30,02,14,12,,,,,,,3.1,2.5,1.7*3A
$PGRME,0.00,M,0.00,M,11.94,M*23
$GPGSV,3,1,10,09,61,132,28,04,19,083,00,05,60,267,41,17,10,040,00*7F
$GPGSV,3,2,10,30,41,261,31,02,13,119,17,14,35,303,21,12,80,288,41*7B
$GPGSV,3,3,10,01,07,330,00,47,07,249,00*75
$GPGGA,154454,4946.5723,N,01018.5644,E,1,06,2.50,284.1,M,47.810,M,,*74
$GPRMC,154454,A,4946.5723,N,01018.5644,E,0.0000,0.000,020807,,*22
$GPGSA,A,3,09,05,30,02,14,12,,,,,,,3.1,2.5,1.7*3A
$PGRME,0.00,M,0.00,M,11.94,M*23
$GPGSV,3,1,10,09,61,132,28,04,19,083,00,05,60,267,41,17,10,040,00*7F
$GPGSV,3,2,10,30,41,261,31,02,13,119,17,14,35,303,23,12,80,288,41*79
$GPGSV,3,3,10,01,07,330,00,47,07,249,00*75
$GPGGA,154455,4946.5723,N,01018.5644,E,1,06,2.50,284.1,M,47.810,M,,*75
$GPRMC,154455,A,4946.5723,N,01018.5644,E,0.0000,0.000,020807,,*23
$GPGSA,A,3,09,05,30,02,14,12,,,,,,,3.1,2.5,1.7*3A
$PGRME,0.00,M,0.00,M,11.94,M*23
$GPGSV,3,1,10,09,61,132,27,04,19,083,00,05,60,267,43,17,10,040,00*72
$GPGSV,3,2,10,30,41,261,32,02,13,119,16,14,35,303,20,12,80,288,41*78
$GPGSV,3,3,10,01,07,330,00,47,07,249,00*75
$GPGGA,154456,4946.5723,N,01018.5644,E,1,06,2.50,284.1,M,47.810,M,,*76
$GPRMC,154456,A,4946.5723,N,01018.5644,E,0.0000,0.000,020807,,*20
$GPGSA,A,3,09,05,30,02,14,12,,,,,,,3.1,2.5,1.7*3A
$PGRME,0.00,M,0.00,M,11.94,M*23
$GPGSV,3,1,10,09,61,132,29,04,19,083,00,05,60,267,43,17,10,040,00*7C
$GPGSV,3,2,10,30,41,261,34,02,13,119,17,14,35,303,19,12,80,288,42*76
$GPGSV,3,3,10,01,07,330,00,47,07,249,00*75
$GPGGA,154457,4946.5723,N,01018.5642,E,1,06,2.50,285.5,M,47.810,M,,*74
$GPRMC,154457,A,4946.5723,N,01018.5642,E,0.0000,0.000,020807,,*27
$GPGSA,A,3,09,05,30,02,14,12,,,,,,,3.1,2.5,1.7*3A
$PGRME,0.00,M,0.00,M,11.94,M*23
$GPGSV,3,1,10,09,61,132,29,04,19,083,00,05,60,267,44,17,10,040,00*7B
$GPGSV,3,2,10,30,41,261,34,02,13,119,18,14,35,303,18,12,80,288,41*7B
$GPGSV,3,3,10,01,07,330,00,47,07,249,00*75
$GPGGA,154458,4946.5723,N,01018.5642,E,1,06,2.50,285.5,M,47.810,M,,*7B
$GPRMC,154458,A,4946.5723,N,01018.5642,E,0.0000,0.000,020807,,*28
$GPGSA,A,3,09,05,30,02,14,12,,,,,,,3.1,2.5,1.7*3A
$PGRME,0.00,M,0.00,M,11.94,M*23
$GPGSV,3,1,10,09,61,132,30,04,19,083,00,05,60,267,43,17,10,040,00*74
$GPGSV,3,2,10,30,41,261,32,02,13,119,17,14,35,303,18,12,80,288,40*73
$GPGSV,3,3,10,01,07,330,00,47,07,249,00*75
$GPGGA,154459,4946.5723,N,01018.5642,E,1,06,2.50,285.5,M,47.810,M,,*7A
$GPRMC,154459,A,4946.5723,N,01018.5642,E,0.0000,0.000,020807,,*29
$GPGSA,A,3,09,05,30,02,14,12,,,,,,,3.1,2.5,1.7*3A
$PGRME,0.00,M,0.00,M,11.94,M*23
$GPGSV,3,1,10,09,61,132,29,04,19,083,00,05,60,267,43,17,10,040,00*7C
$GPGSV,3,2,10,30,41,261,30,02,13,119,17,14,35,303,20,12,80,288,41*7B
$GPGSV,3,3,10,01,07,330,00,47,07,249,00*75
$GPGGA,154500,4946.5723,N,01018.5642,E,1,06,2.50,285.5,M,47.810,M,,*77
$GPRMC,154500,A,4946.5723,N,01018.5642,E,0.0000,0.000,020807,,*24
$GPGSA,A,3,09,05,30,02,14,12,,,,,,,3.1,2.5,1.7*3A
$PGRME,0.00,M,0.00,M,11.94,M*23
$GPGSV,3,1,10,09,61,132,30,04,19,083,00,05,60,267,49,17,10,040,00*7E
$GPGSV,3,2,10,30,41,261,33,02,13,119,15,14,35,303,20,12,80,288,43*78
$GPGSV,3,3,10,01,07,330,00,47,07,249,00*75
$GPGGA,154501,4946.5723,N,01018.5642,E,1,06,2.50,285.5,M,47.810,M,,*76
$GPRMC,154501,A,4946.5723,N,01018.5642,E,0.0000,0.000,020807,,*25
$GPGSA,A,3,09,05,30,02,14,12,,,,,,,3.1,2.5,1.7*3A
$PGRME,0.00,M,0.00,M,11.94,M*23
$GPGSV,3,1,10,09,61,132,31,04,19,083,00,05,60,267,50,17,10,040,00*77
$GPGSV,3,2,10,30,41,261,36,02,13,119,17,14,35,303,22,12,80,288,43*7D
$GPGSV,3,3,10,01,07,330,00,47,07,249,00*75
$GPGGA,154502,4946.5723,N,01018.5642,E,1,06,2.50,285.5,M,47.810,M,,*75
$GPRMC,154502,A,4946.5723,N,01018.5642,E,0.0000,0.000,020807,,*26
$GPGSA,A,3,09,05,30,02,14,12,,,,,,,3.1,2.5,1.7*3A
$PGRME,0.00,M,0.00,M,11.94,M*23
$GPGSV,3,1,10,09,61,132,30,04,19,083,00,05,60,267,48,17,10,040,00*7F
$GPGSV,3,2,10,30,41,261,38,02,13,119,16,14,35,303,21,12,80,288,41*73
$GPGSV,3,3,10,01,07,330,00,47,07,249,00*75
$GPGGA,154503,4946.5723,N,01018.5642,E,1,06,2.50,285.5,M,47.810,M,,*74
$GPRMC,154503,A,4946.5723,N,01018.5642,E,0.0000,0.000,020807,,*27
$GPGSA,A,3,09,05,30,02,14,12,,,,,,,3.1,2.5,1.7*3A
$PGRME,0.00,M,0.00,M,11.94,M*23
$GPGSV,3,1,10,09,61,132,30,04,19,083,00,05,60,267,47,17,10,040,00*70
$GPGSV,3,2,10,30,41,261,39,02,13,119,18,14,35,303,21,12,80,288,42*7F
$GPGSV,3,3,10,01,07,329,00,47,07,249,00*7D
$GPGGA,154504,4946.5723,N,01018.5642,E,1,06,2.50,285.5,M,47.810,M,,*73
$GPRMC,154504,A,4946.5723,N,01018.5642,E,0.0000,0.000,020807,,*20
$GPGSA,A,3,09,05,30,02,14,12,,,,,,,3.1,2.5,1.7*3A
$PGRME,0.00,M,0.00,M,11.94,M*23
$GPGSV,3,1,10,09,61,132,30,04,19,083,00,05,60,267,46,17,10,040,00*71
$GPGSV,3,2,10,30,41,261,41,02,13,119,18,14,35,303,20,12,80,288,41*72
$GPGSV,3,3,10,01,07,329,00,47,07,249,00*7D
$GPGGA,154505,4946.5723,N,01018.5642,E,1,06,2.50,285.5,M,47.810,M,,*72
$GPRMC,154505,A,4946.5723,N,01018.5642,E,0.0000,0.000,020807,,*21
$GPGSA,A,3,09,05,30,02,14,12,,,,,,,3.1,2.5,1.7*3A
$PGRME,0.00,M,0.00,M,11.94,M*23
$GPGSV,3,1,10,09,61,132,28,04,19,083,00,05,60,267,45,17,10,040,00*7B
$GPGSV,3,2,10,30,41,261,41,02,13,119,17,14,35,303,19,12,80,288,40*76
$GPGSV,3,3,10,01,07,329,00,47,07,249,00*7D
$GPGGA,154506,4946.5723,N,01018.5642,E,1,06,2.50,285.5,M,47.810,M,,*71
$GPRMC,154506,A,4946.5723,N,01018.5642,E,0.0000,0.000,020807,,*22
$GPGSA,A,3,09,05,30,02,14,12,,,,,,,3.1,2.5,1.7*3A
$PGRME,0.00,M,0.00,M,11.94,M*23
$GPGSV,3,1,10,09,61,132,28,04,19,083,00,05,60,267,47,17,10,040,00*79
$GPGSV,3,2,10,30,41,261,40,02,13,119,17,14,35,303,18,12,80,288,41*77
$GPGSV,3,3,10,01,07,329,00,47,07,249,00*7D
$GPGGA,154507,4946.5723,N,01018.5642,E,1,06,2.50,285.5,M,47.810,M,,*70
$GPRMC,154507,A,4946.5723,N,01018.5642,E,0.0000,0.000,020807,,*23
$GPGSA,A,3,09,05,30,02,14,12,,,,,,,3.1,2.5,1.7*3A
$PGRME,0.00,M,0.00,M,11.94,M*23
$GPGSV,3,1,10,09,61,132,30,04,19,083,00,05,60,267,47,17,10,040,00*70
$GPGSV,3,2,10,30,41,261,39,02,13,119,17,14,35,303,18,12,80,288,42*7A
$GPGSV,3,3,10,01,07,329,00,35,07,249,00*78
$GPGGA,154508,4946.5723,N,01018.5642,E,1,06,2.50,285.5,M,47.810,M,,*7F
$GPRMC,154508,A,4946.5723,N,01018.5642,E,0.0000,0.000,020807,,*2C
$GPGSA,A,3,09,05,30,02,14,12,,,,,,,3.1,2.5,1.7*3A
$PGRME,0.00,M,0.00,M,11.94,M*23
$GPGSV,3,1,10,09,61,132,32,04,19,083,00,05,60,267,48,17,10,040,00*7D
$GPGSV,3,2,10,30,41,261,40,02,13,119,16,14,35,303,20,12,80,288,41*7D
$GPGSV,3,3,10,01,07,329,00,35,07,249,00*78
$GPGGA,154509,4946.5727,N,01018.5644,E,1,06,2.50,284.9,M,47.810,M,,*71
$GPRMC,154509,A,4946.5727,N,01018.5644,E,0.0000,0.000,020807,,*2F
$GPGSA,A,3,09,05,30,02,14,12,,,,,,,3.1,2.5,1.7*3A
$PGRME,0.00,M,0.00,M,11.94,M*23
$GPGSV,3,1,10,09,61,132,34,04,19,083,00,05,60,267,45,17,10,040,00*76
$GPGSV,3,2,10,30,41,261,39,02,13,119,17,14,35,303,20,12,80,288,42*71
$GPGSV,3,3,10,01,07,329,00,35,07,249,00*78
$GPGGA,154510,4946.5723,N,01018.5644,E,1,06,2.50,284.1,M,47.810,M,,*75
$GPRMC,154510,A,4946.5723,N,01018.5644,E,0.0000,0.000,020807,,*23
$GPGSA,A,3,09,05,30,02,14,12,,,,,,,3.1,2.5,1.7*3A
$PGRME,0.00,M,0.00,M,11.94,M*23
$GPGSV,3,1,10,09,61,132,34,04,19,083,00,05,60,267,45,17,10,040,00*76
$GPGSV,3,2,10,30,41,261,39,02,13,119,21,14,35,303,19,12,80,288,43*7F
$GPGSV,3,3,10,01,07,329,00,35,07,249,00*78
$GPGGA,154511,4946.5722,N,01018.5652,E,1,06,2.50,284.2,M,47.810,M,,*71
$GPRMC,154511,A,4946.5722,N,01018.5652,E,0.0000,0.000,020807,,*24
$GPGSA,A,3,09,05,30,02,14,12,,,,,,,3.1,2.5,1.7*3A
$PGRME,0.00,M,0.00,M,11.94,M*23
$GPGSV,3,1,10,09,61,132,33,04,19,083,00,05,60,267,45,17,10,040,00*71
$GPGSV,3,2,10,30,41,261,39,02,13,119,20,14,35,303,20,12,80,288,42*75
$GPGSV,3,3,10,01,07,329,00,35,07,249,00*78
$GPGGA,154512,4946.5722,N,01018.5652,E,1,06,2.50,284.2,M,47.810,M,,*72
$GPRMC,154512,A,4946.5722,N,01018.5652,E,0.0000,0.000,020807,,*27
$GPGSA,A,3,09,05,30,02,14,12,,,,,,,3.1,2.5,1.7*3A
$PGRME,0.00,M,0.00,M,11.94,M*23
$GPGSV,3,1,10,09,61,132,34,04,19,083,00,05,60,267,44,17,10,040,00*77
$GPGSV,3,2,10,30,41,261,39,02,13,119,18,14,35,303,21,12,80,288,41*7C
$GPGSV,3,3,10,01,07,329,00,35,07,249,00*78
$GPGGA,154513,4946.5722,N,01018.5652,E,1,06,2.50,284.2,M,47.810,M,,*73
$GPRMC,154513,A,4946.5722,N,01018.5652,E,0.0000,0.000,020807,,*26
$GPGSA,A,3,09,05,30,02,14,12,,,,,,,3.1,2.5,1.7*3A
$PGRME,0.00,M,0.00,M,11.94,M*23
$GPGSV,3,1,10,09,61,132,33,04,19,083,00,05,60,267,43,17,10,040,00*77
$GPGSV,3,2,10,30,41,261,39,02,13,119,17,14,35,303,19,12,80,288,40*79
$GPGSV,3,3,10,01,07,329,00,35,07,249,00*78
$GPGGA,154514,4946.5723,N,01018.5653,E,1,06,2.50,282.8,M,47.809,M,,*70
$GPRMC,154514,A,4946.5723,N,01018.5653,E,0.0000,0.000,020807,,*21
$GPGSA,A,3,09,05,30,02,14,12,,,,,,,3.1,2.5,1.7*3A
$PGRME,0.00,M,0.00,M,11.94,M*23
$GPGSV,3,1,10,09,61,132,32,04,19,083,00,05,60,267,42,17,10,040,00*77
$GPGSV,3,2,10,30,41,261,38,02,13,119,18,14,35,303,19,12,80,289,38*79
$GPGSV,3,3,10,01,07,329,00,35,07,249,00*78
$GPGGA,154515,4946.5723,N,01018.5653,E,1,06,2.50,282.8,M,47.809,M,,*71
$GPRMC,154515,A,4946.5723,N,01018.5653,E,0.0000,0.000,020807,,*20
$GPGSA,A,3,09,05,30,02,14,12,,,,,,,3.1,2.5,1.7*3A
$PGRME,0.00,M,0.00,M,11.94,M*23
$GPGSV,3,1,10,09,61,132,32,04,19,083,00,05,60,267,42,17,10,040,00*77
$GPGSV,3,2,10,30,41,261,36,02,13,119,18,14,35,303,19,12,80,289,36*79
$GPGSV,3,3,10,01,07,329,00,35,07,249,00*78
$GPGGA,154516,4946.5723,N,01018.5653,E,1,06,2.50,282.8,M,47.809,M,,*72
$GPRMC,154516,A,4946.5723,N,01018.5653,E,0.0000,0.000,020807,,*23
$GPGSA,A,3,09,05,30,02,14,12,,,,,,,3.1,2.5,1.7*3A
$PGRME,0.00,M,0.00,M,11.94,M*23
$GPGSV,3,1,10,09,61,132,32,04,19,083,00,05,60,267,41,17,10,040,00*74
$GPGSV,3,2,10,30,41,261,35,02,13,119,17,14,35,303,19,12,80,289,40*74
$GPGSV,3,3,10,01,07,329,00,35,07,249,00*78
$GPGGA,154517,4946.5723,N,01018.5653,E,1,06,2.50,282.8,M,47.809,M,,*73
$GPRMC,154517,A,4946.5723,N,01018.5653,E,0.0000,0.000,020807,,*22
$GPGSA,A,3,09,05,30,02,14,12,,,,,,,3.1,2.5,1.7*3A
$PGRME,0.00,M,0.00,M,11.94,M*23
$GPGSV,3,1,10,09,61,132,33,04,19,083,00,05,60,267,42,17,10,040,00*76
$GPGSV,3,2,10,30,41,261,35,02,13,119,18,14,35,303,20,12,80,289,42*73
$GPGSV,3,3,10,01,07,329,00,35,07,249,00*78
$GPGGA,154518,4946.5723,N,01018.5653,E,1,06,2.50,282.8,M,47.809,M,,*7C
$GPRMC,154518,A,4946.5723,N,01018.5653,E,0.0000,0.000,020807,,*2D
$GPGSA,A,3,09,05,30,02,14,12,,,,,,,3.1,2.5,1.7*3A
$PGRME,0.00,M,0.00,M,11.94,M*23
$GPGSV,3,1,10,09,61,132,33,04,19,083,00,05,60,267,42,17,10,040,00*76
$GPGSV,3,2,10,30,41,261,36,02,13,119,17,14,35,303,21,12,80,289,41*7D
$GPGSV,3,3,10,01,07,329,00,35,07,249,00*78
$GPGGA,154519,4946.5727,N,01018.5655,E,1,06,2.50,282.2,M,47.809,M,,*75
$GPRMC,154519,A,4946.5727,N,01018.5655,E,0.0000,0.000,020807,,*2E
$GPGSA,A,3,09,05,30,02,14,12,,,,,,,3.1,2.5,1.8*35
$PGRME,0.00,M,0.00,M,11.94,M*23
$GPGSV,3,1,10,09,61,132,32,04,19,083,00,05,60,267,45,17,10,040,00*70
$GPGSV,3,2,10,30,41,261,36,02,13,119,17,14,35,303,21,12,80,289,41*7D
$GPGSV,3,3,10,01,07,329,00,35,07,249,00*78
$GPGGA,154520,4946.5724,N,01018.5655,E,1,06,2.50,281.4,M,47.809,M,,*79
$GPRMC,154520,A,4946.5724,N,01018.5655,E,0.0000,0.000,020807,,*27
$GPGSA,A,3,09,05,30,02,14,12,,,,,,,3.1,2.5,1.8*35
$PGRME,0.00,M,0.00,M,11.94,M*23
$GPGSV,3,1,10,09,61,132,33,04,19,083,00,05,60,267,44,17,10,040,00*70
$GPGSV,3,2,10,30,41,261,37,02,13,119,18,14,35,303,20,12,80,289,42*71
$GPGSV,3,3,10,01,07,329,00,35,07,249,00*78
$GPGGA,154521,4946.5724,N,01018.5655,E,1,06,2.50,281.4,M,47.809,M,,*78
$GPRMC,154521,A,4946.5724,N,01018.5655,E,0.0000,0.000,020807,,*26
$GPGSA,A,3,09,05,30,02,14,12,,,,,,,3.1,2.5,1.8*35
$PGRME,0.00,M,0.00,M,11.94,M*23
$GPGSV,3,1,10,09,61,132,31,04,19,083,00,05,60,267,43,17,10,040,00*75
$GPGSV,3,2,10,30,41,261,32,02,13,119,19,14,35,303,21,12,80,289,40*76
